$GPGSA,M,3,23,09,03,06,19,02,,,,,,,3.4,1.8,2.9*3C
$GPGSV,3,1,12,23,76,108,39,09,54,206,41,03,45,079,23,06,45,304,41*7A
$GPGSV,3,2,12,19,39,253,45,02,12,312,26,01,17,140,34,17,31,230,43*7E
$GPGSV,3,3,12,31,10,032,24,33,33,198,35,22,26,088,,11,00,154,*7C
$GPRMC,080445.000,A,4805.5414,N,00137.7141,W,0.13,297.60,220118,,,A*7A
Survey start at #CCLK: "18/01/22,09:04:45+04"
at#csurv
Network survey started ...
Survey end at #CCLK: "18/01/22,09:04:45+04"
Survey duration: 0 seconds, 0 bases detected over 0 freqs scanned.
$GPGGA,080446.000,4805.5414,N,00137.7142,W,1,06,1.8,-30.5,M,48.2,M,,0000*52
$GPGSA,M,3,23,09,03,06,19,02,,,,,,,3.4,1.8,2.9*3C
$GPRMC,080446.000,A,4805.5414,N,00137.7142,W,0.00,297.60,220118,,,A*78
$GPGGA,080447.000,4805.5415,N,00137.7142,W,1,06,1.8,-30.5,M,48.2,M,,0000*52
$GPGSA,M,3,23,09,03,06,19,02,,,,,,,3.4,1.8,2.9*3C
$GPRMC,080447.000,A,4805.5415,N,00137.7142,W,0.00,297.60,220118,,,A*78
$GPGGA,080448.000,4805.5415,N,00137.7142,W,1,06,1.8,-30.4,M,48.2,M,,0000*5C
$GPGSA,M,3,23,09,03,06,19,02,,,,,,,3.4,1.8,2.9*3C
Survey start at #CCLK: "18/01/22,09:04:47+04"
at#csurv
Network survey started ...
$GPRMC,080448.000,A,4805.5415,N,00137.7142,W,0.00,297.60,220118,,,A*77
$GPGGA,080449.000,4805.5415,N,00137.7142,W,1,06,1.8,-30.4,M,48.2,M,,0000*5D
$GPGSA,M,3,23,09,03,06,19,02,,,,,,,3.4,1.8,2.9*3C
$GPRMC,080449.000,A,4805.5415,N,00137.7142,W,0.00,297.60,220118,,,A*76
$GPGGA,080450.000,4805.5417,N,00137.7139,W,1,07,1.5,-26.7,M,48.2,M,,0000*53
$GPGSA,M,3,23,09,03,06,19,02,17,,,,,,2.9,1.5,2.5*37
$GPGSV,3,1,12,23,76,108,39,09,54,206,40,03,45,079,24,06,45,303,41*7B
$GPGSV,3,2,12,19,39,253,44,02,12,312,25,17,31,230,42,01,16,140,34*7C
$GPGSV,3,3,12,31,10,032,24,33,33,198,35,22,26,088,,11,00,154,*7C
$GPRMC,080450.000,A,4805.5417,N,00137.7139,W,0.00,297.60,220118,,,A*70
$GPGGA,080451.000,4805.5423,N,00137.7226,W,1,07,1.5,8.8,M,48.2,M,,0000*46
$GPGSA,M,3,23,09,06,03,19,17,02,,,,,,2.9,1.5,2.5*37
$GPRMC,080451.000,A,4805.5423,N,00137.7226,W,0.06,297.60,220118,,,A*7D
$GPGGA,080452.000,4805.5423,N,00137.7226,W,1,07,1.5,8.9,M,48.2,M,,0000*44
$GPGSA,M,3,23,09,06,03,19,17,02,,,,,,2.9,1.5,2.5*37
$GPRMC,080452.000,A,4805.5423,N,00137.7226,W,0.00,297.60,220118,,,A*78
$GPGGA,080453.000,4805.5423,N,00137.7227,W,1,07,1.5,9.0,M,48.2,M,,0000*4C
$GPGSA,M,3,23,09,06,03,19,17,02,,,,,,2.9,1.5,2.5*37
$GPRMC,080453.000,A,4805.5423,N,00137.7227,W,0.00,297.60,220118,,,A*78
$GPGGA,080454.000,4805.5424,N,00137.7256,W,1,07,1.5,15.3,M,48.2,M,,0000*74
$GPGSA,M,3,23,09,06,03,19,17,02,,,,,,2.9,1.5,2.5*37
$GPRMC,080454.000,A,4805.5424,N,00137.7256,W,1.07,297.60,220118,,,A*78
$GPGGA,080455.000,4805.5426,N,00137.7287,W,1,07,1.5,21.3,M,48.2,M,,0000*7C
$GPGSA,M,3,23,09,06,03,19,17,02,,,,,,2.9,1.5,2.5*37
$GPGSV,3,1,12,23,76,108,39,09,54,206,41,06,45,303,41,03,45,079,23*7D
$GPGSV,3,2,12,19,39,253,44,17,31,230,43,02,12,312,27,01,16,140,34*7F
$GPGSV,3,3,12,31,10,032,31,33,33,198,35,22,26,088,,11,00,154,*78
$GPRMC,080455.000,A,4805.5426,N,00137.7287,W,4.40,296.15,220118,,,A*72
$GPGGA,080456.000,4805.5432,N,00137.7321,W,1,07,1.5,25.1,M,48.2,M,,0000*71
$GPGSA,M,3,23,09,06,03,19,17,02,,,,,,2.9,1.5,2.5*37
$GPRMC,080456.000,A,4805.5432,N,00137.7321,W,6.00,296.28,220118,,,A*71
$GPGGA,080457.000,4805.5438,N,00137.7354,W,1,07,1.5,28.0,M,48.2,M,,0000*74
$GPGSA,M,3,23,09,06,03,19,17,02,,,,,,2.9,1.5,2.5*37
$GPRMC,080457.000,A,4805.5438,N,00137.7354,W,5.85,295.91,220118,,,A*77
arfcn: 982 bsic: 25 rxLev: -67 ber: 0.00 mcc: 208 mnc: 20 lac: 418 cellId: 20017 cellStatus: CELL_SUITABLE numArfcn: 1 arfcn: 982 numChannels: 22 array: 787 788 789 790 792 879 885 976 979 980 981 985 986 1011 1015 1016 1017 1018 1019 1020 1021 1022 pbcch: 0 nom: 2 rac: 7 spgc: 0 pat: 6 nco: 0 t3168: 1500 t3192: 500 drxmax: 0 ctrlAck: 0 bsCVmax: 8 alpha: 6 pcMeasCh: 1 
$GPGGA,080458.000,4805.5444,N,00137.7379,W,1,07,1.5,29.6,M,48.2,M,,0000*78
$GPGSA,M,3,23,09,06,03,19,17,02,,,,,,2.9,1.5,2.5*37
$GPRMC,080458.000,A,4805.5444,N,00137.7379,W,4.63,296.03,220118,,,A*7D
$GPGGA,080459.000,4805.5448,N,00137.7394,W,1,07,1.5,30.5,M,48.2,M,,0000*7D
$GPGSA,M,3,23,09,06,03,19,17,02,,,,,,2.9,1.5,2.5*37
$GPRMC,080459.000,A,4805.5448,N,00137.7394,W,1.60,296.15,220118,,,A*72
$GPGGA,080500.000,4805.5447,N,00137.7393,W,1,07,1.5,30.6,M,48.2,M,,0000*7B
$GPGSA,M,3,23,09,06,03,19,17,02,,,,,,2.9,1.5,2.5*37
$GPGSV,3,1,12,23,76,108,38,09,54,206,41,06,45,303,41,03,45,079,29*76
$GPGSV,3,2,12,19,39,253,44,17,31,230,43,02,12,312,27,01,16,140,34*7F
$GPGSV,3,3,12,31,10,032,19,33,33,198,34,22,26,088,,11,00,154,*73
$GPRMC,080500.000,A,4805.5447,N,00137.7393,W,0.08,296.15,220118,,,A*78
$GPGGA,080501.000,4805.5447,N,00137.7393,W,1,07,1.5,30.7,M,48.2,M,,0000*7B
$GPGSA,M,3,23,09,06,03,19,17,02,,,,,,2.9,1.5,2.5*37
$GPRMC,080501.000,A,4805.5447,N,00137.7393,W,0.00,296.15,220118,,,A*71
arfcn: 10 bsic: 39 rxLev: -73 ber: 0.00 mcc: 208 mnc: 01 lac: 10300 cellId: 6518 cellStatus: CELL_FORBIDDEN numArfcn: 13 arfcn: 10 17 18 19 20 21 22 23 24 25 47 48 49 numChannels: 27 array: 1 2 3 4 5 6 7 8 9 10 11 12 15 16 512 515 517 518 519 523 599 601 605 606 608 609 610 pbcch: 0 nom: 2 rac: 1 spgc: 1 pat: 6 nco: 0 t3168: 1000 t3192: 500 drxmax: 4 ctrlAck: 1 bsCVmax: 9 alpha: 7 pcMeasCh: 0 
$GPGGA,080502.000,4805.5447,N,00137.7393,W,1,07,1.5,30.7,M,48.2,M,,0000*78
$GPGSA,M,3,23,09,06,03,19,17,02,,,,,,2.9,1.5,2.5*37
$GPRMC,080502.000,A,4805.5447,N,00137.7393,W,0.00,296.15,220118,,,A*72
$GPGGA,080503.000,4805.5447,N,00137.7393,W,1,07,1.5,30.7,M,48.2,M,,0000*79
$GPGSA,M,3,23,09,06,03,19,17,02,,,,,,2.9,1.5,2.5*37
$GPRMC,080503.000,A,4805.5447,N,00137.7393,W,0.00,296.15,220118,,,A*73
arfcn: 12 bsic: 60 rxLev: -78 ber: 0.00 mcc: 208 mnc: 01 lac: 10300 cellId: 42645 cellStatus: CELL_FORBIDDEN numArfcn: 13 arfcn: 12 17 18 19 20 21 22 23 24 25 47 48 49 numChannels: 15 array: 2 3 6 7 8 9 10 15 16 512 515 517 608 609 610 pbcch: 0 nom: 2 rac: 1 spgc: 0 pat: 6 nco: 0 t3168: 1000 t3192: 500 drxmax: 2 ctrlAck: 0 bsCVmax: 9 alpha: 5 pcMeasCh: 1 
arfcn: 523 rxLev: -78
arfcn: 1015 bsic: 59 rxLev: -78 ber: 0.00 mcc: 208 mnc: 20 lac: 418 cellId: 22494 cellStatus: CELL_SUITABLE numArfcn: 1 arfcn: 1015 numChannels: 24 array: 976 978 979 980 981 982 986 987 1013 1014 1017 1018 1019 1020 1021 788 789 790 792 794 880 883 884 885 pbcch: 0 nom: 2 rac: 7 spgc: 0 pat: 6 nco: 0 t3168: 1500 t3192: 500 drxmax: 0 ctrlAck: 0 bsCVmax: 8 alpha: 6 pcMeasCh: 1 
arfcn: 123 rxLev: -80
$GPGGA,080504.000,4805.5447,N,00137.7393,W,1,07,1.5,30.7,M,48.2,M,,0000*7E
$GPGSA,M,3,23,09,06,03,19,17,02,,,,,,2.9,1.5,2.5*37
$GPRMC,080504.000,A,4805.5447,N,00137.7393,W,0.00,296.15,220118,,,A*74
$GPGGA,080505.000,4805.5447,N,00137.7393,W,1,07,1.5,30.7,M,48.2,M,,0000*7F
$GPGSA,M,3,23,09,06,03,19,17,02,,,,,,2.9,1.5,2.5*37
$GPGSV,3,1,12,23,76,108,38,09,54,206,41,06,45,303,40,03,45,079,27*79
$GPGSV,3,2,12,19,39,253,44,17,31,230,43,02,12,312,24,01,16,140,32*7A
$GPGSV,3,3,12,07,00,170,16,31,10,032,18,37,27,151,,22,26,088,*77
$GPRMC,080505.000,A,4805.5447,N,00137.7393,W,0.00,296.15,220118,,,A*75
arfcn: 115 bsic: 46 rxLev: -80 ber: 0.00 mcc: 208 mnc: 10 lac: 49415 cellId: 2271 cellStatus: CELL_FORBIDDEN numArfcn: 3 arfcn: 77 113 115 numChannels: 13 array: 80 82 84 85 113 114 115 116 117 119 120 121 123 pbcch: 0 nom: 2 rac: 31 spgc: 0 pat: 6 nco: 0 t3168: 1000 t3192: 500 drxmax: 4 ctrlAck: 1 bsCVmax: 9 alpha: 10 pcMeasCh: 0 
$GPGGA,080506.000,4805.5447,N,00137.7393,W,1,07,1.5,30.7,M,48.2,M,,0000*7C
$GPGSA,M,3,23,09,06,03,19,17,02,,,,,,2.9,1.5,2.5*37
$GPRMC,080506.000,A,4805.5447,N,00137.7393,W,0.00,296.15,220118,,,A*76
$GPGGA,080507.000,4805.5446,N,00137.7398,W,1,07,1.5,31.8,M,48.2,M,,0000*79
$GPGSA,M,3,23,09,06,03,19,17,02,,,,,,2.9,1.5,2.5*37
$GPRMC,080507.000,A,4805.5446,N,00137.7398,W,0.72,296.15,220118,,,A*78
$GPGGA,080508.000,4805.5449,N,00137.7414,W,1,07,1.5,32.9,M,48.2,M,,0000*78
$GPGSA,M,3,23,09,06,03,19,17,02,,,,,,2.9,1.5,2.5*37
$GPRMC,080508.000,A,4805.5449,N,00137.7414,W,5.73,296.08,220118,,,A*73
$GPGGA,080509.000,4805.5458,N,00137.7443,W,1,07,1.5,33.7,M,48.2,M,,0000*74
$GPGSA,M,3,23,09,06,03,19,17,02,,,,,,2.9,1.5,2.5*37
$GPRMC,080509.000,A,4805.5458,N,00137.7443,W,7.62,296.60,220118,,,A*7C
arfcn: 84 bsic: 27 rxLev: -82 ber: 0.00 mcc: 208 mnc: 10 lac: 49415 cellId: 2311 cellStatus: CELL_FORBIDDEN numArfcn: 2 arfcn: 84 112 numChannels: 14 array: 77 80 82 84 87 113 115 116 117 118 120 121 123 124 pbcch: 0 nom: 2 rac: 31 spgc: 0 pat: 6 nco: 0 t3168: 1000 t3192: 500 drxmax: 4 ctrlAck: 1 bsCVmax: 9 alpha: 10 pcMeasCh: 0 
arfcn: 792 rxLev: -82
arfcn: 6 rxLev: -82
$GPGGA,080510.000,4805.5467,N,00137.7475,W,1,07,1.5,34.7,M,48.2,M,,0000*72
arfcn: 37 rxLev: -82
$GPGSA,M,3,23,09,06,03,19,17,02,,,,,,2.9,1.5,2.5*37
$GPGSV,3,1,12,23,76,108,38,09,54,206,41,06,45,303,41,03,45,079,28*77
$GPGSV,3,2,12,19,39,253,44,17,31,230,43,02,12,312,24,01,16,140,33*7B
$GPGSV,3,3,12,31,10,032,28,37,27,151,,22,26,088,,11,00,154,*72
$GPRMC,080510.000,A,4805.5467,N,00137.7475,W,7.29,297.03,220118,,,A*76
$GPGGA,080511.000,4805.5476,N,00137.7503,W,1,07,1.5,35.3,M,48.2,M,,0000*76
$GPGSA,M,3,23,09,06,03,19,17,02,,,,,,2.9,1.5,2.5*37
$GPRMC,080511.000,A,4805.5476,N,00137.7503,W,6.48,296.38,220118,,,A*78
$GPGGA,080512.000,4805.5484,N,00137.7528,W,1,07,1.5,35.8,M,48.2,M,,0000*7A
$GPGSA,M,3,23,09,06,03,19,17,02,,,,,,2.9,1.5,2.5*37
$GPRMC,080512.000,A,4805.5484,N,00137.7528,W,5.85,296.63,220118,,,A*73
$GPGGA,080513.000,4805.5491,N,00137.7552,W,1,07,1.5,36.5,M,48.2,M,,0000*7C
arfcn: 608 bsic: 52 rxLev: -82 ber: 0.00 mcc: 208 mnc: 01 lac: 10300 cellId: 31076 cellStatus: CELL_FORBIDDEN numArfcn: 23 arfcn: 525 526 527 528 529 530 531 532 533 534 535 587 588 589 590 591 592 593 594 595 596 597 608 numChannels: 21 array: 1 2 3 6 7 8 9 10 11 12 16 512 515 517 518 601 605 606 608 609 610 pbcch: 0 nom: 2 rac: 1 spgc: 1 pat: 6 nco: 0 t3168: 1000 t3192: 500 drxmax: 4 ctrlAck: 1 bsCVmax: 9 alpha: 7 pcMeasCh: 0 
$GPGSA,M,3,23,09,06,03,19,17,02,,,,,,2.9,1.5,2.5*37
$GPRMC,080513.000,A,4805.5491,N,00137.7552,W,5.64,296.57,220118,,,A*73
$GPGGA,080514.000,4805.5498,N,00137.7575,W,1,07,1.5,37.1,M,48.2,M,,0000*72
$GPGSA,M,3,23,09,06,03,19,17,02,,,,,,2.9,1.5,2.5*37
$GPRMC,080514.000,A,4805.5498,N,00137.7575,W,5.43,296.73,220118,,,A*7B
$GPGGA,080515.000,4805.5505,N,00137.7597,W,1,07,1.5,37.7,M,48.2,M,,0000*7C
$GPGSA,M,3,23,09,06,03,19,17,02,,,,,,2.9,1.5,2.5*37
$GPGSV,3,1,12,23,76,107,37,09,54,206,41,06,45,303,41,03,45,079,28*77
$GPGSV,3,2,12,19,38,252,43,17,31,230,43,02,12,312,24,01,16,140,32*7D
$GPGSV,3,3,12,31,10,031,23,37,27,151,,22,26,088,,11,00,154,*7A
$GPRMC,080515.000,A,4805.5505,N,00137.7597,W,5.30,296.29,220118,,,A*78
$GPGGA,080516.000,4805.5511,N,00137.7619,W,1,07,1.5,38.2,M,48.2,M,,0000*75
$GPGSA,M,3,23,09,06,03,19,17,02,,,,,,2.9,1.5,2.5*37
$GPRMC,080516.000,A,4805.5511,N,00137.7619,W,5.10,295.81,220118,,,A*78
arfcn: 986 bsic: 24 rxLev: -83 ber: 0.00 mcc: 208 mnc: 20 lac: 418 cellId: 22492 cellStatus: CELL_SUITABLE numArfcn: 1 arfcn: 986 numChannels: 23 array: 788 789 790 792 796 879 880 883 885 975 976 977 978 980 981 982 983 987 1011 1015 1017 1019 1021 pbcch: 0 nom: 2 rac: 7 spgc: 0 pat: 6 nco: 0 t3168: 1500 t3192: 500 drxmax: 0 ctrlAck: 0 bsCVmax: 8 alpha: 6 pcMeasCh: 1 
arfcn: 35 rxLev: -83
$GPGGA,080517.000,4805.5517,N,00137.7639,W,1,07,1.5,38.7,M,48.2,M,,0000*75
arfcn: 45 rxLev: -83
$GPGSA,M,3,23,09,06,03,19,17,02,,,,,,2.9,1.5,2.5*37
arfcn: 41 rxLev: -84
arfcn: 42 rxLev: -84
$GPRMC,080517.000,A,4805.5517,N,00137.7639,W,4.92,295.74,220118,,,A*7C
arfcn: 38 rxLev: -84
$GPGGA,080518.000,4805.5522,N,00137.7659,W,1,07,1.5,39.2,M,48.2,M,,0000*7E
$GPGSA,M,3,23,09,06,03,19,17,02,,,,,,2.9,1.5,2.5*37
$GPRMC,080518.000,A,4805.5522,N,00137.7659,W,4.72,295.29,220118,,,A*75
arfcn: 16 bsic: 1 rxLev: -84 ber: 0.00 mcc: 208 mnc: 01 lac: 10300 cellId: 40090 cellStatus: CELL_FORBIDDEN numArfcn: 13 arfcn: 16 17 18 19 20 21 22 23 24 25 47 48 49 numChannels: 14 array: 2 3 5 7 8 10 12 512 517 601 604 605 608 610 pbcch: 0 nom: 2 rac: 1 spgc: 0 pat: 6 nco: 0 t3168: 1000 t3192: 500 drxmax: 2 ctrlAck: 0 bsCVmax: 9 alpha: 5 pcMeasCh: 1 
arfcn: 983 rxLev: -84
$GPGGA,080519.000,4805.5528,N,00137.7677,W,1,07,1.5,39.5,M,48.2,M,,0000*7E
$GPGSA,M,3,23,09,06,03,19,17,02,,,,,,2.9,1.5,2.5*37
$GPRMC,080519.000,A,4805.5528,N,00137.7677,W,4.55,295.45,220118,,,A*7D
$GPGGA,080520.000,4805.5533,N,00137.7695,W,1,07,1.5,39.9,M,48.2,M,,0000*7E
$GPGSA,M,3,23,09,06,03,19,17,02,,,,,,2.9,1.5,2.5*37
$GPGSV,3,1,12,23,76,107,37,09,54,206,42,06,45,303,40,03,45,079,30*7C
$GPGSV,3,2,12,19,38,252,43,17,31,230,43,02,12,312,25,01,16,140,32*7C
$GPGSV,3,3,12,31,10,031,27,37,27,151,,22,26,088,,11,00,154,*7E
$GPRMC,080520.000,A,4805.5533,N,00137.7695,W,4.33,295.62,220118,,,A*74
$GPGGA,080521.000,4805.5537,N,00137.7713,W,1,07,1.5,40.3,M,48.2,M,,0000*70
$GPGSA,M,3,23,09,06,03,19,17,02,,,,,,2.9,1.5,2.5*37
$GPRMC,080521.000,A,4805.5537,N,00137.7713,W,4.15,295.47,220118,,,A*7D
$GPGGA,080522.000,4805.5541,N,00137.7730,W,1,07,1.5,40.7,M,48.2,M,,0000*77
$GPGSA,M,3,23,09,06,03,19,17,02,,,,,,2.9,1.5,2.5*37
arfcn: 980 bsic: 59 rxLev: -84 ber: 0.00 mcc: 208 mnc: 20 lac: 418 cellId: 20016 cellStatus: CELL_SUITABLE numArfcn: 1 arfcn: 980 numChannels: 26 array: 788 789 790 792 879 885 975 976 977 978 981 982 983 985 986 987 1011 1012 1014 1015 1017 1018 1019 1020 1021 1022 pbcch: 0 nom: 2 rac: 7 spgc: 0 pat: 6 nco: 0 t3168: 1500 t3192: 500 drxmax: 0 ctrlAck: 0 bsCVmax: 8 alpha: 6 pcMeasCh: 1 
arfcn: 981 rxLev: -84
$GPRMC,080522.000,A,4805.5541,N,00137.7730,W,4.14,294.40,220118,,,A*79
arfcn: 3 rxLev: -84
arfcn: 44 rxLev: -84
arfcn: 36 rxLev: -85
arfcn: 34 rxLev: -85
arfcn: 1004 rxLev: -85
arfcn: 39 rxLev: -85
arfcn: 43 rxLev: -85
$GPGGA,080523.000,4805.5545,N,00137.7747,W,1,07,1.5,41.1,M,48.2,M,,0000*75
arfcn: 33 rxLev: -86
$GPGSA,M,3,23,09,06,03,19,17,02,,,,,,2.9,1.5,2.5*37
arfcn: 1003 rxLev: -86
arfcn: 1005 rxLev: -86
$GPRMC,080523.000,A,4805.5545,N,00137.7747,W,4.43,294.54,220118,,,A*7B
arfcn: 1002 rxLev: -86
arfcn: 793 rxLev: -86
arfcn: 814 rxLev: -86
arfcn: 815 rxLev: -86
arfcn: 848 rxLev: -86
arfcn: 1001 rxLev: -86
arfcn: 999 rxLev: -86
arfcn: 997 rxLev: -86
$GPGGA,080524.000,4805.5550,N,00137.7766,W,1,07,1.5,41.4,M,48.2,M,,0000*70
arfcn: 998 rxLev: -86
arfcn: 1006 rxLev: -86
$GPGSA,M,3,23,09,06,03,19,17,02,,,,,,2.9,1.5,2.5*37
arfcn: 991 rxLev: -86
$GPRMC,080524.000,A,4805.5550,N,00137.7766,W,5.16,295.15,220118,,,A*7E
$GPGGA,080525.000,4805.5556,N,00137.7787,W,1,07,1.5,41.7,M,48.2,M,,0000*7B
$GPGSA,M,3,23,09,06,03,19,17,02,,,,,,2.9,1.5,2.5*37
$GPGSV,3,1,12,23,76,107,36,09,54,206,42,06,45,303,40,03,45,079,27*7B
$GPGSV,3,2,12,19,38,252,43,17,31,230,42,02,12,312,25,01,16,140,34*7B
$GPGSV,3,3,12,22,26,088,27,31,10,031,33,37,27,151,,11,00,154,*7E
$GPRMC,080525.000,A,4805.5556,N,00137.7787,W,5.37,295.54,220118,,,A*70
$GPGGA,080526.000,4805.5562,N,00137.7810,W,1,07,1.5,41.9,M,48.2,M,,0000*70
$GPGSA,M,3,23,09,06,03,19,17,02,,,,,,2.9,1.5,2.5*37
arfcn: 610 bsic: 37 rxLev: -86 ber: 0.00 mcc: 208 mnc: 01 lac: 10300 cellId: 40157 cellStatus: CELL_FORBIDDEN numArfcn: 16 arfcn: 519 520 521 522 523 524 525 526 596 597 598 599 600 601 602 603 numChannels: 12 array: 2 5 7 8 10 12 16 512 517 601 604 608 pbcch: 0 nom: 2 rac: 1 spgc: 0 pat: 6 nco: 0 t3168: 1000 t3192: 500 drxmax: 2 ctrlAck: 0 bsCVmax: 9 alpha: 5 pcMeasCh: 1 
arfcn: 40 rxLev: -86
arfcn: 11 rxLev: -86
$GPRMC,080526.000,A,4805.5562,N,00137.7810,W,6.09,296.06,220118,,,A*7F
arfcn: 28 rxLev: -86
arfcn: 67 rxLev: -86
arfcn: 80 rxLev: -87
arfcn: 92 rxLev: -87
arfcn: 93 rxLev: -87
arfcn: 120 rxLev: -87
arfcn: 31 rxLev: -87
$GPGGA,080527.000,4805.5570,N,00137.7835,W,1,07,1.5,42.1,M,48.2,M,,0000*7E
arfcn: 990 rxLev: -87
$GPGSA,M,3,23,09,06,03,19,17,02,,,,,,2.9,1.5,2.5*37
arfcn: 1007 rxLev: -87
arfcn: 995 rxLev: -87
$GPRMC,080527.000,A,4805.5570,N,00137.7835,W,7.14,296.12,220118,,,A*72
arfcn: 996 rxLev: -87
arfcn: 1000 rxLev: -87
arfcn: 847 rxLev: -87
arfcn: 813 rxLev: -87
arfcn: 803 rxLev: -87
arfcn: 794 rxLev: -87
arfcn: 812 rxLev: -87
arfcn: 816 rxLev: -87
$GPGGA,080528.000,4805.5578,N,00137.7864,W,1,07,1.5,42.2,M,48.2,M,,0000*7E
arfcn: 849 rxLev: -87
arfcn: 829 rxLev: -87
$GPGSA,M,3,23,09,06,03,19,17,02,,,,,,2.9,1.5,2.5*37
arfcn: 992 rxLev: -87
arfcn: 993 rxLev: -87
$GPRMC,080528.000,A,4805.5578,N,00137.7864,W,7.90,295.85,220118,,,A*70
arfcn: 994 rxLev: -87
arfcn: 29 rxLev: -87
arfcn: 46 rxLev: -87
arfcn: 32 rxLev: -87
arfcn: 94 rxLev: -87
arfcn: 95 rxLev: -87
arfcn: 64 rxLev: -88
$GPGGA,080529.000,4805.5587,N,00137.7896,W,1,07,1.5,42.5,M,48.2,M,,0000*75
arfcn: 101 rxLev: -88
$GPGSA,M,3,23,09,06,03,19,17,02,,,,,,2.9,1.5,2.5*37
arfcn: 63 rxLev: -88
arfcn: 834 rxLev: -88
$GPRMC,080529.000,A,4805.5587,N,00137.7896,W,8.27,295.76,220118,,,A*73
arfcn: 835 rxLev: -88
arfcn: 845 rxLev: -88
arfcn: 851 rxLev: -88
arfcn: 825 rxLev: -88
arfcn: 804 rxLev: -88
arfcn: 807 rxLev: -88
arfcn: 806 rxLev: -88
arfcn: 795 rxLev: -88
$GPGGA,080530.000,4805.5598,N,00137.7930,W,1,07,1.5,42.6,M,48.2,M,,0000*7D
arfcn: 842 rxLev: -88
arfcn: 843 rxLev: -88
$GPGSA,M,3,23,09,06,03,19,17,02,,,,,,2.9,1.5,2.5*37
arfcn: 837 rxLev: -88
arfcn: 830 rxLev: -88
$GPGSV,3,1,12,23,76,107,36,09,54,206,42,06,45,303,40,03,45,079,32*7F
arfcn: 30 rxLev: -88
$GPGSV,3,2,12,19,38,252,43,17,31,230,43,02,12,312,19,01,16,140,34*75
arfcn: 102 rxLev: -88
arfcn: 96 rxLev: -88
$GPGSV,3,3,12,22,26,088,26,31,10,031,34,37,27,151,,11,00,154,*78
arfcn: 66 rxLev: -88
arfcn: 68 rxLev: -88
$GPRMC,080530.000,A,4805.5598,N,00137.7930,W,9.42,295.88,220118,,,A*7B
arfcn: 91 rxLev: -88
arfcn: 65 rxLev: -89
$GPGGA,080531.000,4805.5611,N,00137.7967,W,1,07,1.5,42.6,M,48.2,M,,0000*7C
arfcn: 97 rxLev: -89
$GPGSA,M,3,23,09,06,03,19,17,02,,,,,,2.9,1.5,2.5*37
arfcn: 98 rxLev: -89
arfcn: 99 rxLev: -89
$GPRMC,080531.000,A,4805.5611,N,00137.7967,W,10.29,296.08,220118,,,A*44
arfcn: 103 rxLev: -89
arfcn: 100 rxLev: -89
arfcn: 104 rxLev: -89
arfcn: 60 rxLev: -89
arfcn: 1008 rxLev: -89
$GPGGA,080532.000,4805.5625,N,00137.8008,W,1,07,1.4,42.6,M,48.2,M,,0000*76
$GPGSA,M,3,23,09,06,03,19,17,02,,,,,,2.9,1.4,2.5*36
$GPRMC,080532.000,A,4805.5625,N,00137.8008,W,10.90,296.25,220118,,,A*42
$GPGGA,080533.000,4805.5640,N,00137.8050,W,1,07,1.4,42.7,M,48.2,M,,0000*78
$GPGSA,M,3,23,09,06,03,19,17,02,,,,,,2.9,1.4,2.5*36
$GPRMC,080533.000,A,4805.5640,N,00137.8050,W,11.54,296.54,220118,,,A*42
$GPGGA,080534.000,4805.5656,N,00137.8095,W,1,07,1.4,42.7,M,48.2,M,,0000*71
$GPGSA,M,3,23,09,06,03,19,17,02,,,,,,2.9,1.4,2.5*36
arfcn: 1020 bsic: 18 rxLev: -89 ber: 0.00 mcc: 208 mnc: 20 lac: 418 cellId: 18481 cellStatus: CELL_SUITABLE numArfcn: 1 arfcn: 1020 numChannels: 26 array: 788 789 790 792 794 878 880 883 884 976 977 978 979 980 981 982 986 987 1011 1012 1014 1015 1016 1017 1018 1021 pbcch: 0 nom: 2 rac: 6 spgc: 0 pat: 6 nco: 0 t3168: 1500 t3192: 500 drxmax: 4 ctrlAck: 1 bsCVmax: 8 alpha: 6 pcMeasCh: 1 
arfcn: 826 rxLev: -89
$GPRMC,080534.000,A,4805.5656,N,00137.8095,W,12.15,296.79,220118,,,A*42
arfcn: 838 rxLev: -89
arfcn: 841 rxLev: -89
arfcn: 844 rxLev: -89
arfcn: 850 rxLev: -89
arfcn: 864 rxLev: -89
arfcn: 808 rxLev: -89
arfcn: 811 rxLev: -89
arfcn: 820 rxLev: -89
$GPGGA,080535.000,4805.5672,N,00137.8141,W,1,07,1.4,42.7,M,48.2,M,,0000*7E
arfcn: 821 rxLev: -89
arfcn: 809 rxLev: -89
$GPGSA,M,3,23,09,06,03,19,17,02,,,,,,2.9,1.4,2.5*36
$GPGSV,3,1,12,23,76,107,37,09,54,206,42,06,45,303,41,03,45,079,33*7E
arfcn: 805 rxLev: -89
arfcn: 796 rxLev: -89
$GPGSV,3,2,12,19,38,252,43,17,31,230,43,02,12,312,24,01,16,140,34*7B
arfcn: 857 rxLev: -89
$GPGSV,3,3,12,11,00,154,16,22,26,088,26,31,10,031,28,39,31,144,*7F
arfcn: 836 rxLev: -89
arfcn: 831 rxLev: -89
$GPRMC,080535.000,A,4805.5672,N,00137.8141,W,12.70,297.06,220118,,,A*47
arfcn: 518 rxLev: -89
arfcn: 985 rxLev: -89
arfcn: 61 rxLev: -89
$GPGGA,080536.000,4805.5689,N,00137.8190,W,1,07,1.4,42.8,M,48.2,M,,0000*7A
arfcn: 62 rxLev: -89
$GPGSA,M,3,23,09,06,03,19,17,02,,,,,,2.9,1.4,2.5*36
arfcn: 54 rxLev: -89
arfcn: 55 rxLev: -90
$GPRMC,080536.000,A,4805.5689,N,00137.8190,W,13.15,297.17,220118,,,A*4E
arfcn: 53 rxLev: -90
arfcn: 57 rxLev: -90
arfcn: 59 rxLev: -90
arfcn: 27 rxLev: -90
arfcn: 978 rxLev: -90
arfcn: 69 rxLev: -90
arfcn: 827 rxLev: -90
arfcn: 828 rxLev: -90
$GPGGA,080537.000,4805.5707,N,00137.8241,W,1,07,1.4,43.0,M,48.2,M,,0000*7A
arfcn: 840 rxLev: -90
$GPGSA,M,3,23,09,06,03,19,17,02,,,,,,2.9,1.4,2.5*36
arfcn: 854 rxLev: -90
arfcn: 853 rxLev: -90
$GPRMC,080537.000,A,4805.5707,N,00137.8241,W,13.43,297.12,220118,,,A*41
arfcn: 846 rxLev: -90
arfcn: 823 rxLev: -90
arfcn: 822 rxLev: -90
arfcn: 824 rxLev: -90
arfcn: 818 rxLev: -90
arfcn: 802 rxLev: -90
arfcn: 852 rxLev: -90
$GPGGA,080538.000,4805.5725,N,00137.8292,W,1,07,1.4,43.2,M,48.2,M,,0000*79
arfcn: 839 rxLev: -90
$GPGSA,M,3,23,09,06,03,19,17,02,,,,,,2.9,1.4,2.5*36
arfcn: 832 rxLev: -90
arfcn: 860 rxLev: -90
$GPRMC,080538.000,A,4805.5725,N,00137.8292,W,13.63,296.90,220118,,,A*49
arfcn: 105 rxLev: -90
arfcn: 108 rxLev: -90
arfcn: 15 rxLev: -90
arfcn: 56 rxLev: -90
arfcn: 609 rxLev: -90
arfcn: 581 rxLev: -90
arfcn: 1017 rxLev: -91
$GPGGA,080539.000,4805.5743,N,00137.8343,W,1,07,1.4,43.3,M,48.2,M,,0000*74
$GPGSA,M,3,23,09,06,03,19,17,02,,,,,,2.9,1.4,2.5*36
$GPRMC,080539.000,A,4805.5743,N,00137.8343,W,13.70,297.03,220118,,,A*4C
$GPGGA,080540.000,4805.5760,N,00137.8395,W,1,07,1.4,43.5,M,48.2,M,,0000*76
$GPGSA,M,3,23,09,06,03,19,17,02,,,,,,2.9,1.4,2.5*36
$GPGSV,3,1,12,23,76,106,38,09,55,207,42,06,46,303,42,03,45,079,31*72
$GPGSV,3,2,12,19,38,252,43,17,31,230,44,02,12,312,24,01,16,140,33*7B
$GPGSV,3,3,12,11,00,154,14,22,26,088,27,31,10,031,31,39,31,144,*74
$GPRMC,080540.000,A,4805.5760,N,00137.8395,W,13.77,296.83,220118,,,A*46
$GPGGA,080541.000,4805.5778,N,00137.8447,W,1,07,1.4,43.6,M,48.2,M,,0000*75
arfcn: 14 bsic: 37 rxLev: -91 ber: 0.01 mcc: 208 mnc: 01 lac: 10300 cellId: 34625 cellStatus: CELL_FORBIDDEN numArfcn: 13 arfcn: 14 17 18 19 20 21 22 23 24 25 47 48 49 numChannels: 22 array: 1 2 3 4 5 8 9 11 12 13 15 512 513 514 517 518 604 605 606 607 609 610 pbcch: 0 nom: 2 rac: 1 spgc: 0 pat: 6 nco: 0 t3168: 1000 t3192: 500 drxmax: 2 ctrlAck: 0 bsCVmax: 9 alpha: 5 pcMeasCh: 1 
$GPGSA,M,3,23,09,06,03,19,17,02,,,,,,2.9,1.4,2.5*36
$GPRMC,080541.000,A,4805.5778,N,00137.8447,W,13.77,296.87,220118,,,A*42
$GPGGA,080542.000,4805.5796,N,00137.8499,W,1,07,1.4,43.7,M,48.2,M,,0000*74
$GPGSA,M,3,23,09,06,03,19,17,02,,,,,,2.9,1.4,2.5*36
$GPRMC,080542.000,A,4805.5796,N,00137.8499,W,13.78,296.67,220118,,,A*43
$GPGGA,080543.000,4805.5813,N,00137.8551,W,1,07,1.4,43.9,M,48.2,M,,0000*7C
$GPGSA,M,3,23,09,06,03,19,17,02,,,,,,2.9,1.4,2.5*36
$GPRMC,080543.000,A,4805.5813,N,00137.8551,W,13.71,296.65,220118,,,A*4E
$GPGGA,080544.000,4805.5831,N,00137.8602,W,1,07,1.4,44.0,M,48.2,M,,0000*70
$GPGSA,M,3,23,09,06,03,19,17,02,,,,,,2.9,1.4,2.5*36
$GPRMC,080544.000,A,4805.5831,N,00137.8602,W,13.58,296.81,220118,,,A*4D
arfcn: 8 bsic: 53 rxLev: -91 ber: 0.00 mcc: 208 mnc: 01 lac: 10300 cellId: 15940 cellStatus: CELL_FORBIDDEN numArfcn: 13 arfcn: 8 17 18 19 20 21 22 23 24 25 47 48 49 numChannels: 17 array: 4 8 9 10 12 15 512 515 517 518 521 599 601 602 605 608 609 pbcch: 0 nom: 2 rac: 1 spgc: 1 pat: 6 nco: 0 t3168: 1000 t3192: 500 drxmax: 4 ctrlAck: 1 bsCVmax: 9 alpha: 7 pcMeasCh: 0 
arfcn: 861 rxLev: -91
arfcn: 858 rxLev: -91
$GPGGA,080545.000,4805.5848,N,00137.8653,W,1,07,1.4,44.2,M,48.2,M,,0000*79
arfcn: 865 rxLev: -91
arfcn: 856 rxLev: -91
$GPGSA,M,3,23,09,06,03,19,17,02,,,,,,2.9,1.4,2.5*36
arfcn: 801 rxLev: -91
arfcn: 819 rxLev: -91
$GPGSV,3,1,12,23,76,106,38,09,55,207,41,06,46,303,41,03,45,079,30*73
arfcn: 810 rxLev: -91
$GPGSV,3,2,12,19,38,252,43,17,31,230,44,02,12,312,25,01,16,140,32*7B
arfcn: 817 rxLev: -91
arfcn: 797 rxLev: -91
$GPGSV,3,3,12,11,00,154,13,22,26,088,27,31,10,031,24,39,31,144,*77
arfcn: 791 rxLev: -91
$GPRMC,080545.000,A,4805.5848,N,00137.8653,W,13.53,296.66,220118,,,A*44
arfcn: 855 rxLev: -91
arfcn: 863 rxLev: -91
$GPGGA,080546.000,4805.5865,N,00137.8705,W,1,07,1.4,44.3,M,48.2,M,,0000*76
arfcn: 859 rxLev: -91
arfcn: 870 rxLev: -91
$GPGSA,M,3,23,09,06,03,19,17,02,,,,,,2.9,1.4,2.5*36
arfcn: 879 rxLev: -91
arfcn: 9 rxLev: -91
$GPRMC,080546.000,A,4805.5865,N,00137.8705,W,13.80,296.65,220118,,,A*47
arfcn: 106 rxLev: -91
arfcn: 107 rxLev: -91
arfcn: 124 rxLev: -91
arfcn: 70 rxLev: -91
arfcn: 90 rxLev: -91
arfcn: 578 rxLev: -91
arfcn: 580 rxLev: -91
arfcn: 605 rxLev: -91
$GPGGA,080547.000,4805.5883,N,00137.8757,W,1,07,1.4,44.5,M,48.2,M,,0000*7E
arfcn: 606 rxLev: -92
$GPGSA,M,3,23,09,06,03,19,17,02,,,,,,2.9,1.4,2.5*36
arfcn: 548 rxLev: -92
arfcn: 550 rxLev: -92
$GPRMC,080547.000,A,4805.5883,N,00137.8757,W,14.09,296.16,220118,,,A*4B
arfcn: 1021 rxLev: -92
$GPGGA,080548.000,4805.5901,N,00137.8811,W,1,07,1.4,44.7,M,48.2,M,,0000*75
$GPGSA,M,3,23,09,06,03,19,17,02,,,,,,2.9,1.4,2.5*36
$GPRMC,080548.000,A,4805.5901,N,00137.8811,W,14.44,296.13,220118,,,A*4E
arfcn: 85 bsic: 45 rxLev: -92 ber: 8.03 mcc: FFF mnc: FF lac: 65535 cellId: 0 cellStatus: CELL_OTHER numArfcn: 0 arfcn: numChannels: 0 array:
arfcn: 71 rxLev: -92
arfcn: 78 rxLev: -92
$GPGGA,080549.000,4805.5919,N,00137.8866,W,1,07,1.4,44.9,M,48.2,M,,0000*73
arfcn: 7 rxLev: -92
$GPGSA,M,3,23,09,06,03,19,17,02,,,,,,2.9,1.4,2.5*36
arfcn: 58 rxLev: -92
arfcn: 52 rxLev: -92
$GPRMC,080549.000,A,4805.5919,N,00137.8866,W,14.59,296.59,220118,,,A*44
arfcn: 871 rxLev: -92
arfcn: 833 rxLev: -92
arfcn: 800 rxLev: -92
arfcn: 799 rxLev: -92
$GPGGA,080550.000,4805.5938,N,00137.8921,W,1,07,1.4,45.0,M,48.2,M,,0000*72
$GPGSA,M,3,23,09,06,03,19,17,02,,,,,,2.9,1.4,2.5*36
$GPGSV,3,1,12,23,76,106,38,09,55,207,42,06,46,303,41,03,45,079,30*70
$GPGSV,3,2,12,19,38,252,44,17,31,230,43,02,12,312,25,01,16,140,31*78
$GPGSV,3,3,12,31,10,031,30,39,31,144,,22,26,088,,07,00,170,*74
$GPRMC,080550.000,A,4805.5938,N,00137.8921,W,14.76,296.83,220118,,,A*47
$GPGGA,080551.000,4805.5957,N,00137.8977,W,1,07,1.4,45.2,M,48.2,M,,0000*7B
$GPGSA,M,3,23,09,06,03,19,17,02,,,,,,2.9,1.4,2.5*36
$GPRMC,080551.000,A,4805.5957,N,00137.8977,W,14.99,296.94,220118,,,A*4B
$GPGGA,080552.000,4805.5976,N,00137.9034,W,1,07,1.4,45.4,M,48.2,M,,0000*72
$GPGSA,M,3,23,09,06,03,19,17,02,,,,,,2.9,1.4,2.5*36
$GPRMC,080552.000,A,4805.5976,N,00137.9034,W,15.21,296.85,220118,,,A*46
$GPGGA,080553.000,4805.5996,N,00137.9089,W,1,07,1.4,45.5,M,48.2,M,,0000*7A
$GPGSA,M,3,23,09,06,03,19,17,02,,,,,,2.9,1.4,2.5*36
arfcn: 788 bsic: 63 rxLev: -92 ber: 0.00 mcc: 208 mnc: 20 lac: 418 cellId: 20615 cellStatus: CELL_SUITABLE numArfcn: 1 arfcn: 788 numChannels: 24 array: 787 789 790 792 796 879 883 885 975 978 980 981 982 983 985 986 987 1011 1014 1015 1017 1018 1019 1021 pbcch: 0 nom: 2 rac: 7 spgc: 0 pat: 6 nco: 0 t3168: 1500 t3192: 500 drxmax: 0 ctrlAck: 0 bsCVmax: 8 alpha: 6 pcMeasCh: 1 
arfcn: 867 rxLev: -92
$GPRMC,080553.000,A,4805.5996,N,00137.9089,W,15.43,296.40,220118,,,A*42
arfcn: 868 rxLev: -92
arfcn: 4 rxLev: -92
arfcn: 26 rxLev: -93
arfcn: 72 rxLev: -93
arfcn: 87 rxLev: -93
arfcn: 109 rxLev: -93
arfcn: 1014 rxLev: -93
$GPGGA,080554.000,4805.6015,N,00137.9147,W,1,07,1.4,45.6,M,48.2,M,,0000*7C
arfcn: 524 rxLev: -93
$GPGSA,M,3,23,09,06,03,19,17,02,,,,,,2.9,1.4,2.5*36
arfcn: 549 rxLev: -93
$GPRMC,080554.000,A,4805.6015,N,00137.9147,W,15.90,295.30,220118,,,A*4D
arfcn: 579 rxLev: -93
arfcn: 866 rxLev: -93
arfcn: 862 rxLev: -93
arfcn: 880 rxLev: -93
arfcn: 798 rxLev: -93
arfcn: 878 rxLev: -93
$GPGGA,080555.000,4805.6034,N,00137.9207,W,1,07,1.4,45.7,M,48.2,M,,0000*78
arfcn: 875 rxLev: -93
$GPGSA,M,3,23,09,06,03,19,17,02,,,,,,2.9,1.4,2.5*36
arfcn: 876 rxLev: -93
arfcn: 869 rxLev: -93
$GPGSV,3,1,12,23,76,106,33,09,55,207,42,06,46,303,42,03,45,079,30*78
arfcn: 872 rxLev: -93
arfcn: 565 rxLev: -93
$GPGSV,3,2,12,19,38,252,43,17,31,230,43,02,12,312,20,01,16,140,31*7A
arfcn: 574 rxLev: -93
arfcn: 539 rxLev: -93
$GPGSV,3,3,12,22,26,088,28,31,10,031,30,39,31,144,,07,00,170,*7E
arfcn: 1016 rxLev: -93
arfcn: 987 rxLev: -93
$GPRMC,080555.000,A,4805.6034,N,00137.9207,W,16.31,294.66,220118,,,A*42
arfcn: 13 rxLev: -93
arfcn: 5 rxLev: -94
$GPGGA,080556.000,4805.6053,N,00137.9268,W,1,07,1.4,45.8,M,48.2,M,,0000*7C
arfcn: 1 rxLev: -94
$GPGSA,M,3,23,09,06,03,19,17,02,,,,,,2.9,1.4,2.5*36
arfcn: 76 rxLev: -94
arfcn: 514 rxLev: -94
$GPRMC,080556.000,A,4805.6053,N,00137.9268,W,16.28,293.92,220118,,,A*4D
arfcn: 543 rxLev: -94
arfcn: 575 rxLev: -94
arfcn: 567 rxLev: -94
arfcn: 563 rxLev: -94
arfcn: 552 rxLev: -94
arfcn: 547 rxLev: -94
arfcn: 554 rxLev: -94
$GPGGA,080557.000,4805.6072,N,00137.9329,W,1,07,1.4,45.9,M,48.2,M,,0000*7B
arfcn: 556 rxLev: -94
$GPGSA,M,3,23,09,06,03,19,17,02,,,,,,2.9,1.4,2.5*36
arfcn: 877 rxLev: -94
arfcn: 874 rxLev: -94
$GPRMC,080557.000,A,4805.6072,N,00137.9329,W,16.52,293.22,220118,,,A*4D
arfcn: 555 rxLev: -94
arfcn: 559 rxLev: -94
arfcn: 562 rxLev: -94
arfcn: 517 rxLev: -94
arfcn: 79 rxLev: -94
arfcn: 83 rxLev: -94
arfcn: 522 rxLev: -95
$GPGGA,080558.000,4805.6091,N,00137.9395,W,1,07,1.4,45.9,M,48.2,M,,0000*7E
arfcn: 1011 rxLev: -95
$GPGSA,M,3,23,09,06,03,19,17,02,,,,,,2.9,1.4,2.5*36
arfcn: 989 rxLev: -95
arfcn: 576 rxLev: -95
$GPRMC,080558.000,A,4805.6091,N,00137.9395,W,18.28,293.51,220118,,,A*4F
arfcn: 557 rxLev: -95
arfcn: 545 rxLev: -95
arfcn: 546 rxLev: -95
arfcn: 873 rxLev: -95
arfcn: 881 rxLev: -95
arfcn: 551 rxLev: -95
arfcn: 558 rxLev: -95
$GPGGA,080559.000,4805.6113,N,00137.9468,W,1,07,1.4,45.8,M,48.2,M,,0000*70
$GPGSA,M,3,23,09,06,03,19,17,02,,,,,,2.8,1.4,2.5*37
$GPRMC,080559.000,A,4805.6113,N,00137.9468,W,20.36,293.82,220118,,,A*4A
$GPGGA,080600.000,4805.6137,N,00137.9548,W,1,07,1.4,45.8,M,48.2,M,,0000*7A
$GPGSA,M,3,23,09,06,03,19,17,02,,,,,,2.8,1.4,2.5*37
$GPGSV,3,1,12,23,76,106,33,09,55,207,41,06,46,303,40,03,45,079,27*7F
$GPGSV,3,2,12,19,38,252,45,17,31,230,42,02,12,312,26,01,16,140,31*7B
arfcn: 984 bsic: 57 rxLev: -95 ber: 21.01 mcc: FFF mnc: FF lac: 65535 cellId: 0 cellStatus: CELL_OTHER numArfcn: 0 arfcn: numChannels: 0 array:
arfcn: 979 rxLev: -95
$GPGSV,3,3,12,22,26,088,29,31,10,031,28,39,31,144,,07,00,170,*76
$GPRMC,080600.000,A,4805.6137,N,00137.9548,W,22.51,294.38,220118,,,A*45
$GPGGA,080601.000,4805.6164,N,00137.9638,W,1,07,1.4,45.8,M,48.2,M,,0000*79
$GPGSA,M,3,23,09,06,03,19,17,02,,,,,,2.8,1.4,2.5*37
$GPRMC,080601.000,A,4805.6164,N,00137.9638,W,24.22,295.05,220118,,,A*4B
$GPGGA,080602.000,4805.6194,N,00137.9732,W,1,07,1.4,45.9,M,48.2,M,,0000*7F
$GPGSA,M,3,23,09,06,03,19,17,02,,,,,,2.8,1.4,2.5*37
$GPRMC,080602.000,A,4805.6194,N,00137.9732,W,25.74,296.10,220118,,,A*49
$GPGGA,080603.000,4805.6226,N,00137.9829,W,1,07,1.4,45.7,M,48.2,M,,0000*7F
$GPGSA,M,3,23,09,06,03,19,17,02,,,,,,2.8,1.4,2.5*37
$GPRMC,080603.000,A,4805.6226,N,00137.9829,W,26.07,297.55,220118,,,A*40
$GPGGA,080604.000,4805.6260,N,00137.9925,W,1,07,1.4,45.4,M,48.2,M,,0000*74
$GPGSA,M,3,23,09,06,03,19,17,02,,,,,,2.8,1.4,2.5*37
$GPRMC,080604.000,A,4805.6260,N,00137.9925,W,26.02,298.73,220118,,,A*46
arfcn: 515 bsic: 35 rxLev: -95 ber: 0.09 mcc: 208 mnc: 01 lac: 10300 cellId: 27347 cellStatus: CELL_FORBIDDEN numArfcn: 23 arfcn: 515 525 526 527 528 529 530 531 532 533 534 535 587 588 589 590 591 592 593 594 595 596 597 numChannels: 16 array: 4 8 9 10 12 15 512 515 517 521 523 599 602 605 608 609 pbcch: 0 nom: 2 rac: 1 spgc: 1 pat: 6 nco: 0 t3168: 1000 t3192: 500 drxmax: 4 ctrlAck: 1 bsCVmax: 9 alpha: 7 pcMeasCh: 0 
arfcn: 541 rxLev: -95
arfcn: 114 rxLev: -95
arfcn: 121 rxLev: -96
arfcn: 122 rxLev: -96
arfcn: 975 rxLev: -96
arfcn: 110 rxLev: -96
$GPGGA,080605.000,4805.6298,N,00138.0022,W,1,07,1.4,45.3,M,48.2,M,,0000*7D
$GPGSA,M,3,23,09,06,03,19,17,02,,,,,,2.8,1.4,2.5*37
$GPGSV,3,1,12,23,76,106,39,09,55,207,40,06,46,303,40,03,45,079,28*7B
$GPGSV,3,2,12,19,38,252,44,17,31,230,41,02,12,312,24,01,16,140,27*7C
$GPGSV,3,3,12,22,26,088,28,31,10,031,29,33,33,198,,07,00,170,*7F
$GPRMC,080605.000,A,4805.6298,N,00138.0022,W,26.81,299.42,220118,,,A*40
$GPGGA,080606.000,4805.6337,N,00138.0121,W,1,07,1.4,45.2,M,48.2,M,,0000*79
$GPGSA,M,3,23,09,06,03,19,17,02,,,,,,2.8,1.4,2.5*37
$GPRMC,080606.000,A,4805.6337,N,00138.0121,W,27.24,299.84,220118,,,A*41
arfcn: 86 bsic: 51 rxLev: -96 ber: 9.08 mcc: FFF mnc: FF lac: 65535 cellId: 0 cellStatus: CELL_OTHER numArfcn: 0 arfcn: numChannels: 0 array: pbcch: 0 nom: 2 rac: 31 spgc: 0 pat: 6 nco: 0 t3168: 1000 t3192: 500 drxmax: 4 ctrlAck: 1 bsCVmax: 9 alpha: 10 pcMeasCh: 0 
arfcn: 2 rxLev: -96
arfcn: 542 rxLev: -96
arfcn: 544 rxLev: -96
arfcn: 1019 rxLev: -96
arfcn: 560 rxLev: -96
$GPGGA,080607.000,4805.6377,N,00138.0221,W,1,07,1.4,44.9,M,48.2,M,,0000*75
arfcn: 573 rxLev: -96
$GPGSA,M,3,23,09,06,03,19,17,02,,,,,,2.8,1.4,2.5*37
arfcn: 572 rxLev: -96
$GPRMC,080607.000,A,4805.6377,N,00138.0221,W,28.28,300.28,220118,,,A*43
arfcn: 561 rxLev: -96
arfcn: 564 rxLev: -96
arfcn: 582 rxLev: -96
arfcn: 583 rxLev: -96
arfcn: 607 rxLev: -96
arfcn: 566 rxLev: -96
arfcn: 512 rxLev: -96
arfcn: 976 rxLev: -96
$GPGGA,080608.000,4805.6418,N,00138.0326,W,1,07,1.4,44.9,M,48.2,M,,0000*72
arfcn: 116 rxLev: -96
$GPGSA,M,3,23,09,06,03,19,17,02,,,,,,2.8,1.4,2.5*37
arfcn: 73 rxLev: -97
arfcn: 568 rxLev: -97
$GPRMC,080608.000,A,4805.6418,N,00138.0326,W,29.39,300.43,220118,,,A*48
arfcn: 569 rxLev: -97
arfcn: 570 rxLev: -97
arfcn: 622 rxLev: -97
arfcn: 663 rxLev: -97
arfcn: 729 rxLev: -97
arfcn: 694 rxLev: -97
arfcn: 661 rxLev: -97
$GPGGA,080609.000,4805.6460,N,00138.0431,W,1,07,1.4,44.9,M,48.2,M,,0000*7D
arfcn: 627 rxLev: -97
$GPGSA,M,3,23,09,06,03,19,17,02,,,,,,2.8,1.4,2.5*37
arfcn: 629 rxLev: -97
$GPRMC,080609.000,A,4805.6460,N,00138.0431,W,29.02,300.54,220118,,,A*49
arfcn: 577 rxLev: -97
arfcn: 571 rxLev: -97
arfcn: 553 rxLev: -97
$GPGGA,080610.000,4805.6500,N,00138.0536,W,1,07,1.4,45.1,M,48.2,M,,0000*7D
$GPGSA,M,3,23,09,06,03,19,17,02,,,,,,2.8,1.4,2.5*37
$GPGSV,3,1,12,23,76,105,39,09,55,207,41,06,46,303,43,03,45,079,19*78
$GPGSV,3,2,12,19,38,252,39,17,31,230,42,02,12,312,28,01,16,140,25*7B
$GPGSV,3,3,12,22,26,088,28,31,10,031,12,33,33,198,32,07,00,170,*76
$GPRMC,080610.000,A,4805.6500,N,00138.0536,W,28.31,298.91,220118,,,A*48
$GPGGA,080611.000,4805.6537,N,00138.0638,W,1,07,1.4,45.1,M,48.2,M,,0000*75
$GPGSA,M,3,23,09,06,03,19,17,02,,,,,,2.8,1.4,2.5*37
$GPRMC,080611.000,A,4805.6537,N,00138.0638,W,27.13,296.81,220118,,,A*40
arfcn: 1012 bsic: 19 rxLev: -97 ber: 1.01 mcc: 208 mnc: 20 lac: 418 cellId: 20011 cellStatus: CELL_SUITABLE numArfcn: 2 arfcn: 988 1012 numChannels: 24 array: 787 789 794 882 976 977 978 979 980 981 982 983 985 986 987 1011 1013 1014 1015 1016 1017 1019 1020 1021 pbcch: 0 nom: 2 rac: 6 spgc: 0 pat: 6 nco: 0 t3168: 1500 t3192: 500 drxmax: 0 ctrlAck: 0 bsCVmax: 8 alpha: 4 pcMeasCh: 1 
$GPGGA,080612.000,4805.6570,N,00138.0738,W,1,07,1.4,45.0,M,48.2,M,,0000*75
$GPGSA,M,3,23,09,06,03,19,17,02,,,,,,2.8,1.4,2.5*37
$GPRMC,080612.000,A,4805.6570,N,00138.0738,W,26.31,295.66,220118,,,A*4A
$GPGGA,080613.000,4805.6601,N,00138.0835,W,1,07,1.4,45.1,M,48.2,M,,0000*72
$GPGSA,M,3,23,09,06,03,19,17,02,,,,,,2.8,1.4,2.5*37
$GPRMC,080613.000,A,4805.6601,N,00138.0835,W,25.35,295.34,220118,,,A*4C
$GPGGA,080614.000,4805.6630,N,00138.0929,W,1,07,1.4,45.1,M,48.2,M,,0000*7B
$GPGSA,M,3,23,09,06,03,19,17,02,,,,,,2.8,1.4,2.4*36
$GPRMC,080614.000,A,4805.6630,N,00138.0929,W,24.45,295.42,220118,,,A*42
$GPGGA,080615.000,4805.6659,N,00138.1019,W,1,07,1.4,45.0,M,48.2,M,,0000*7F
$GPGSA,M,3,23,09,06,03,19,17,02,,,,,,2.8,1.4,2.4*36
$GPGSV,3,1,12,23,76,105,39,09,55,207,41,06,46,303,41,03,45,079,27*77
$GPGSV,3,2,12,19,38,252,42,17,31,230,42,02,12,312,20,01,16,140,35*7E
$GPGSV,3,3,12,22,26,088,28,31,10,031,32,33,33,198,34,07,00,170,*72
$GPRMC,080615.000,A,4805.6659,N,00138.1019,W,23.58,295.66,220118,,,A*4A
$GPGGA,080616.000,4805.6687,N,00138.1105,W,1,07,1.4,44.8,M,48.2,M,,0000*7A
$GPGSA,M,3,23,09,06,03,19,17,02,,,,,,2.8,1.4,2.4*36
$GPRMC,080616.000,A,4805.6687,N,00138.1105,W,22.69,295.86,220118,,,A*4B
$GPGGA,080617.000,4805.6714,N,00138.1188,W,1,07,1.4,44.8,M,48.2,M,,0000*75
$GPGSA,M,3,23,09,06,03,19,17,02,,,,,,2.8,1.4,2.4*36
$GPRMC,080617.000,A,4805.6714,N,00138.1188,W,21.81,295.62,220118,,,A*4B
arfcn: 119 bsic: 41 rxLev: -97 ber: 9.06 mcc: 208 mnc: 10 lac: 49415 cellId: 3586 cellStatus: CELL_FORBIDDEN numArfcn: 3 arfcn: 88 112 119 numChannels: 13 array: 79 80 81 82 85 87 113 114 115 117 119 123 124 pbcch: 0 nom: 2 rac: 31 spgc: 0 pat: 6 nco: 0 t3168: 1000 t3192: 500 drxmax: 4 ctrlAck: 1 bsCVmax: 9 alpha: 10 pcMeasCh: 0 
arfcn: 977 rxLev: -97
arfcn: 47 rxLev: -97
$GPGGA,080618.000,4805.6739,N,00138.1268,W,1,07,1.4,44.8,M,48.2,M,,0000*78
arfcn: 82 rxLev: -98
$GPGSA,M,3,23,09,06,03,19,17,02,,,,,,2.8,1.4,2.4*36
arfcn: 89 rxLev: -98
arfcn: 540 rxLev: -98
$GPRMC,080618.000,A,4805.6739,N,00138.1268,W,20.88,295.82,220118,,,A*40
arfcn: 1009 rxLev: -98
arfcn: 621 rxLev: -98
arfcn: 617 rxLev: -98
arfcn: 639 rxLev: -98
arfcn: 640 rxLev: -98
arfcn: 624 rxLev: -98
arfcn: 625 rxLev: -98
arfcn: 631 rxLev: -98
$GPGGA,080619.000,4805.6763,N,00138.1344,W,1,07,1.4,44.9,M,48.2,M,,0000*78
arfcn: 633 rxLev: -98
$GPGSA,M,3,23,09,06,03,19,17,02,,,,,,2.8,1.4,2.4*36
arfcn: 637 rxLev: -98
arfcn: 662 rxLev: -98
$GPRMC,080619.000,A,4805.6763,N,00138.1344,W,20.06,296.12,220118,,,A*4D
arfcn: 660 rxLev: -98
arfcn: 666 rxLev: -98
arfcn: 674 rxLev: -98
arfcn: 620 rxLev: -98
$GPGGA,080620.000,4805.6786,N,00138.1418,W,1,07,1.4,45.1,M,48.2,M,,0000*7E
$GPGSA,M,3,23,09,06,03,19,17,02,,,,,,2.8,1.4,2.4*36
$GPGSV,3,1,12,23,76,105,38,09,55,207,41,06,46,303,40,03,45,079,27*77
$GPGSV,3,2,12,19,38,252,42,17,31,230,41,02,12,312,26,01,16,140,35*7B
$GPGSV,3,3,12,31,10,031,17,33,33,198,34,22,26,088,,07,00,170,*7F
$GPRMC,080620.000,A,4805.6786,N,00138.1418,W,19.31,295.64,220118,,,A*4E
$GPGGA,080621.000,4805.6807,N,00138.1489,W,1,07,1.4,45.3,M,48.2,M,,0000*73
$GPGSA,M,3,23,09,06,03,19,17,02,,,,,,2.8,1.4,2.4*36
$GPRMC,080621.000,A,4805.6807,N,00138.1489,W,18.54,293.91,220118,,,A*4F
$GPGGA,080622.000,4805.6826,N,00138.1558,W,1,07,1.4,45.5,M,48.2,M,,0000*78
$GPGSA,M,3,23,09,06,03,19,17,02,,,,,,2.8,1.4,2.4*36
$GPRMC,080622.000,A,4805.6826,N,00138.1558,W,17.71,292.90,220118,,,A*4A
arfcn: 77 bsic: 40 rxLev: -98 ber: 4.02 mcc: 208 mnc: 10 lac: 49415 cellId: 53210 cellStatus: CELL_FORBIDDEN numArfcn: 3 arfcn: 77 81 113 numChannels: 23 array: 76 77 78 79 81 82 83 84 85 86 87 113 114 115 116 117 118 119 120 121 122 123 124 pbcch: 0 nom: 2 rac: 31 spgc: 0 pat: 6 nco: 0 t3168: 1000 t3192: 500 drxmax: 4 ctrlAck: 1 bsCVmax: 9 alpha: 10 pcMeasCh: 0 
arfcn: 75 rxLev: -99
$GPGGA,080623.000,4805.6844,N,00138.1623,W,1,07,1.4,45.6,M,48.2,M,,0000*71
arfcn: 81 rxLev: -99
arfcn: 25 rxLev: -99
$GPGSA,M,3,23,09,06,03,19,17,02,,,,,,2.8,1.4,2.4*36
arfcn: 618 rxLev: -99
$GPRMC,080623.000,A,4805.6844,N,00138.1623,W,16.79,292.96,220118,,,A*4F
arfcn: 1023 rxLev: -99
arfcn: 673 rxLev: -99
arfcn: 675 rxLev: -99
arfcn: 667 rxLev: -99
arfcn: 669 rxLev: -99
arfcn: 670 rxLev: -99
arfcn: 638 rxLev: -99
$GPGGA,080624.000,4805.6861,N,00138.1686,W,1,07,1.4,45.7,M,48.2,M,,0000*7F
arfcn: 626 rxLev: -99
$GPGSA,M,3,23,09,06,03,19,17,02,,,,,,2.8,1.4,2.4*36
arfcn: 623 rxLev: -99
arfcn: 628 rxLev: -99
$GPRMC,080624.000,A,4805.6861,N,00138.1686,W,15.93,293.24,220118,,,A*4F
arfcn: 653 rxLev: -99
arfcn: 654 rxLev: -99
arfcn: 641 rxLev: -99
arfcn: 676 rxLev: -99
arfcn: 678 rxLev: -99
arfcn: 686 rxLev: -99
arfcn: 688 rxLev: -99
arfcn: 695 rxLev: -99
$GPGGA,080625.000,4805.6878,N,00138.1745,W,1,07,1.4,45.9,M,48.2,M,,0000*76
arfcn: 619 rxLev: -99
arfcn: 599 rxLev: -99
$GPGSA,M,3,23,09,06,03,19,17,02,,,,,,2.8,1.4,2.4*36
arfcn: 17 rxLev: -99
$GPGSV,3,1,12,23,76,105,38,09,55,207,40,06,46,303,38,03,45,079,28*76
arfcn: 74 rxLev: -99
arfcn: 111 rxLev: -100
$GPGSV,3,2,12,19,38,252,44,17,31,230,40,02,12,312,26,01,16,140,35*7C
arfcn: 51 rxLev: -100
arfcn: 1018 rxLev: -100
$GPGSV,3,3,12,22,26,088,34,31,10,031,26,33,33,198,34,07,00,170,*7A
arfcn: 700 rxLev: -100
arfcn: 690 rxLev: -100
$GPRMC,080625.000,A,4805.6878,N,00138.1745,W,15.20,293.60,220118,,,A*40
arfcn: 693 rxLev: -100
arfcn: 717 rxLev: -100
$GPGGA,080626.000,4805.6894,N,00138.1800,W,1,07,1.4,45.6,M,48.2,M,,0000*76
arfcn: 665 rxLev: -100
$GPGSA,M,3,23,09,06,03,19,17,02,,,,,,2.8,1.4,2.4*36
arfcn: 645 rxLev: -100
$GPRMC,080626.000,A,4805.6894,N,00138.1800,W,14.34,294.24,220118,,,A*4C
arfcn: 635 rxLev: -100
arfcn: 632 rxLev: -100
arfcn: 630 rxLev: -100
arfcn: 643 rxLev: -100
arfcn: 644 rxLev: -100
arfcn: 668 rxLev: -100
arfcn: 655 rxLev: -100
arfcn: 684 rxLev: -100
$GPGGA,080627.000,4805.6911,N,00138.1851,W,1,07,1.4,45.4,M,48.2,M,,0000*7D
arfcn: 672 rxLev: -100
arfcn: 703 rxLev: -100
$GPGSA,M,3,23,09,06,03,19,17,02,,,,,,2.8,1.4,2.4*36
arfcn: 705 rxLev: -100
arfcn: 692 rxLev: -100
$GPRMC,080627.000,A,4805.6911,N,00138.1851,W,13.48,295.59,220118,,,A*42
arfcn: 1013 rxLev: -100
arfcn: 521 rxLev: -100
arfcn: 611 rxLev: -100
$GPGGA,080628.000,4805.6927,N,00138.1899,W,1,07,1.4,45.0,M,48.2,M,,0000*77
$GPGSA,M,3,23,09,06,03,19,17,02,,,,,,2.8,1.4,2.4*36
$GPRMC,080628.000,A,4805.6927,N,00138.1899,W,12.77,297.10,220118,,,A*4E
$GPGGA,080629.000,4805.6943,N,00138.1945,W,1,07,1.4,44.6,M,48.2,M,,0000*73
$GPGSA,M,3,23,09,06,03,19,17,02,,,,,,2.8,1.4,2.4*36
$GPRMC,080629.000,A,4805.6943,N,00138.1945,W,12.51,297.60,220118,,,A*4E
arfcn: 118 bsic: 48 rxLev: -100 ber: 7.07 mcc: 208 mnc: 10 lac: 49415 cellId: 22813 cellStatus: CELL_FORBIDDEN numArfcn: 2 arfcn: 89 118 numChannels: 8 array: 76 77 80 84 114 118 121 124 pbcch: 0 nom: 2 rac: 31 spgc: 0 pat: 6 nco: 0 t3168: 1000 t3192: 500 drxmax: 4 ctrlAck: 1 bsCVmax: 9 alpha: 10 pcMeasCh: 0 
arfcn: 689 rxLev: -101
arfcn: 718 rxLev: -101
arfcn: 725 rxLev: -101
arfcn: 726 rxLev: -101
$GPGGA,080630.000,4805.6959,N,00138.1989,W,1,07,1.4,44.3,M,48.2,M,,0000*75
arfcn: 730 rxLev: -101
$GPGSA,M,3,23,09,06,03,19,17,02,,,,,,2.8,1.4,2.4*36
arfcn: 731 rxLev: -101
arfcn: 671 rxLev: -101
$GPGSV,3,1,12,23,76,105,39,09,55,207,39,06,46,303,39,03,45,079,35*74
arfcn: 680 rxLev: -101
$GPGSV,3,2,12,19,38,252,44,17,31,230,41,02,12,312,19,01,16,140,35*71
arfcn: 656 rxLev: -101
arfcn: 646 rxLev: -101
$GPGSV,3,3,12,22,26,088,25,31,10,031,32,33,33,198,36,07,00,170,*7D
arfcn: 652 rxLev: -101
$GPRMC,080630.000,A,4805.6959,N,00138.1989,W,12.15,297.62,220118,,,A*4F
arfcn: 649 rxLev: -101
arfcn: 634 rxLev: -101
arfcn: 636 rxLev: -101
$GPGGA,080631.000,4805.6974,N,00138.2031,W,1,07,1.4,43.9,M,48.2,M,,0000*7F
arfcn: 769 rxLev: -101
arfcn: 774 rxLev: -101
$GPGSA,M,3,23,09,06,03,19,17,02,,,,,,2.8,1.4,2.4*36
arfcn: 772 rxLev: -101
$GPRMC,080631.000,A,4805.6974,N,00138.2031,W,11.06,296.99,220118,,,A*4C
arfcn: 650 rxLev: -101
arfcn: 647 rxLev: -101
arfcn: 648 rxLev: -101
arfcn: 651 rxLev: -101
arfcn: 642 rxLev: -101
arfcn: 657 rxLev: -101
arfcn: 658 rxLev: -101
arfcn: 659 rxLev: -101
arfcn: 681 rxLev: -101
$GPGGA,080632.000,4805.6987,N,00138.2069,W,1,07,1.4,43.6,M,48.2,M,,0000*72
arfcn: 685 rxLev: -101
$GPGSA,M,3,23,09,06,03,19,17,02,,,,,,2.8,1.4,2.4*36
arfcn: 727 rxLev: -101
arfcn: 749 rxLev: -101
$GPRMC,080632.000,A,4805.6987,N,00138.2069,W,10.02,296.44,220118,,,A*4B
arfcn: 752 rxLev: -101
arfcn: 753 rxLev: -101
arfcn: 719 rxLev: -101
arfcn: 720 rxLev: -101
arfcn: 722 rxLev: -101
arfcn: 715 rxLev: -101
arfcn: 716 rxLev: -101
$GPGGA,080633.000,4805.6998,N,00138.2104,W,1,07,1.4,43.3,M,48.2,M,,0000*72
arfcn: 701 rxLev: -101
$GPGSA,M,3,23,09,06,03,19,17,02,,,,,,2.8,1.4,2.4*36
arfcn: 702 rxLev: -101
arfcn: 696 rxLev: -101
$GPRMC,080633.000,A,4805.6998,N,00138.2104,W,8.90,296.15,220118,,,A*78
arfcn: 697 rxLev: -101
arfcn: 48 rxLev: -101
arfcn: 117 rxLev: -102
arfcn: 519 rxLev: -102
arfcn: 1022 rxLev: -102
arfcn: 988 rxLev: -102
arfcn: 687 rxLev: -102
arfcn: 706 rxLev: -102
$GPGGA,080634.000,4805.7009,N,00138.2135,W,1,07,1.4,43.1,M,48.2,M,,0000*75
arfcn: 721 rxLev: -102
arfcn: 745 rxLev: -102
$GPGSA,M,3,23,09,06,03,19,17,02,,,,,,2.8,1.4,2.4*36
arfcn: 728 rxLev: -102
arfcn: 734 rxLev: -102
$GPRMC,080634.000,A,4805.7009,N,00138.2135,W,8.08,296.05,220118,,,A*7D
arfcn: 682 rxLev: -102
arfcn: 679 rxLev: -102
arfcn: 677 rxLev: -102
arfcn: 664 rxLev: -102
arfcn: 770 rxLev: -102
arfcn: 779 rxLev: -102
$GPGGA,080635.000,4805.7018,N,00138.2163,W,1,07,1.4,42.9,M,48.2,M,,0000*7E
arfcn: 780 rxLev: -102
arfcn: 776 rxLev: -102
$GPGSA,M,3,23,09,06,03,19,17,02,,,,,,2.8,1.4,2.4*36
arfcn: 778 rxLev: -102
arfcn: 767 rxLev: -102
$GPGSV,3,1,12,23,76,105,39,09,55,207,39,06,46,303,39,03,45,079,25*75
arfcn: 768 rxLev: -102
$GPGSV,3,2,12,19,38,252,45,17,31,230,44,02,12,312,20,01,16,140,34*7E
arfcn: 759 rxLev: -102
arfcn: 735 rxLev: -102
$GPGSV,3,3,12,22,26,088,25,31,10,031,24,33,33,198,37,07,00,170,*7B
arfcn: 746 rxLev: -102
arfcn: 755 rxLev: -102
$GPRMC,080635.000,A,4805.7018,N,00138.2163,W,7.75,296.48,220118,,,A*73
arfcn: 723 rxLev: -102
$GPGGA,080636.000,4805.7027,N,00138.2189,W,1,07,1.4,42.7,M,48.2,M,,0000*7B
arfcn: 724 rxLev: -102
arfcn: 691 rxLev: -102
$GPGSA,M,3,23,09,06,03,19,17,02,,,,,,2.8,1.4,2.4*36
arfcn: 699 rxLev: -102
$GPRMC,080636.000,A,4805.7027,N,00138.2189,W,6.29,296.86,220118,,,A*72
arfcn: 600 rxLev: -102
$GPGGA,080637.000,4805.7034,N,00138.2208,W,1,07,1.4,42.5,M,48.2,M,,0000*70
$GPGSA,M,3,23,09,06,03,19,17,02,,,,,,2.8,1.4,2.4*36
$GPRMC,080637.000,A,4805.7034,N,00138.2208,W,4.82,297.23,220118,,,A*76
$GPGGA,080638.000,4805.7040,N,00138.2222,W,1,07,1.4,42.4,M,48.2,M,,0000*75
$GPGSA,M,3,23,09,06,03,19,17,02,,,,,,2.8,1.4,2.4*36
$GPRMC,080638.000,A,4805.7040,N,00138.2222,W,3.16,296.77,220118,,,A*78
$GPGGA,080639.000,4805.7043,N,00138.2228,W,1,07,1.4,42.2,M,48.2,M,,0000*7B
$GPGSA,M,3,23,09,06,03,19,17,02,,,,,,2.8,1.4,2.4*36
$GPRMC,080639.000,A,4805.7043,N,00138.2228,W,0.70,296.77,220118,,,A*73
arfcn: 604 bsic: 20 rxLev: -102 ber: 1.02 mcc: 208 mnc: 01 lac: 10300 cellId: 39915 cellStatus: CELL_FORBIDDEN numArfcn: 16 arfcn: 519 520 521 522 523 524 525 526 596 597 598 599 600 601 602 603 numChannels: 13 array: 5 6 10 15 16 512 514 516 517 518 608 609 610 pbcch: 0 nom: 2 rac: 1 spgc: 0 pat: 6 nco: 0 t3168: 1000 t3192: 500 drxmax: 2 ctrlAck: 0 bsCVmax: 9 alpha: 5 pcMeasCh: 1 
arfcn: 602 rxLev: -103
arfcn: 23 rxLev: -103
arfcn: 698 rxLev: -103
arfcn: 756 rxLev: -103
arfcn: 754 rxLev: -103
$GPGGA,080640.000,4805.7043,N,00138.2228,W,1,07,1.4,42.2,M,48.2,M,,0000*75
arfcn: 751 rxLev: -103
$GPGSA,M,3,23,09,06,03,19,17,02,,,,,,2.8,1.4,2.4*36
arfcn: 747 rxLev: -103
arfcn: 748 rxLev: -103
$GPGSV,3,1,12,23,76,104,39,09,55,207,39,06,46,303,42,03,44,080,33*78
arfcn: 739 rxLev: -103
arfcn: 741 rxLev: -103
$GPGSV,3,2,12,19,38,252,43,17,31,230,43,02,12,312,21,01,16,140,33*79
arfcn: 733 rxLev: -103
arfcn: 732 rxLev: -103
$GPGSV,3,3,12,22,25,088,20,31,10,031,15,33,33,198,37,07,00,170,*7F
arfcn: 761 rxLev: -103
arfcn: 764 rxLev: -103
$GPRMC,080640.000,A,4805.7043,N,00138.2228,W,0.00,296.77,220118,,,A*7A
arfcn: 773 rxLev: -103
$GPGGA,080641.000,4805.7043,N,00138.2228,W,1,07,1.4,42.2,M,48.2,M,,0000*74
arfcn: 775 rxLev: -103
arfcn: 763 rxLev: -103
$GPGSA,M,3,23,09,06,03,19,17,02,,,,,,2.8,1.4,2.4*36
arfcn: 762 rxLev: -103
arfcn: 760 rxLev: -103
$GPRMC,080641.000,A,4805.7043,N,00138.2228,W,0.00,296.77,220118,,,A*7B
arfcn: 742 rxLev: -103
arfcn: 740 rxLev: -103
arfcn: 737 rxLev: -103
arfcn: 750 rxLev: -103
arfcn: 744 rxLev: -103
arfcn: 758 rxLev: -103
arfcn: 704 rxLev: -103
arfcn: 20 rxLev: -103
$GPGGA,080642.000,4805.7043,N,00138.2228,W,1,07,1.4,42.2,M,48.2,M,,0000*77
arfcn: 49 rxLev: -103
$GPGSA,M,3,23,09,06,03,19,17,02,,,,,,2.8,1.4,2.4*36
arfcn: 88 rxLev: -103
$GPRMC,080642.000,A,4805.7043,N,00138.2228,W,0.00,296.77,220118,,,A*78
$GPGGA,080643.000,4805.7043,N,00138.2228,W,1,07,1.4,42.2,M,48.2,M,,0000*76
$GPGSA,M,3,23,09,06,03,19,17,02,,,,,,2.8,1.4,2.4*36
$GPRMC,080643.000,A,4805.7043,N,00138.2228,W,0.00,296.77,220118,,,A*79
$GPGGA,080644.000,4805.7044,N,00138.2227,W,1,07,1.4,42.0,M,48.2,M,,0000*7B
$GPGSA,M,3,23,09,06,03,19,17,02,,,,,,2.8,1.4,2.4*36
$GPRMC,080644.000,A,4805.7044,N,00138.2227,W,0.08,296.77,220118,,,A*7E
$GPGGA,080645.000,4805.7046,N,00138.2230,W,1,07,1.4,41.7,M,48.2,M,,0000*7A
$GPGSA,M,3,23,09,06,03,19,17,02,,,,,,2.8,1.4,2.4*36
$GPGSV,3,1,12,23,76,104,40,09,55,207,40,06,46,303,42,03,44,080,30*7B
$GPGSV,3,2,12,19,38,252,42,17,31,230,41,02,12,312,26,01,16,140,33*7D
$GPGSV,3,3,12,22,25,088,20,31,10,031,24,33,33,198,37,07,00,170,*7D
$GPRMC,080645.000,A,4805.7046,N,00138.2230,W,2.03,295.98,220118,,,A*70
$GPGGA,080646.000,4805.7052,N,00138.2244,W,1,07,1.4,41.4,M,48.2,M,,0000*7C
$GPGSA,M,3,23,09,06,03,19,17,02,,,,,,2.8,1.4,2.4*36
$GPRMC,080646.000,A,4805.7052,N,00138.2244,W,5.89,297.20,220118,,,A*71
$GPGGA,080647.000,4805.7062,N,00138.2271,W,1,07,1.4,41.0,M,48.2,M,,0000*7C
$GPGSA,M,3,23,09,06,03,19,17,02,,,,,,2.8,1.4,2.4*36
$GPRMC,080647.000,A,4805.7062,N,00138.2271,W,8.73,297.43,220118,,,A*78
$GPGGA,080648.000,4805.7075,N,00138.2304,W,1,07,1.4,40.6,M,48.2,M,,0000*71
$GPGSA,M,3,23,09,06,03,19,17,02,,,,,,2.8,1.4,2.4*36
$GPRMC,080648.000,A,4805.7075,N,00138.2304,W,9.68,297.91,220118,,,A*76
arfcn: 601 bsic: 40 rxLev: -104 ber: 0.01 mcc: 208 mnc: 01 lac: 10300 cellId: 31303 cellStatus: CELL_FORBIDDEN numArfcn: 23 arfcn: 525 526 527 528 529 530 531 532 533 534 535 587 588 589 590 591 592 593 594 595 596 597 601 numChannels: 20 array: 3 4 7 8 9 10 12 14 16 512 515 517 518 601 605 606 607 608 609 610 pbcch: 0 nom: 2 rac: 1 spgc: 1 pat: 6 nco: 0 t3168: 1000 t3192: 500 drxmax: 4 ctrlAck: 1 bsCVmax: 9 alpha: 7 pcMeasCh: 0 
arfcn: 757 rxLev: -104
arfcn: 736 rxLev: -104
$GPGGA,080649.000,4805.7090,N,00138.2342,W,1,07,1.4,40.3,M,48.2,M,,0000*7C
arfcn: 683 rxLev: -104
$GPGSA,M,3,23,09,06,03,19,17,02,,,,,,2.8,1.4,2.4*36
arfcn: 781 rxLev: -104
arfcn: 786 rxLev: -104
$GPRMC,080649.000,A,4805.7090,N,00138.2342,W,11.24,297.55,220118,,,A*47
arfcn: 782 rxLev: -104
arfcn: 777 rxLev: -104
arfcn: 765 rxLev: -104
arfcn: 738 rxLev: -104
arfcn: 743 rxLev: -104
arfcn: 18 rxLev: -104
arfcn: 19 rxLev: -105
$GPGGA,080650.000,4805.7107,N,00138.2390,W,1,08,1.0,40.3,M,48.2,M,,0000*7F
$GPGSA,M,3,23,09,06,03,19,17,02,01,,,,,1.8,1.0,1.5*32
$GPGSV,3,1,12,23,76,104,40,09,55,207,40,06,46,303,41,03,44,080,30*78
$GPGSV,3,2,12,19,38,252,42,17,31,230,41,02,12,312,28,01,16,140,33*73
$GPGSV,3,3,12,22,25,088,21,31,10,031,25,33,33,198,35,07,00,170,*7F
$GPRMC,080650.000,A,4805.7107,N,00138.2390,W,14.26,297.66,220118,,,A*48
$GPGGA,080651.000,4805.7128,N,00138.2448,W,1,08,1.0,40.3,M,48.2,M,,0000*71
$GPGSA,M,3,23,09,06,03,19,17,01,02,,,,,1.8,1.0,1.5*32
$GPRMC,080651.000,A,4805.7128,N,00138.2448,W,16.56,297.73,220118,,,A*47
$GPGGA,080652.000,4805.7151,N,00138.2509,W,1,08,1.0,40.1,M,48.2,M,,0000*7A
$GPGSA,M,3,23,09,06,03,19,17,01,02,,,,,1.8,1.0,1.5*32
$GPRMC,080652.000,A,4805.7151,N,00138.2509,W,16.78,299.09,220118,,,A*41
$GPGGA,080653.000,4805.7176,N,00138.2572,W,1,08,1.0,40.3,M,48.2,M,,0000*70
$GPGSA,M,3,23,09,06,03,19,17,01,02,,,,,1.8,1.0,1.5*32
$GPRMC,080653.000,A,4805.7176,N,00138.2572,W,17.24,299.59,220118,,,A*44
$GPGGA,080654.000,4805.7201,N,00138.2639,W,1,08,1.0,40.7,M,48.2,M,,0000*7C
$GPGSA,M,3,23,09,06,03,19,17,01,02,,,,,1.8,1.0,1.5*32
$GPRMC,080654.000,A,4805.7201,N,00138.2639,W,18.41,299.17,220118,,,A*4A
arfcn: 603 bsic: 28 rxLev: -105 ber: 1.01 mcc: 208 mnc: 01 lac: 10300 cellId: 15064 cellStatus: CELL_FORBIDDEN numArfcn: 22 arfcn: 525 526 527 528 529 530 531 532 533 534 535 587 588 589 590 591 592 593 594 595 596 597 numChannels: 15 array: 2 5 8 11 12 13 512 513 514 515 517 520 604 608 609 pbcch: 0 nom: 2 rac: 1 spgc: 0 pat: 6 nco: 0 t3168: 1000 t3192: 500 drxmax: 2 ctrlAck: 0 bsCVmax: 9 alpha: 5 pcMeasCh: 1 
arfcn: 1010 rxLev: -105
arfcn: 513 rxLev: -105
arfcn: 766 rxLev: -105
arfcn: 771 rxLev: -105
arfcn: 0 rxLev: -105
arfcn: 113 rxLev: -105
$GPGGA,080655.000,4805.7227,N,00138.2710,W,1,08,1.0,40.9,M,48.2,M,,0000*7D
arfcn: 24 rxLev: -106
$GPGSA,M,3,23,09,06,03,19,17,01,02,,,,,1.8,1.0,1.5*32
arfcn: 538 rxLev: -106
arfcn: 597 rxLev: -106
$GPGSV,3,1,12,23,76,104,40,09,55,207,40,06,46,303,42,03,44,080,26*7C
arfcn: 21 rxLev: -106
arfcn: 22 rxLev: -106
$GPGSV,3,2,12,19,38,252,41,17,31,230,40,01,16,140,26,02,12,312,18*76
arfcn: 50 rxLev: -106
arfcn: 598 rxLev: -107
$GPGSV,3,3,12,22,25,088,28,31,10,031,36,33,33,198,32,07,00,170,*73
arfcn: 613 rxLev: -107
$GPRMC,080655.000,A,4805.7227,N,00138.2710,W,19.12,298.57,220118,,,A*47
arfcn: 516 rxLev: -107
arfcn: 787 rxLev: -107
$GPGGA,080656.000,4805.7253,N,00138.2782,W,1,08,1.0,41.1,M,48.2,M,,0000*7F
arfcn: 789 rxLev: -107
arfcn: 785 rxLev: -108
$GPGSA,M,3,23,09,06,03,19,17,01,02,,,,,1.8,1.0,1.5*32
arfcn: 612 rxLev: -108
arfcn: 615 rxLev: -108
$GPRMC,080656.000,A,4805.7253,N,00138.2782,W,19.48,298.62,220118,,,A*45
arfcn: 616 rxLev: -108
Network survey ended
Survey end at #CCLK: "18/01/22,09:06:55+04"
Survey duration: 128 seconds, 26 bases detected over 504 freqs scanned.
$GPGGA,080657.000,4805.7280,N,00138.2853,W,1,08,1.0,41.2,M,48.2,M,,0000*70
$GPGSA,M,3,23,09,06,03,19,17,01,02,,,,,1.8,1.0,1.5*32
$GPRMC,080657.000,A,4805.7280,N,00138.2853,W,18.85,298.66,220118,,,A*4D
$GPGGA,080658.000,4805.7306,N,00138.2922,W,1,08,1.0,41.4,M,48.2,M,,0000*71
$GPGSA,M,3,23,09,06,03,19,17,01,02,,,,,1.8,1.0,1.5*32
$GPRMC,080658.000,A,4805.7306,N,00138.2922,W,18.42,299.27,220118,,,A*45
Survey start at #CCLK: "18/01/22,09:06:58+04"
at#csurv
Network survey started ...
$GPGGA,080659.000,4805.7332,N,00138.2989,W,1,08,1.0,41.5,M,48.2,M,,0000*77
$GPGSA,M,3,23,09,06,03,19,17,01,02,,,,,1.8,1.0,1.5*32
$GPRMC,080659.000,A,4805.7332,N,00138.2989,W,18.16,299.77,220118,,,A*46
$GPGGA,080700.000,4805.7357,N,00138.3055,W,1,08,1.0,41.6,M,48.2,M,,0000*73
$GPGSA,M,3,23,09,06,03,19,17,01,02,,,,,1.8,1.0,1.5*32
$GPGSV,3,1,12,23,76,104,40,09,55,207,40,06,46,303,42,03,44,080,32*79
$GPGSV,3,2,12,19,38,252,41,17,31,230,40,01,16,140,25,02,12,312,21*7F
$GPGSV,3,3,12,22,25,088,29,31,10,031,19,37,27,151,,07,00,170,*7A
$GPRMC,080700.000,A,4805.7357,N,00138.3055,W,17.77,299.99,220118,,,A*49
$GPGGA,080701.000,4805.7383,N,00138.3120,W,1,08,1.0,41.9,M,48.2,M,,0000*77
$GPGSA,M,3,23,09,06,03,19,17,01,02,,,,,1.8,1.0,1.5*32
$GPRMC,080701.000,A,4805.7383,N,00138.3120,W,17.48,300.40,220118,,,A*4B
$GPGGA,080702.000,4805.7409,N,00138.3185,W,1,08,1.0,42.3,M,48.2,M,,0000*77
$GPGSA,M,3,23,09,06,03,19,17,01,02,,,,,1.8,1.0,1.5*32
$GPRMC,080702.000,A,4805.7409,N,00138.3185,W,17.98,300.70,220118,,,A*4C
$GPGGA,080703.000,4805.7436,N,00138.3251,W,1,08,1.0,42.7,M,48.2,M,,0000*74
$GPGSA,M,3,23,09,06,03,19,17,01,02,,,,,1.8,1.0,1.5*32
$GPRMC,080703.000,A,4805.7436,N,00138.3251,W,18.49,301.32,220118,,,A*4F
$GPGGA,080704.000,4805.7463,N,00138.3320,W,1,08,1.0,43.5,M,48.2,M,,0000*77
$GPGSA,M,3,23,09,06,03,19,17,01,02,,,,,1.8,1.0,1.5*32
$GPRMC,080704.000,A,4805.7463,N,00138.3320,W,18.93,302.19,220118,,,A*42
$GPGGA,080705.000,4805.7491,N,00138.3396,W,1,08,1.0,45.8,M,48.2,M,,0000*7D
$GPGSA,M,3,23,09,06,03,19,17,01,02,,,,,1.8,1.0,1.5*32
$GPGSV,3,1,12,23,76,104,40,09,55,207,40,06,46,303,44,03,44,080,28*74
$GPGSV,3,2,12,19,38,252,40,17,31,230,43,01,16,140,32,02,12,312,25*7F
$GPGSV,3,3,12,22,25,088,24,31,10,031,20,37,27,151,,07,00,170,*7D
$GPRMC,080705.000,A,4805.7491,N,00138.3396,W,19.46,302.88,220118,,,A*42
$GPGGA,080706.000,4805.7522,N,00138.3469,W,1,08,1.0,46.8,M,48.2,M,,0000*73
$GPGSA,M,3,23,09,06,03,19,17,01,02,,,,,1.8,1.0,1.5*32
arfcn: 16 bsic: 1 rxLev: -51 ber: 0.00 mcc: 208 mnc: 01 lac: 10300 cellId: 40090 cellStatus: CELL_FORBIDDEN numArfcn: 13 arfcn: 16 17 18 19 20 21 22 23 24 25 47 48 49 numChannels: 14 array: 2 3 5 7 8 10 12 512 517 601 604 605 608 610 pbcch: 0 nom: 2 rac: 1 spgc: 0 pat: 6 nco: 0 t3168: 1000 t3192: 500 drxmax: 2 ctrlAck: 0 bsCVmax: 9 alpha: 5 pcMeasCh: 1 
$GPRMC,080706.000,A,4805.7522,N,00138.3469,W,19.89,303.64,220118,,,A*4F
$GPGGA,080707.000,4805.7554,N,00138.3543,W,1,08,1.0,47.7,M,48.2,M,,0000*74
$GPGSA,M,3,23,09,06,03,19,17,01,02,,,,,1.8,1.0,1.5*32
$GPRMC,080707.000,A,4805.7554,N,00138.3543,W,20.19,304.70,220118,,,A*47
$GPGGA,080708.000,4805.7587,N,00138.3616,W,1,08,1.0,48.4,M,48.2,M,,0000*7A
arfcn: 610 bsic: 37 rxLev: -55 ber: 0.01 mcc: 208 mnc: 01 lac: 10300 cellId: 40157 cellStatus: CELL_FORBIDDEN numArfcn: 16 arfcn: 519 520 521 522 523 524 525 526 596 597 598 599 600 601 602 603 numChannels: 12 array: 2 5 7 8 10 12 16 512 517 601 604 608 pbcch: 0 nom: 2 rac: 1 spgc: 0 pat: 6 nco: 0 t3168: 1000 t3192: 500 drxmax: 2 ctrlAck: 0 bsCVmax: 9 alpha: 5 pcMeasCh: 1 
arfcn: 53 rxLev: -60
$GPGSA,M,3,23,09,06,03,19,17,01,02,,,,,1.8,1.0,1.5*32
arfcn: 54 rxLev: -61
arfcn: 55 rxLev: -61
$GPRMC,080708.000,A,4805.7587,N,00138.3616,W,20.52,305.42,220118,,,A*4A
arfcn: 56 rxLev: -62
arfcn: 67 rxLev: -62
arfcn: 68 rxLev: -62
arfcn: 70 rxLev: -62
arfcn: 69 rxLev: -63
arfcn: 59 rxLev: -63
arfcn: 58 rxLev: -63
$GPGGA,080709.000,4805.7622,N,00138.3689,W,1,08,1.0,48.8,M,48.2,M,,0000*7D
arfcn: 57 rxLev: -63
arfcn: 52 rxLev: -64
$GPGSA,M,3,23,09,06,03,19,17,01,02,,,,,1.8,1.0,1.5*32
arfcn: 60 rxLev: -64
arfcn: 62 rxLev: -64
$GPRMC,080709.000,A,4805.7622,N,00138.3689,W,20.87,306.26,220118,,,A*48
arfcn: 71 rxLev: -64
arfcn: 66 rxLev: -65
arfcn: 61 rxLev: -65
arfcn: 63 rxLev: -67
arfcn: 65 rxLev: -67
$GPGGA,080710.000,4805.7658,N,00138.3761,W,1,08,1.0,49.1,M,48.2,M,,0000*77
$GPGSA,M,3,23,09,06,03,19,17,01,02,,,,,1.8,1.0,1.5*32
$GPGSV,3,1,12,23,76,104,40,09,55,207,36,06,46,303,46,03,44,080,31*7F
$GPGSV,3,2,12,19,38,251,28,17,30,230,38,01,15,140,31,02,12,312,31*7A
$GPGSV,3,3,12,22,25,088,31,31,10,031,23,37,27,151,,07,00,170,*7A
$GPRMC,080710.000,A,4805.7658,N,00138.3761,W,21.25,307.15,220118,,,A*42
$GPGGA,080711.000,4805.7696,N,00138.3830,W,1,07,1.4,48.4,M,48.2,M,,0000*70
$GPGSA,M,3,23,09,06,03,19,17,02,,,,,,2.8,1.4,2.4*36
$GPRMC,080711.000,A,4805.7696,N,00138.3830,W,21.45,307.60,220118,,,A*4E
$GPGGA,080712.000,4805.7733,N,00138.3899,W,1,07,1.4,47.7,M,48.2,M,,0000*72
$GPGSA,M,3,23,09,06,03,19,17,02,,,,,,2.8,1.4,2.4*36
$GPRMC,080712.000,A,4805.7733,N,00138.3899,W,21.21,308.10,220118,,,A*4A
$GPGGA,080713.000,4805.7769,N,00138.3968,W,1,07,1.4,47.0,M,48.2,M,,0000*74
$GPGSA,M,3,23,09,06,03,19,17,02,,,,,,2.8,1.4,2.4*36
$GPRMC,080713.000,A,4805.7769,N,00138.3968,W,20.82,308.45,220118,,,A*43
arfcn: 518 bsic: 59 rxLev: -67 ber: 0.00 mcc: 208 mnc: 01 lac: 10300 cellId: 60275 cellStatus: CELL_FORBIDDEN numArfcn: 16 arfcn: 519 520 521 522 523 524 525 526 596 597 598 599 600 601 602 603 numChannels: 18 array: 2 3 4 6 7 10 14 512 515 517 518 523 604 605 606 607 608 609 pbcch: 0 nom: 2 rac: 1 spgc: 0 pat: 6 nco: 0 t3168: 1000 t3192: 500 drxmax: 2 ctrlAck: 0 bsCVmax: 9 alpha: 5 pcMeasCh: 1 
arfcn: 17 rxLev: -68
arfcn: 64 rxLev: -68
arfcn: 72 rxLev: -68
arfcn: 37 rxLev: -70
arfcn: 41 rxLev: -70
arfcn: 42 rxLev: -70
arfcn: 44 rxLev: -70
arfcn: 43 rxLev: -70
arfcn: 38 rxLev: -70
$GPGGA,080714.000,4805.7804,N,00138.4032,W,1,08,1.0,45.8,M,48.2,M,,0000*77
arfcn: 39 rxLev: -70
arfcn: 32 rxLev: -70
$GPGSA,M,3,23,09,06,03,19,17,01,02,,,,,1.8,1.0,1.5*32
arfcn: 33 rxLev: -70
arfcn: 34 rxLev: -70
$GPRMC,080714.000,A,4805.7804,N,00138.4032,W,19.41,308.46,220118,,,A*47
arfcn: 30 rxLev: -70
arfcn: 31 rxLev: -70
arfcn: 40 rxLev: -71
arfcn: 45 rxLev: -71
arfcn: 35 rxLev: -71
$GPGGA,080715.000,4805.7836,N,00138.4094,W,1,08,1.0,45.2,M,48.2,M,,0000*71
arfcn: 609 rxLev: -71
arfcn: 611 rxLev: -71
$GPGSA,M,3,23,09,06,03,19,17,01,02,,,,,1.8,1.0,1.5*32
arfcn: 36 rxLev: -72
arfcn: 47 rxLev: -72
$GPGSV,3,1,12,23,76,103,40,09,55,207,39,06,46,303,47,03,44,080,26*70
arfcn: 29 rxLev: -72
$GPGSV,3,2,12,19,38,251,37,17,30,230,39,01,15,140,34,02,13,312,30*70
arfcn: 15 rxLev: -72
arfcn: 28 rxLev: -73
$GPGSV,3,3,12,22,25,088,21,31,10,031,20,37,27,151,,07,00,170,*78
arfcn: 51 rxLev: -73
arfcn: 46 rxLev: -74
$GPRMC,080715.000,A,4805.7836,N,00138.4094,W,18.41,308.79,220118,,,A*46
arfcn: 27 rxLev: -75
$GPGGA,080716.000,4805.7869,N,00138.4150,W,1,08,1.0,44.2,M,48.2,M,,0000*70
$GPGSA,M,3,23,09,06,03,19,17,01,02,,,,,1.8,1.0,1.5*32
$GPRMC,080716.000,A,4805.7869,N,00138.4150,W,17.72,309.25,220118,,,A*41
$GPGGA,080717.000,4805.7900,N,00138.4205,W,1,08,1.0,43.3,M,48.2,M,,0000*7A
$GPGSA,M,3,23,09,06,03,19,17,01,02,,,,,1.8,1.0,1.5*32
$GPRMC,080717.000,A,4805.7900,N,00138.4205,W,17.07,308.96,220118,,,A*46
$GPGGA,080718.000,4805.7930,N,00138.4257,W,1,08,1.0,42.5,M,48.2,M,,0000*76
$GPGSA,M,3,23,09,06,03,19,17,01,02,,,,,1.8,1.0,1.5*32
$GPRMC,080718.000,A,4805.7930,N,00138.4257,W,16.39,309.22,220118,,,A*4F
arfcn: 981 bsic: 36 rxLev: -76 ber: 0.00 mcc: 208 mnc: 20 lac: 418 cellId: 20719 cellStatus: CELL_SUITABLE numArfcn: 1 arfcn: 981 numChannels: 22 array: 788 789 790 793 795 796 878 879 883 977 978 979 980 982 985 1011 1014 1017 1019 1020 1021 1022 pbcch: 0 nom: 2 rac: 6 spgc: 0 pat: 6 nco: 0 t3168: 1500 t3192: 500 drxmax: 0 ctrlAck: 0 bsCVmax: 8 alpha: 6 pcMeasCh: 1 
arfcn: 728 rxLev: -76
arfcn: 726 rxLev: -76
arfcn: 748 rxLev: -77
arfcn: 756 rxLev: -77
$GPGGA,080719.000,4805.7958,N,00138.4307,W,1,08,1.0,41.7,M,48.2,M,,0000*7C
$GPGSA,M,3,23,09,06,03,19,17,01,02,,,,,1.8,1.0,1.5*32
$GPRMC,080719.000,A,4805.7958,N,00138.4307,W,15.69,309.23,220118,,,A*43
