$GPGSA,M,1,,,,,,,,,,,,,,,*12
$GPGSV,3,1,11,20,16,042,22,16,74,196,,27,64,299,,26,45,163,*76
$GPGSV,3,2,11,18,42,098,,21,42,058,,10,32,142,,08,25,283,*7F
$GPGSV,3,3,11,07,15,319,,30,02,337,,15,01,056,*41
$GPRMC,234407.498,V,,,,,,,050218,,,N*40
Survey start at #CCLK: "18/02/06,00:44:08+04"
at#csurv
Network survey started ...
Survey end at #CCLK: "18/02/06,00:44:08+04"
Survey duration: 0 seconds, 0 bases detected over 0 freqs scanned.
$GPGGA,234408.498,,,,,0,00,,,M,0.0,M,,0000*5A
$GPGSA,M,1,,,,,,,,,,,,,,,*12
$GPRMC,234408.498,V,,,,,,,050218,,,N*4F
$GPGGA,234409.498,,,,,0,00,,,M,0.0,M,,0000*5B
$GPGSA,M,1,,,,,,,,,,,,,,,*12
$GPRMC,234409.498,V,,,,,,,050218,,,N*4E
Survey start at #CCLK: "18/02/06,00:44:10+04"
at#csurv
Network survey started ...
$GPGGA,234410.498,,,,,0,00,,,M,0.0,M,,0000*53
$GPGSA,M,1,,,,,,,,,,,,,,,*12
$GPRMC,234410.498,V,,,,,,,050218,,,N*46
$GPGGA,234411.498,,,,,0,00,,,M,0.0,M,,0000*52
$GPGSA,M,1,,,,,,,,,,,,,,,*12
$GPRMC,234411.498,V,,,,,,,050218,,,N*47
$GPGGA,234412.498,,,,,0,00,,,M,0.0,M,,0000*51
$GPGSA,M,1,,,,,,,,,,,,,,,*12
$GPGSV,3,1,11,20,16,042,22,16,74,196,,27,64,299,,26,45,163,*76
$GPGSV,3,2,11,18,42,098,,21,42,058,,10,32,142,,08,25,283,*7F
$GPGSV,3,3,11,07,15,319,,30,02,337,,15,01,056,*41
$GPRMC,234412.498,V,,,,,,,050218,,,N*44
$GPGGA,234413.498,,,,,0,00,,,M,0.0,M,,0000*50
$GPGSA,M,1,,,,,,,,,,,,,,,*12
$GPRMC,234413.498,V,,,,,,,050218,,,N*45
$GPGGA,234414.498,,,,,0,00,,,M,0.0,M,,0000*57
$GPGSA,M,1,,,,,,,,,,,,,,,*12
$GPRMC,234414.498,V,,,,,,,050218,,,N*42
$GPGGA,234415.503,,,,,0,00,,,M,0.0,M,,0000*55
$GPGSA,M,1,,,,,,,,,,,,,,,*12
$GPRMC,234415.503,V,,,,,,,050218,,,N*40
arfcn: 981 bsic: 46 rxLev: -49 ber: 50.00 mcc: 208 mnc: 20 lac: 418 cellId: 21807 cellStatus: CELL_SUITABLE numArfcn: 1 arfcn: 981 numChannels: 16 array: 979 982 983 985 1012 1014 1017 1019 1020 787 790 791 793 796 882 884 pbcch: 0 nom: 2 rac: 6 spgc: 0 pat: 6 nco: 0 t3168: 1500 t3192: 500 drxmax: 0 ctrlAck: 0 bsCVmax: 8 alpha: 6 pcMeasCh: 1 
$GPGGA,234416.503,,,,,0,00,,,M,0.0,M,,0000*56
$GPGSA,M,1,,,,,,,,,,,,,,,*12
$GPRMC,234416.503,V,,,,,,,050218,,,N*43
$GPGGA,234417.498,,,,,0,00,,,M,0.0,M,,0000*54
$GPGSA,M,1,,,,,,,,,,,,,,,*12
$GPGSV,3,1,11,10,32,142,16,20,16,042,22,16,74,196,,27,64,299,*77
$GPGSV,3,2,11,26,45,163,,18,42,098,,21,42,058,,08,25,283,*79
$GPGSV,3,3,11,07,15,319,,30,02,337,,15,01,056,*41
$GPRMC,234417.498,V,,,,,,,050218,,,N*41
$GPGGA,234418.503,,,,,0,00,,,M,0.0,M,,0000*58
$GPGSA,M,1,,,,,,,,,,,,,,,*12
$GPRMC,234418.503,V,,,,,,,050218,,,N*4D
$GPGGA,234419.503,,,,,0,00,,,M,0.0,M,,0000*59
$GPGSA,M,1,,,,,,,,,,,,,,,*12
$GPRMC,234419.503,V,,,,,,,050218,,,N*4C
$GPGGA,234420.503,,,,,0,00,,,M,0.0,M,,0000*53
$GPGSA,M,1,,,,,,,,,,,,,,,*12
$GPRMC,234420.503,V,,,,,,,050218,,,N*46
$GPGGA,234421.503,,,,,0,00,,,M,0.0,M,,0000*52
$GPGSA,M,1,,,,,,,,,,,,,,,*12
$GPRMC,234421.503,V,,,,,,,050218,,,N*47
$GPGGA,234422.503,,,,,0,00,,,M,0.0,M,,0000*51
$GPGSA,M,1,,,,,,,,,,,,,,,*12
$GPGSV,3,1,11,10,32,142,16,20,16,042,22,16,74,196,,27,64,299,*77
Survey end at #CCLK: "18/02/06,00:44:23+04"
Survey duration: 12 seconds, 1 bases detected over 1 freqs scanned.
$GPGSV,3,2,11,26,45,163,,18,42,098,,21,42,058,,08,25,283,*79
$GPGSV,3,3,11,07,15,319,,30,02,337,,15,01,056,*41
$GPRMC,234422.503,V,,,,,,,050218,,,N*44
$GPGGA,234423.503,,,,,0,00,,,M,0.0,M,,0000*50
$GPGSA,M,1,,,,,,,,,,,,,,,*12
$GPRMC,234423.503,V,,,,,,,050218,,,N*45
Survey start at #CCLK: "18/02/06,00:44:24+04"
at#csurv
Network survey started ...
$GPGGA,234424.503,,,,,0,00,,,M,0.0,M,,0000*57
Survey end at #CCLK: "18/02/06,00:44:24+04"
Survey duration: 0 seconds, 0 bases detected over 0 freqs scanned.
$GPGSA,M,1,,,,,,,,,,,,,,,*12
$GPRMC,234424.503,V,,,,,,,050218,,,N*42
$GPGGA,234425.498,,,,,0,00,,,M,0.0,M,,0000*55
$GPGSA,M,1,,,,,,,,,,,,,,,*12
$GPRMC,234425.498,V,,,,,,,050218,,,N*40
Survey start at #CCLK: "18/02/06,00:44:26+04"
at#csurv
Network survey started ...
Survey end at #CCLK: "18/02/06,00:44:26+04"
Survey duration: 0 seconds, 0 bases detected over 0 freqs scanned.
$GPGGA,234426.498,,,,,0,00,,,M,0.0,M,,0000*56
$GPGSA,M,1,,,,,,,,,,,,,,,*12
$GPRMC,234426.498,V,,,,,,,050218,,,N*43
$GPGGA,234427.498,,,,,0,00,,,M,0.0,M,,0000*57
$GPGSA,M,1,,,,,,,,,,,,,,,*12
$GPGSV,3,1,11,10,32,142,16,20,16,042,22,16,74,196,,27,64,299,*77
$GPGSV,3,2,11,26,45,163,,18,42,098,,21,42,058,,08,25,283,*79
$GPGSV,3,3,11,07,15,319,,30,02,337,,15,01,056,*41
$GPRMC,234427.498,V,,,,,,,050218,,,N*42
$GPGGA,234428.498,,,,,0,00,,,M,0.0,M,,0000*58
$GPGSA,M,1,,,,,,,,,,,,,,,*12
Survey start at #CCLK: "18/02/06,00:44:29+04"
at#csurv
Network survey started ...
$GPRMC,234428.498,V,,,,,,,050218,,,N*4D
$GPGGA,234429.503,,,,,0,00,,,M,0.0,M,,0000*5A
$GPGSA,M,1,,,,,,,,,,,,,,,*12
$GPRMC,234429.503,V,,,,,,,050218,,,N*4F
$GPGGA,234430.503,,,,,0,00,,,M,0.0,M,,0000*52
$GPGSA,M,1,,,,,,,,,,,,,,,*12
$GPRMC,234430.503,V,,,,,,,050218,,,N*47
$GPGGA,234431.498,,,,,0,00,,,M,0.0,M,,0000*50
$GPGSA,M,1,,,,,,,,,,,,,,,*12
$GPRMC,234431.498,V,,,,,,,050218,,,N*45
$GPGGA,234432.502,,,,,0,00,,,M,0.0,M,,0000*51
$GPGSA,M,1,,,,,,,,,,,,,,,*12
$GPGSV,3,1,11,10,32,142,16,20,16,042,22,16,74,196,,27,64,299,*77
$GPGSV,3,2,11,26,45,163,,18,42,098,,21,42,058,,08,25,283,*79
$GPGSV,3,3,11,07,15,319,,30,02,337,,15,01,056,*41
$GPRMC,234432.502,V,,,,,,,050218,,,N*44
$GPGGA,234433.503,,,,,0,00,,,M,0.0,M,,0000*51
$GPGSA,M,1,,,,,,,,,,,,,,,*12
$GPRMC,234433.503,V,,,,,,,050218,,,N*44
$GPGGA,234434.503,,,,,0,00,,,M,0.0,M,,0000*56
$GPGSA,M,1,,,,,,,,,,,,,,,*12
$GPRMC,234434.503,V,,,,,,,050218,,,N*43
arfcn: 981 bsic: 46 rxLev: -49 ber: 0.00 mcc: 208 mnc: 20 lac: 418 cellId: 21807 cellStatus: CELL_SUITABLE numArfcn: 1 arfcn: 981 numChannels: 16 array: 979 982 983 985 1012 1014 1017 1019 1020 787 790 791 793 796 882 884 pbcch: 0 nom: 2 rac: 6 spgc: 0 pat: 6 nco: 0 t3168: 1500 t3192: 500 drxmax: 0 ctrlAck: 0 bsCVmax: 8 alpha: 6 pcMeasCh: 1 
$GPGGA,234435.503,,,,,0,00,,,M,0.0,M,,0000*57
$GPGSA,M,1,,,,,,,,,,,,,,,*12
$GPRMC,234435.503,V,,,,,,,050218,,,N*42
$GPGGA,234436.503,,,,,0,00,,,M,0.0,M,,0000*54
$GPGSA,M,1,,,,,,,,,,,,,,,*12
$GPRMC,234436.503,V,,,,,,,050218,,,N*41
$GPGGA,234437.503,,,,,0,00,,,M,0.0,M,,0000*55
$GPGSA,M,1,,,,,,,,,,,,,,,*12
$GPGSV,3,1,11,10,32,142,17,20,16,042,23,16,74,196,,27,64,299,*77
$GPGSV,3,2,11,26,45,163,,18,42,098,,21,42,058,,08,25,283,*79
$GPGSV,3,3,11,07,15,319,,30,02,337,,15,01,056,*41
$GPRMC,234437.503,V,,,,,,,050218,,,N*40
$GPGGA,234438.503,,,,,0,00,,,M,0.0,M,,0000*5A
$GPGSA,M,1,,,,,,,,,,,,,,,*12
$GPRMC,234438.503,V,,,,,,,050218,,,N*4F
$GPGGA,234439.498,,,,,0,00,,,M,0.0,M,,0000*58
$GPGSA,M,1,,,,,,,,,,,,,,,*12
$GPRMC,234439.498,V,,,,,,,050218,,,N*4D
$GPGGA,234440.503,,,,,0,00,,,M,0.0,M,,0000*55
$GPGSA,M,1,,,,,,,,,,,,,,,*12
$GPRMC,234440.503,V,,,,,,,050218,,,N*40
$GPGGA,234441.303,,,,,0,04,4.8,,M,0.0,M,,0000*74
$GPGSA,M,1,,,,,,,,,,,,,,,*12
$GPRMC,234441.303,V,,,,,,,050218,,,N*47
$GPGGA,234441.403,,,,,0,04,4.8,,M,0.0,M,,0000*73
Survey end at #CCLK: "18/02/06,00:44:42+04"
Survey duration: 13 seconds, 1 bases detected over 1 freqs scanned.
$GPGSA,M,1,,,,,,,,,,,,,,,*12
$GPGSV,3,1,12,26,44,163,15,21,41,058,14,10,33,142,16,20,16,041,23*72
$GPGSV,3,2,12,33,33,198,,16,74,195,,27,65,300,,18,42,098,*79
$GPGSV,3,3,12,08,26,284,,07,15,318,,30,02,337,,15,01,056,*71
$GPRMC,234441.403,V,,,,,,,050218,,,N*40
$GPGGA,234441.503,,,,,0,04,4.8,,M,0.0,M,,0000*72
$GPGSA,M,1,,,,,,,,,,,,,,,*12
$GPRMC,234441.503,V,,,,,,,050218,,,N*41
$GPGGA,234442.503,,,,,0,00,,,M,0.0,M,,0000*57
$GPGSA,M,1,,,,,,,,,,,,,,,*12
$GPRMC,234442.503,V,,,,,,,050218,,,N*42
Survey start at #CCLK: "18/02/06,00:44:43+04"
at#csurv
Network survey started ...
Survey end at #CCLK: "18/02/06,00:44:43+04"
Survey duration: 0 seconds, 0 bases detected over 0 freqs scanned.
$GPGGA,234443.503,,,,,0,04,4.8,,M,0.0,M,,0000*70
$GPGSA,M,1,,,,,,,,,,,,,,,*12
$GPRMC,234443.503,V,,,,,,,050218,,,N*43
$GPGGA,234444.504,,,,,0,04,4.8,,M,0.0,M,,0000*70
$GPGSA,M,1,,,,,,,,,,,,,,,*12
$GPRMC,234444.504,V,,,,,,,050218,,,N*43
Survey start at #CCLK: "18/02/06,00:44:45+04"
at#csurv
Network survey started ...
Survey end at #CCLK: "18/02/06,00:44:45+04"
Survey duration: 0 seconds, 0 bases detected over 0 freqs scanned.
$GPGGA,234445.504,,,,,0,04,4.8,,M,0.0,M,,0000*71
$GPGSA,M,1,,,,,,,,,,,,,,,*12
$GPGSV,3,1,12,26,44,163,16,21,41,058,17,10,33,142,16,20,16,041,23*72
$GPGSV,3,2,12,33,33,198,,16,74,195,,27,65,300,,18,42,098,*79
$GPGSV,3,3,12,08,26,284,,07,15,318,,30,02,337,,15,01,056,*71
$GPRMC,234445.504,V,,,,,,,050218,,,N*42
$GPGGA,234446.504,,,,,0,04,4.8,,M,0.0,M,,0000*72
$GPGSA,M,1,,,,,,,,,,,,,,,*12
$GPRMC,234446.504,V,,,,,,,050218,,,N*41
$GPGGA,234447.504,,,,,0,04,4.8,,M,0.0,M,,0000*73
$GPGSA,M,1,,,,,,,,,,,,,,,*12
Survey start at #CCLK: "18/02/06,00:44:48+04"
$GPRMC,234447.504,V,,,,,,,050218,,,N*40
at#csurv
Network survey started ...
$GPGGA,234448.504,,,,,0,04,4.8,,M,0.0,M,,0000*7C
$GPGSA,M,1,,,,,,,,,,,,,,,*12
$GPRMC,234448.504,V,,,,,,,050218,,,N*4F
$GPGGA,234449.504,,,,,0,04,4.8,,M,0.0,M,,0000*7D
$GPGSA,M,1,,,,,,,,,,,,,,,*12
$GPRMC,234449.504,V,,,,,,,050218,,,N*4E
$GPGGA,234450.504,,,,,0,04,4.8,,M,0.0,M,,0000*75
$GPGSA,M,1,,,,,,,,,,,,,,,*12
$GPGSV,3,1,12,26,44,163,17,21,41,058,18,10,33,142,15,20,16,041,23*7F
$GPGSV,3,2,12,33,33,198,,16,74,195,,27,65,300,,18,42,098,*79
$GPGSV,3,3,12,08,26,284,,07,15,318,,30,02,337,,15,01,056,*71
$GPRMC,234450.504,V,,,,,,,050218,,,N*46
$GPGGA,234451.000,,,,,0,04,4.8,,M,0.0,M,,0000*75
$GPGSA,M,1,,,,,,,,,,,,,,,*12
$GPRMC,234451.000,V,,,,,,,050218,,,N*46
$GPGGA,234452.000,,,,,0,04,4.8,,M,0.0,M,,0000*76
$GPGSA,M,1,,,,,,,,,,,,,,,*12
$GPRMC,234452.000,V,,,,,,,050218,,,N*45
$GPGGA,234453.000,,,,,0,04,4.8,,M,0.0,M,,0000*77
$GPGSA,M,1,,,,,,,,,,,,,,,*12
$GPRMC,234453.000,V,,,,,,,050218,,,N*44
$GPGGA,234454.000,,,,,0,04,4.8,,M,0.0,M,,0000*70
$GPGSA,M,1,,,,,,,,,,,,,,,*12
$GPRMC,234454.000,V,,,,,,,050218,,,N*43
arfcn: 981 bsic: 46 rxLev: -49 ber: 0.00 mcc: 208 mnc: 20 lac: 418 cellId: 21807 cellStatus: CELL_SUITABLE numArfcn: 1 arfcn: 981 numChannels: 16 array: 979 982 983 985 1012 1014 1017 1019 1020 787 790 791 793 796 882 884 pbcch: 0 nom: 2 rac: 6 spgc: 0 pat: 6 nco: 0 t3168: 1500 t3192: 500 drxmax: 0 ctrlAck: 0 bsCVmax: 8 alpha: 6 pcMeasCh: 1 
$GPGGA,234455.000,,,,,0,04,4.8,,M,0.0,M,,0000*71
$GPGSA,M,1,,,,,,,,,,,,,,,*12
$GPGSV,3,1,12,26,44,163,17,21,41,058,18,10,33,142,15,20,16,041,23*7F
$GPGSV,3,2,12,33,33,198,,16,74,195,,27,65,300,,18,42,098,*79
$GPGSV,3,3,12,08,26,284,,07,15,318,,30,02,337,,15,01,056,*71
$GPRMC,234455.000,V,,,,,,,050218,,,N*42
$GPGGA,234456.000,,,,,0,04,4.8,,M,0.0,M,,0000*72
$GPGSA,M,1,,,,,,,,,,,,,,,*12
$GPRMC,234456.000,V,,,,,,,050218,,,N*41
$GPGGA,234457.000,,,,,0,04,4.8,,M,0.0,M,,0000*73
$GPGSA,M,1,,,,,,,,,,,,,,,*12
$GPRMC,234457.000,V,,,,,,,050218,,,N*40
arfcn: 985 bsic: 44 rxLev: -52 ber: 0.00 mcc: 208 mnc: 20 lac: 418 cellId: 21808 cellStatus: CELL_SUITABLE numArfcn: 1 arfcn: 985 numChannels: 25 array: 787 788 790 793 795 796 879 884 975 977 978 979 980 981 982 983 1011 1012 1014 1015 1017 1019 1020 1021 1022 pbcch: 0 nom: 2 rac: 6 spgc: 0 pat: 6 nco: 0 t3168: 1500 t3192: 500 drxmax: 0 ctrlAck: 0 bsCVmax: 8 alpha: 6 pcMeasCh: 1 
arfcn: 991 rxLev: -63
arfcn: 995 rxLev: -63
arfcn: 997 rxLev: -63
arfcn: 998 rxLev: -63
arfcn: 996 rxLev: -63
$GPGGA,234458.000,,,,,0,04,4.8,,M,0.0,M,,0000*7C
arfcn: 993 rxLev: -63
$GPGSA,M,1,,,,,,,,,,,,,,,*12
arfcn: 994 rxLev: -63
$GPRMC,234458.000,V,,,,,,,050218,,,N*4F
arfcn: 992 rxLev: -63
$GPGGA,234459.000,,,,,0,04,4.8,,M,0.0,M,,0000*7D
$GPGSA,M,1,,,,,,,,,,,,,,,*12
$GPRMC,234459.000,V,,,,,,,050218,,,N*4E
$GPGGA,234500.000,,,,,0,04,4.8,,M,0.0,M,,0000*70
$GPGSA,M,1,,,,,,,,,,,,,,,*12
$GPGSV,3,1,12,26,44,163,17,21,41,058,19,10,33,142,14,20,16,041,23*7F
$GPGSV,3,2,12,33,33,198,,16,74,195,,27,65,300,,18,42,098,*79
$GPGSV,3,3,12,08,26,284,,07,15,318,,30,02,337,,15,01,056,*71
$GPRMC,234500.000,V,,,,,,,050218,,,N*43
$GPGGA,234501.000,,,,,0,04,4.8,,M,0.0,M,,0000*71
$GPGSA,M,1,,,,,,,,,,,,,,,*12
$GPRMC,234501.000,V,,,,,,,050218,,,N*42
$GPGGA,234502.000,,,,,0,04,4.8,,M,0.0,M,,0000*72
$GPGSA,M,1,,,,,,,,,,,,,,,*12
$GPRMC,234502.000,V,,,,,,,050218,,,N*41
arfcn: 12 bsic: 0 rxLev: -63 ber: 0.00 mcc: 208 mnc: 01 lac: 10300 cellId: 6467 cellStatus: CELL_FORBIDDEN numArfcn: 13 arfcn: 12 17 18 19 20 21 22 23 24 25 47 48 49 numChannels: 15 array: 1 2 3 8 9 10 14 512 513 514 515 518 605 606 608 pbcch: 0 nom: 2 rac: 1 spgc: 0 pat: 6 nco: 0 t3168: 1000 t3192: 500 drxmax: 2 ctrlAck: 0 bsCVmax: 9 alpha: 5 pcMeasCh: 1 
arfcn: 990 rxLev: -64
arfcn: 999 rxLev: -64
arfcn: 1000 rxLev: -64
arfcn: 1003 rxLev: -64
arfcn: 1004 rxLev: -64
arfcn: 1001 rxLev: -64
arfcn: 1007 rxLev: -64
arfcn: 1008 rxLev: -65
$GPGGA,234503.000,,,,,0,04,4.8,,M,0.0,M,,0000*73
arfcn: 1005 rxLev: -65
$GPGSA,M,1,,,,,,,,,,,,,,,*12
arfcn: 1002 rxLev: -65
$GPRMC,234503.000,V,,,,,,,050218,,,N*40
arfcn: 1006 rxLev: -65
arfcn: 982 rxLev: -66
arfcn: 980 rxLev: -67
arfcn: 986 rxLev: -70
arfcn: 984 rxLev: -71
arfcn: 989 rxLev: -72
arfcn: 1009 rxLev: -73
$GPGGA,234504.000,,,,,0,04,4.8,,M,0.0,M,,0000*74
$GPGSA,M,1,,,,,,,,,,,,,,,*12
$GPRMC,234504.000,V,,,,,,,050218,,,N*47
$GPGGA,234505.000,,,,,0,04,4.7,,M,0.0,M,,0000*7A
$GPGSA,M,1,,,,,,,,,,,,,,,*12
$GPGSV,3,1,12,26,44,163,17,21,41,058,20,10,33,142,14,20,16,041,23*75
arfcn: 85 bsic: 0 rxLev: -74 ber: 0.00 mcc: 208 mnc: 10 lac: 49415 cellId: 44814 cellStatus: CELL_FORBIDDEN numArfcn: 2 arfcn: 85 119 numChannels: 20 array: 76 77 78 79 80 82 83 85 86 114 115 116 117 118 119 120 121 122 123 124 pbcch: 0 nom: 2 rac: 31 spgc: 0 pat: 6 nco: 0 t3168: 1000 t3192: 500 drxmax: 4 ctrlAck: 1 bsCVmax: 9 alpha: 10 pcMeasCh: 0 
$GPGSV,3,2,12,27,65,300,11,33,33,198,,16,74,195,,18,42,098,*79
$GPGSV,3,3,12,08,26,284,,07,15,318,,30,02,337,,15,01,056,*71
$GPRMC,234505.000,V,,,,,,,050218,,,N*46
$GPGGA,234506.000,,,,,0,04,4.7,,M,0.0,M,,0000*79
$GPGSA,M,1,,,,,,,,,,,,,,,*12
$GPRMC,234506.000,V,,,,,,,050218,,,N*45
$GPGGA,234507.000,4806.8746,N,00139.3880,W,1,05,1.8,46.5,M,48.3,M,,0000*72
$GPGSA,M,3,27,26,21,10,20,,,,,,,,3.0,1.8,2.4*33
$GPRMC,234507.000,A,4806.8746,N,00139.3880,W,6.38,292.08,050218,,,A*76
$GPGGA,234508.000,4806.8756,N,00139.3952,W,1,05,1.8,47.8,M,48.3,M,,0000*7E
$GPGSA,M,3,27,26,21,10,20,,,,,,,,3.0,1.8,2.4*33
$GPRMC,234508.000,A,4806.8756,N,00139.3952,W,6.36,290.19,050218,,,A*7A
arfcn: 515 bsic: 34 rxLev: -76 ber: 0.00 mcc: 208 mnc: 01 lac: 10300 cellId: 27586 cellStatus: CELL_FORBIDDEN numArfcn: 16 arfcn: 519 520 521 522 523 524 525 526 596 597 598 599 600 601 602 603 numChannels: 9 array: 1 8 12 512 513 516 605 606 607 pbcch: 0 nom: 2 rac: 1 spgc: 0 pat: 6 nco: 0 t3168: 1000 t3192: 500 drxmax: 2 ctrlAck: 0 bsCVmax: 9 alpha: 5 pcMeasCh: 1 
$GPGGA,234509.000,4806.8765,N,00139.4010,W,1,05,1.8,48.1,M,48.3,M,,0000*71
$GPGSA,M,3,27,26,21,10,20,,,,,,,,3.0,1.8,2.4*33
$GPRMC,234509.000,A,4806.8765,N,00139.4010,W,6.40,289.36,050218,,,A*77
$GPGGA,234510.000,4806.8773,N,00139.4061,W,1,05,1.8,47.6,M,48.3,M,,0000*70
$GPGSA,M,3,27,26,21,10,20,,,,,,,,3.0,1.8,2.4*33
$GPGSV,3,1,12,27,65,300,15,26,44,163,16,21,41,058,20,10,33,142,11*71
$GPGSV,3,2,12,20,16,041,23,33,33,198,,16,74,195,,18,42,098,*7D
arfcn: 605 bsic: 33 rxLev: -76 ber: 0.00 mcc: 208 mnc: 01 lac: 10300 cellId: 27588 cellStatus: CELL_FORBIDDEN numArfcn: 22 arfcn: 525 526 527 528 529 530 531 532 533 534 535 587 588 589 590 591 592 593 594 595 596 597 numChannels: 18 array: 1 3 5 8 12 15 512 513 514 515 516 517 518 604 605 606 607 609 pbcch: 0 nom: 2 rac: 1 spgc: 0 pat: 6 nco: 0 t3168: 1000 t3192: 500 drxmax: 2 ctrlAck: 0 bsCVmax: 9 alpha: 5 pcMeasCh: 1 
$GPGSV,3,3,12,08,26,284,,07,15,318,,30,02,337,,15,01,056,*71
$GPRMC,234510.000,A,4806.8773,N,00139.4061,W,6.41,289.22,050218,,,A*7A
$GPGGA,234511.000,4806.8782,N,00139.4095,W,1,05,1.8,46.8,M,48.3,M,,0000*7B
$GPGSA,M,3,27,26,21,10,20,,,,,,,,3.0,1.8,2.4*33
$GPRMC,234511.000,A,4806.8782,N,00139.4095,W,6.55,290.02,050218,,,A*71
$GPGGA,234512.000,4806.8790,N,00139.4117,W,1,05,1.8,47.2,M,48.3,M,,0000*7B
$GPGSA,M,3,27,26,21,10,20,,,,,,,,3.0,1.8,2.4*33
$GPRMC,234512.000,A,4806.8790,N,00139.4117,W,6.29,291.28,050218,,,A*78
arfcn: 10 bsic: 45 rxLev: -77 ber: 4.01 mcc: 208 mnc: 01 lac: 10301 cellId: 6461 cellStatus: CELL_FORBIDDEN numArfcn: 13 arfcn: 10 17 18 19 20 21 22 23 24 25 47 48 49 numChannels: 17 array: 1 3 4 5 6 8 12 14 512 513 514 516 517 604 605 606 608 pbcch: 0 nom: 2 rac: 1 spgc: 0 pat: 6 nco: 0 t3168: 1000 t3192: 500 drxmax: 2 ctrlAck: 0 bsCVmax: 9 alpha: 5 pcMeasCh: 1 
arfcn: 43 rxLev: -78
$GPGGA,234513.000,4806.8797,N,00139.4131,W,1,05,1.8,47.7,M,48.3,M,,0000*7C
$GPGSA,M,3,27,26,21,10,20,,,,,,,,3.0,1.8,2.4*33
$GPRMC,234513.000,A,4806.8797,N,00139.4131,W,6.06,292.55,050218,,,A*7E
$GPGGA,234514.000,4806.8798,N,00139.4145,W,1,05,1.8,45.9,M,48.3,M,,0000*7B
$GPGSA,M,3,27,26,21,10,20,,,,,,,,3.0,1.8,2.4*33
$GPRMC,234514.000,A,4806.8798,N,00139.4145,W,5.47,292.83,050218,,,A*78
$GPGGA,234515.000,4806.8800,N,00139.4147,W,1,05,1.8,46.5,M,48.3,M,,0000*79
$GPGSA,M,3,27,26,21,10,20,,,,,,,,3.0,1.8,2.4*33
$GPGSV,3,1,12,27,65,300,16,26,44,163,14,21,41,058,20,10,33,142,09*79
$GPGSV,3,2,12,20,16,041,23,37,27,150,,16,74,195,,18,42,098,*78
$GPGSV,3,3,12,08,26,284,,07,15,318,,30,02,337,,15,01,056,*71
$GPRMC,234515.000,A,4806.8800,N,00139.4147,W,4.59,292.59,050218,,,A*7C
$GPGGA,234516.000,4806.8796,N,00139.4150,W,1,04,2.3,46.0,M,48.3,M,,0000*70
$GPGSA,M,3,27,21,10,20,,,,,,,,,4.4,2.3,3.8*31
$GPRMC,234516.000,A,4806.8796,N,00139.4150,W,3.87,291.71,050218,,,A*74
arfcn: 983 bsic: 21 rxLev: -78 ber: 0.00 mcc: 208 mnc: 20 lac: 418 cellId: 21809 cellStatus: CELL_SUITABLE numArfcn: 1 arfcn: 983 numChannels: 24 array: 788 790 792 793 795 796 878 882 884 976 977 979 981 985 986 987 1012 1013 1014 1016 1017 1019 1020 1022 pbcch: 0 nom: 2 rac: 6 spgc: 0 pat: 6 nco: 0 t3168: 1500 t3192: 500 drxmax: 0 ctrlAck: 0 bsCVmax: 8 alpha: 6 pcMeasCh: 1 
arfcn: 41 rxLev: -79
arfcn: 30 rxLev: -79
arfcn: 31 rxLev: -79
arfcn: 29 rxLev: -79
arfcn: 38 rxLev: -79
arfcn: 42 rxLev: -79
arfcn: 44 rxLev: -79
$GPGGA,234517.000,4806.8793,N,00139.4156,W,1,04,2.3,45.1,M,48.3,M,,0000*70
$GPGSA,M,3,27,21,10,20,,,,,,,,,4.4,2.3,3.8*31
$GPRMC,234517.000,A,4806.8793,N,00139.4156,W,3.38,290.96,050218,,,A*7A
$GPGGA,234518.000,4806.8790,N,00139.4161,W,1,04,2.3,44.9,M,48.3,M,,0000*71
$GPGSA,M,3,27,21,10,20,,,,,,,,,4.4,2.3,3.8*31
$GPRMC,234518.000,A,4806.8790,N,00139.4161,W,3.16,289.60,050218,,,A*7F
arfcn: 80 bsic: 47 rxLev: -79 ber: 0.00 mcc: 208 mnc: 10 lac: 49415 cellId: 23568 cellStatus: CELL_FORBIDDEN numArfcn: 2 arfcn: 80 89 numChannels: 19 array: 76 77 78 80 82 83 84 85 113 114 115 116 117 118 119 120 122 123 124 pbcch: 0 nom: 2 rac: 31 spgc: 0 pat: 6 nco: 0 t3168: 1000 t3192: 500 drxmax: 4 ctrlAck: 1 bsCVmax: 9 alpha: 10 pcMeasCh: 0 
arfcn: 795 rxLev: -79
arfcn: 45 rxLev: -80
arfcn: 39 rxLev: -80
arfcn: 40 rxLev: -80
arfcn: 28 rxLev: -80
arfcn: 32 rxLev: -80
$GPGGA,234519.000,4806.8787,N,00139.4164,W,1,04,2.3,44.4,M,48.3,M,,0000*7E
arfcn: 13 rxLev: -80
$GPGSA,M,3,27,21,10,20,,,,,,,,,4.4,2.3,3.8*31
$GPRMC,234519.000,A,4806.8787,N,00139.4164,W,2.84,288.20,050218,,,A*72
$GPGGA,234520.000,4806.8788,N,00139.4176,W,0,00,,44.4,M,48.3,M,,0000*52
$GPGSA,M,1,,,,,,,,,,,,,,,*12
$GPGSV,3,1,12,10,33,142,08,20,16,041,23,21,41,058,20,26,44,163,04*7A
$GPGSV,3,2,12,27,65,300,17,37,27,150,,16,74,195,,18,42,098,*7A
$GPGSV,3,3,12,08,26,284,,07,15,318,,30,02,337,,15,01,056,*71
$GPRMC,234520.000,V,4806.8788,N,00139.4176,W,,,050218,,,N*62
arfcn: 5 bsic: 1 rxLev: -80 ber: 0.00 mcc: 208 mnc: 01 lac: 10300 cellId: 40079 cellStatus: CELL_FORBIDDEN numArfcn: 13 arfcn: 5 17 18 19 20 21 22 23 24 25 47 48 49 numChannels: 20 array: 1 2 3 4 5 8 9 10 11 13 14 15 16 512 513 518 604 606 608 610 pbcch: 0 nom: 2 rac: 1 spgc: 0 pat: 6 nco: 0 t3168: 1000 t3192: 500 drxmax: 2 ctrlAck: 0 bsCVmax: 9 alpha: 5 pcMeasCh: 1 
arfcn: 37 rxLev: -80
arfcn: 34 rxLev: -81
$GPGGA,234521.000,4806.8789,N,00139.4188,W,0,00,,44.5,M,48.3,M,,0000*52
arfcn: 3 rxLev: -81
$GPGSA,M,1,,,,,,,,,,,,,,,*12
$GPRMC,234521.000,V,4806.8789,N,00139.4188,W,,,050218,,,N*63
$GPGGA,234522.103,4806.8790,N,00139.4201,W,0,00,,44.5,M,48.3,M,,0000*59
$GPGSA,M,1,,,,,,,,,,,,,,,*12
$GPRMC,234522.103,V,4806.8790,N,00139.4201,W,,,050218,,,N*68
$GPGGA,234523.103,4806.8791,N,00139.4212,W,0,00,,44.5,M,48.3,M,,0000*5B
arfcn: 8 bsic: 48 rxLev: -81 ber: 0.00 mcc: 208 mnc: 01 lac: 10300 cellId: 6473 cellStatus: CELL_FORBIDDEN numArfcn: 13 arfcn: 8 17 18 19 20 21 22 23 24 25 47 48 49 numChannels: 18 array: 1 2 3 4 5 10 12 13 14 15 512 513 514 515 516 517 605 610 pbcch: 0 nom: 2 rac: 1 spgc: 0 pat: 6 nco: 0 t3168: 1000 t3192: 500 drxmax: 2 ctrlAck: 0 bsCVmax: 9 alpha: 5 pcMeasCh: 1 
arfcn: 33 rxLev: -81
$GPGSA,M,1,,,,,,,,,,,,,,,*12
arfcn: 11 rxLev: -81
$GPRMC,234523.103,V,4806.8791,N,00139.4212,W,,,050218,,,N*6A
arfcn: 797 rxLev: -81
arfcn: 802 rxLev: -81
arfcn: 27 rxLev: -82
arfcn: 35 rxLev: -82
arfcn: 36 rxLev: -82
$GPGGA,234524.103,4806.8792,N,00139.4224,W,0,00,,44.5,M,48.3,M,,0000*5A
$GPGSA,M,1,,,,,,,,,,,,,,,*12
$GPRMC,234524.103,V,4806.8792,N,00139.4224,W,,,050218,,,N*6B
$GPGGA,234525.103,4806.8793,N,00139.4236,W,0,00,,44.5,M,48.3,M,,0000*59
$GPGSA,M,1,,,,,,,,,,,,,,,*12
$GPGSV,3,1,12,10,33,142,06,20,16,041,23,21,41,058,19,26,44,163,04*7E
$GPGSV,3,2,12,27,65,300,17,37,27,150,,16,74,195,,18,42,098,*7A
$GPGSV,3,3,12,08,26,284,,07,15,318,,30,02,337,,15,01,056,*71
$GPRMC,234525.103,V,4806.8793,N,00139.4236,W,,,050218,,,N*68
arfcn: 78 bsic: 2 rxLev: -82 ber: 0.00 mcc: 208 mnc: 10 lac: 49415 cellId: 45280 cellStatus: CELL_FORBIDDEN numArfcn: 2 arfcn: 78 116 numChannels: 20 array: 76 77 78 79 80 82 83 84 85 86 114 115 116 117 118 120 121 122 123 124 pbcch: 0 nom: 2 rac: 31 spgc: 0 pat: 6 nco: 0 t3168: 1000 t3192: 500 drxmax: 4 ctrlAck: 1 bsCVmax: 9 alpha: 10 pcMeasCh: 0 
arfcn: 46 rxLev: -82
arfcn: 800 rxLev: -82
$GPGGA,234526.104,4806.8794,N,00139.4247,W,0,00,,44.5,M,48.3,M,,0000*5C
arfcn: 799 rxLev: -83
$GPGSA,M,1,,,,,,,,,,,,,,,*12
arfcn: 793 rxLev: -83
arfcn: 792 rxLev: -83
$GPRMC,234526.104,V,4806.8794,N,00139.4247,W,,,050218,,,N*6D
arfcn: 803 rxLev: -83
arfcn: 805 rxLev: -83
arfcn: 63 rxLev: -83
arfcn: 64 rxLev: -83
arfcn: 56 rxLev: -83
$GPGGA,234527.104,4806.8795,N,00139.4259,W,0,00,,44.5,M,48.3,M,,0000*53
$GPGSA,M,1,,,,,,,,,,,,,,,*12
$GPRMC,234527.104,V,4806.8795,N,00139.4259,W,,,050218,,,N*62
$GPGGA,234528.104,4806.8796,N,00139.4271,W,0,00,,44.5,M,48.3,M,,0000*55
$GPGSA,M,1,,,,,,,,,,,,,,,*12
$GPRMC,234528.104,V,4806.8796,N,00139.4271,W,,,050218,,,N*64
$GPGGA,234529.104,4806.8798,N,00139.4282,W,0,00,,44.5,M,48.3,M,,0000*56
$GPGSA,M,1,,,,,,,,,,,,,,,*12
$GPRMC,234529.104,V,4806.8798,N,00139.4282,W,,,050218,,,N*67
$GPGGA,234530.104,4806.8799,N,00139.4294,W,0,00,,44.5,M,48.3,M,,0000*58
$GPGSA,M,1,,,,,,,,,,,,,,,*12
$GPGSV,3,1,12,10,33,142,04,20,16,041,23,21,41,058,19,27,65,300,17*7B
arfcn: 1 bsic: 44 rxLev: -83 ber: 0.03 mcc: 208 mnc: 01 lac: 10300 cellId: 6468 cellStatus: CELL_FORBIDDEN numArfcn: 13 arfcn: 1 17 18 19 20 21 22 23 24 25 47 48 49 numChannels: 24 array: 2 4 5 6 7 8 9 10 11 12 15 512 513 514 515 516 517 518 605 606 607 608 609 610 pbcch: 0 nom: 2 rac: 1 spgc: 0 pat: 6 nco: 0 t3168: 1000 t3192: 500 drxmax: 2 ctrlAck: 0 bsCVmax: 9 alpha: 5 pcMeasCh: 1 
arfcn: 801 rxLev: -83
$GPGSV,3,2,12,37,27,150,,16,74,195,,26,44,163,,18,42,098,*79
arfcn: 796 rxLev: -83
$GPGSV,3,3,12,08,26,284,,07,15,318,,30,02,337,,15,01,056,*71
arfcn: 851 rxLev: -83
arfcn: 836 rxLev: -84
$GPRMC,234530.104,V,4806.8799,N,00139.4294,W,,,050218,,,N*69
arfcn: 794 rxLev: -84
arfcn: 807 rxLev: -84
arfcn: 809 rxLev: -84
arfcn: 57 rxLev: -84
$GPGGA,234531.104,4806.8800,N,00139.4306,W,0,00,,44.6,M,48.3,M,,0000*5F
arfcn: 58 rxLev: -84
$GPGSA,M,1,,,,,,,,,,,,,,,*12
arfcn: 68 rxLev: -84
$GPRMC,234531.104,V,4806.8800,N,00139.4306,W,,,050218,,,N*6D
arfcn: 811 rxLev: -84
arfcn: 813 rxLev: -84
arfcn: 815 rxLev: -84
arfcn: 798 rxLev: -84
arfcn: 819 rxLev: -84
arfcn: 822 rxLev: -85
arfcn: 826 rxLev: -85
arfcn: 850 rxLev: -85
arfcn: 814 rxLev: -85
$GPGGA,234532.104,4806.8801,N,00139.4317,W,0,00,,44.6,M,48.3,M,,0000*5D
arfcn: 812 rxLev: -85
$GPGSA,M,1,,,,,,,,,,,,,,,*12
arfcn: 810 rxLev: -85
$GPRMC,234532.104,V,4806.8801,N,00139.4317,W,,,050218,,,N*6F
arfcn: 816 rxLev: -85
arfcn: 808 rxLev: -85
arfcn: 804 rxLev: -85
arfcn: 827 rxLev: -85
arfcn: 824 rxLev: -85
arfcn: 817 rxLev: -85
arfcn: 818 rxLev: -85
arfcn: 67 rxLev: -85
arfcn: 62 rxLev: -85
$GPGGA,234533.104,4806.8802,N,00139.4329,W,0,00,,44.6,M,48.3,M,,0000*52
$GPGSA,M,1,,,,,,,,,,,,,,,*12
$GPRMC,234533.104,V,4806.8802,N,00139.4329,W,,,050218,,,N*60
$GPGGA,234534.103,,,,,0,00,,,M,0.0,M,,0000*53
$GPGSA,M,1,,,,,,,,,,,,,,,*12
$GPRMC,234534.103,V,,,,,,,050218,,,N*46
$GPGGA,234535.103,,,,,0,00,,,M,0.0,M,,0000*52
$GPGSA,M,1,,,,,,,,,,,,,,,*12
$GPGSV,3,1,12,10,33,142,07,16,74,195,05,20,16,041,22,21,41,058,17*78
$GPGSV,3,2,12,27,65,300,16,37,27,150,,26,44,163,,18,42,098,*72
$GPGSV,3,3,12,08,26,284,,07,15,318,,30,02,337,,15,01,056,*71
$GPRMC,234535.103,V,,,,,,,050218,,,N*47
$GPGGA,234536.104,,,,,0,00,,,M,0.0,M,,0000*56
$GPGSA,M,1,,,,,,,,,,,,,,,*12
$GPRMC,234536.104,V,,,,,,,050218,,,N*43
arfcn: 14 bsic: 35 rxLev: -85 ber: 0.00 mcc: 208 mnc: 01 lac: 10300 cellId: 39250 cellStatus: CELL_FORBIDDEN numArfcn: 13 arfcn: 14 17 18 19 20 21 22 23 24 25 47 48 49 numChannels: 14 array: 1 3 4 6 8 10 12 14 512 513 514 517 604 608 pbcch: 0 nom: 2 rac: 1 spgc: 1 pat: 6 nco: 0 t3168: 1000 t3192: 500 drxmax: 4 ctrlAck: 1 bsCVmax: 9 alpha: 7 pcMeasCh: 0 
$GPGGA,234537.103,,,,,0,00,,,M,0.0,M,,0000*50
$GPGSA,M,1,,,,,,,,,,,,,,,*12
$GPRMC,234537.103,V,,,,,,,050218,,,N*45
$GPGGA,234538.104,,,,,0,04,3.9,,M,0.0,M,,0000*78
$GPGSA,M,1,,,,,,,,,,,,,,,*12
$GPRMC,234538.104,V,,,,,,,050218,,,N*4D
$GPGGA,234539.104,,,,,0,04,3.9,,M,0.0,M,,0000*79
$GPGSA,M,1,,,,,,,,,,,,,,,*12
$GPRMC,234539.104,V,,,,,,,050218,,,N*4C
arfcn: 1020 bsic: 39 rxLev: -85 ber: 0.00 mcc: 208 mnc: 20 lac: 418 cellId: 38980 cellStatus: CELL_SUITABLE numArfcn: 1 arfcn: 1020 numChannels: 26 array: 787 788 790 791 793 795 796 879 884 885 978 979 981 982 983 985 986 987 1011 1012 1013 1014 1015 1017 1019 1022 pbcch: 0 nom: 2 rac: 6 spgc: 0 pat: 6 nco: 0 t3168: 1500 t3192: 500 drxmax: 0 ctrlAck: 0 bsCVmax: 8 alpha: 6 pcMeasCh: 1 
arfcn: 55 rxLev: -86
$GPGGA,234540.000,,,,,0,04,3.9,,M,0.0,M,,0000*72
arfcn: 823 rxLev: -86
$GPGSA,M,1,,,,,,,,,,,,,,,*12
arfcn: 854 rxLev: -86
arfcn: 806 rxLev: -86
$GPGSV,3,1,12,16,74,195,12,27,65,300,15,21,41,058,15,20,16,041,22*7C
arfcn: 791 rxLev: -86
arfcn: 855 rxLev: -86
$GPGSV,3,2,12,10,33,142,04,37,27,150,,26,44,163,,18,42,098,*72
arfcn: 821 rxLev: -86
$GPGSV,3,3,12,08,26,284,,07,15,318,,30,02,337,,15,01,056,*71
$GPRMC,234540.000,V,,,,,,,050218,,,N*47
arfcn: 825 rxLev: -86
arfcn: 829 rxLev: -86
arfcn: 834 rxLev: -86
$GPGGA,234541.000,,,,,0,04,3.9,,M,0.0,M,,0000*73
$GPGSA,M,1,,,,,,,,,,,,,,,*12
$GPRMC,234541.000,V,,,,,,,050218,,,N*46
$GPGGA,234542.000,,,,,0,04,3.9,,M,0.0,M,,0000*70
$GPGSA,M,1,,,,,,,,,,,,,,,*12
$GPRMC,234542.000,V,,,,,,,050218,,,N*45
$GPGGA,234543.000,4806.8831,N,00139.4384,W,1,04,3.9,39.5,M,48.3,M,,0000*7F
arfcn: 4 bsic: 54 rxLev: -86 ber: 0.01 mcc: 208 mnc: 01 lac: 10300 cellId: 43768 cellStatus: CELL_FORBIDDEN numArfcn: 13 arfcn: 4 17 18 19 20 21 22 23 24 25 47 48 49 numChannels: 20 array: 1 3 5 6 7 8 12 13 14 513 514 515 517 518 601 605 606 608 609 610 pbcch: 0 nom: 2 rac: 1 spgc: 0 pat: 6 nco: 0 t3168: 1000 t3192: 500 drxmax: 2 ctrlAck: 0 bsCVmax: 9 alpha: 5 pcMeasCh: 1 
arfcn: 69 rxLev: -86
$GPGSA,M,3,16,27,21,20,,,,,,,,,6.8,3.9,5.6*3A
$GPRMC,234543.000,A,4806.8831,N,00139.4384,W,1.31,300.15,050218,,,A*79
$GPGGA,234544.000,4806.8817,N,00139.4395,W,1,04,3.9,38.7,M,48.3,M,,0000*7F
$GPGSA,M,3,16,27,21,20,,,,,,,,,6.8,3.9,5.6*3A
$GPRMC,234544.000,A,4806.8817,N,00139.4395,W,0.94,300.15,050218,,,A*74
arfcn: 604 bsic: 20 rxLev: -86 ber: 1.07 mcc: 208 mnc: 01 lac: 10300 cellId: 39915 cellStatus: CELL_FORBIDDEN numArfcn: 16 arfcn: 519 520 521 522 523 524 525 526 596 597 598 599 600 601 602 603 numChannels: 13 array: 5 6 10 15 16 512 514 516 517 518 608 609 610 pbcch: 0 nom: 2 rac: 1 spgc: 0 pat: 6 nco: 0 t3168: 1000 t3192: 500 drxmax: 2 ctrlAck: 0 bsCVmax: 9 alpha: 5 pcMeasCh: 1 
$GPGGA,234545.000,4806.8799,N,00139.4398,W,1,05,1.9,38.0,M,48.3,M,,0000*7E
$GPGSA,M,3,16,27,21,10,20,,,,,,,,3.0,1.9,2.3*36
$GPGSV,3,1,12,16,74,195,10,27,65,300,15,21,41,058,14,10,33,142,12*7A
$GPGSV,3,2,12,20,16,041,23,39,31,144,,26,44,163,,18,42,098,*7D
$GPGSV,3,3,12,08,26,284,,07,15,318,,30,02,337,,15,01,056,*71
$GPRMC,234545.000,A,4806.8799,N,00139.4398,W,1.03,300.15,050218,,,A*7E
$GPGGA,234546.000,4806.8779,N,00139.4403,W,1,05,1.9,36.7,M,48.3,M,,0000*7F
$GPGSA,M,3,16,27,21,10,20,,,,,,,,3.0,1.9,2.3*36
$GPRMC,234546.000,A,4806.8779,N,00139.4403,W,1.29,277.19,050218,,,A*73
$GPGGA,234547.000,4806.8762,N,00139.4416,W,1,05,1.9,35.2,M,48.3,M,,0000*76
$GPGSA,M,3,16,27,21,10,20,,,,,,,,3.0,1.9,2.3*36
$GPRMC,234547.000,A,4806.8762,N,00139.4416,W,1.92,250.16,050218,,,A*76
arfcn: 606 bsic: 57 rxLev: -86 ber: 2.07 mcc: 208 mnc: 01 lac: 10301 cellId: 27485 cellStatus: CELL_FORBIDDEN numArfcn: 16 arfcn: 519 520 521 522 523 524 525 526 596 597 598 599 600 601 602 603 numChannels: 15 array: 3 4 6 10 12 512 513 514 515 516 517 604 605 608 609 pbcch: 0 nom: 2 rac: 1 spgc: 0 pat: 6 nco: 0 t3168: 1000 t3192: 500 drxmax: 2 ctrlAck: 0 bsCVmax: 9 alpha: 5 pcMeasCh: 1 
arfcn: 26 rxLev: -87
arfcn: 844 rxLev: -87
arfcn: 831 rxLev: -87
arfcn: 820 rxLev: -87
$GPGGA,234548.000,4806.8750,N,00139.4428,W,1,05,1.9,34.1,M,48.3,M,,0000*77
arfcn: 852 rxLev: -87
arfcn: 849 rxLev: -87
$GPGSA,M,3,16,27,21,10,20,,,,,,,,3.0,1.9,2.3*36
arfcn: 853 rxLev: -87
arfcn: 832 rxLev: -87
$GPRMC,234548.000,A,4806.8750,N,00139.4428,W,2.11,232.09,050218,,,A*77
arfcn: 828 rxLev: -87
arfcn: 842 rxLev: -87
arfcn: 838 rxLev: -87
arfcn: 65 rxLev: -87
arfcn: 61 rxLev: -87
$GPGGA,234549.000,4806.8740,N,00139.4428,W,1,04,2.4,33.9,M,48.3,M,,0000*77
$GPGSA,M,3,16,27,10,20,,,,,,,,,3.9,2.4,3.0*30
$GPRMC,234549.000,A,4806.8740,N,00139.4428,W,2.13,219.51,050218,,,A*71
$GPGGA,234550.000,4806.8733,N,00139.4428,W,1,04,2.4,33.7,M,48.3,M,,0000*75
$GPGSA,M,3,16,27,10,20,,,,,,,,,3.9,2.4,3.0*30
$GPGSV,3,1,12,16,74,195,12,27,65,300,15,10,33,142,13,20,16,041,23*76
$GPGSV,3,2,12,21,41,058,04,39,31,144,,26,44,163,,18,42,098,*73
$GPGSV,3,3,12,08,26,284,,07,15,318,,30,02,337,,15,01,056,*71
$GPRMC,234550.000,A,4806.8733,N,00139.4428,W,2.13,210.40,050218,,,A*74
$GPGGA,234551.000,4806.8724,N,00139.4424,W,1,04,2.4,33.5,M,48.3,M,,0000*7C
$GPGSA,M,3,16,27,10,20,,,,,,,,,3.9,2.4,3.0*30
$GPRMC,234551.000,A,4806.8724,N,00139.4424,W,2.27,201.18,050218,,,A*75
$GPGGA,234552.000,4806.8724,N,00139.4435,W,1,04,2.4,33.7,M,48.3,M,,0000*7D
$GPGSA,M,3,16,27,10,20,,,,,,,,,3.9,2.4,3.0*30
$GPRMC,234552.000,A,4806.8724,N,00139.4435,W,1.21,198.34,050218,,,A*7E
$GPGGA,234553.000,4806.8721,N,00139.4432,W,0,00,,33.6,M,48.3,M,,0000*52
$GPGSA,M,1,,,,,,,,,,,,,,,*12
$GPRMC,234553.000,V,4806.8721,N,00139.4432,W,,,050218,,,N*60
$GPGGA,234554.000,4806.8718,N,00139.4430,W,0,00,,33.5,M,48.3,M,,0000*5E
arfcn: 978 bsic: 19 rxLev: -88 ber: 0.02 mcc: 208 mnc: 20 lac: 418 cellId: 18480 cellStatus: CELL_SUITABLE numArfcn: 2 arfcn: 978 1023 numChannels: 24 array: 788 790 794 880 883 975 976 977 979 980 981 982 983 985 986 1011 1012 1014 1016 1017 1018 1019 1020 1021 pbcch: 0 nom: 2 rac: 6 spgc: 0 pat: 6 nco: 0 t3168: 1500 t3192: 500 drxmax: 4 ctrlAck: 1 bsCVmax: 8 alpha: 6 pcMeasCh: 1 
$GPGSA,M,1,,,,,,,,,,,,,,,*12
$GPRMC,234554.000,V,4806.8718,N,00139.4430,W,,,050218,,,N*6F
$GPGGA,234555.104,4806.8715,N,00139.4427,W,0,00,,33.3,M,48.3,M,,0000*57
$GPGSA,M,1,,,,,,,,,,,,,,,*12
$GPGSV,3,1,12,10,33,142,14,16,74,195,12,20,16,041,23,21,41,058,07*7C
$GPGSV,3,2,12,26,44,163,14,27,65,300,05,39,31,144,,18,42,098,*79
$GPGSV,3,3,12,08,26,284,,07,15,318,,30,02,337,,15,01,056,*71
$GPRMC,234555.104,V,4806.8715,N,00139.4427,W,,,050218,,,N*60
arfcn: 122 bsic: 3 rxLev: -88 ber: 0.00 mcc: 208 mnc: 10 lac: 49415 cellId: 33517 cellStatus: CELL_FORBIDDEN numArfcn: 3 arfcn: 77 88 122 numChannels: 17 array: 77 78 79 80 82 84 85 86 114 115 117 118 119 120 122 123 124 pbcch: 0 nom: 2 rac: 31 spgc: 0 pat: 6 nco: 0 t3168: 1000 t3192: 500 drxmax: 4 ctrlAck: 1 bsCVmax: 9 alpha: 10 pcMeasCh: 0 
$GPGGA,234556.104,4806.8717,N,00139.4433,W,1,04,3.3,33.4,M,48.3,M,,0000*7F
$GPGSA,M,3,16,26,10,20,,,,,,,,,4.5,3.3,3.1*3D
$GPRMC,234556.104,A,4806.8717,N,00139.4433,W,1.66,191.27,050218,,,A*71
$GPGGA,234557.104,4806.8716,N,00139.4441,W,1,04,3.3,33.1,M,48.3,M,,0000*7F
$GPGSA,M,3,16,26,10,20,,,,,,,,,4.5,3.3,3.1*3D
$GPRMC,234557.104,A,4806.8716,N,00139.4441,W,2.09,191.37,050218,,,A*7F
arfcn: 512 bsic: 25 rxLev: -88 ber: 0.03 mcc: 208 mnc: 01 lac: 10300 cellId: 40155 cellStatus: CELL_FORBIDDEN numArfcn: 16 arfcn: 519 520 521 522 523 524 525 526 596 597 598 599 600 601 602 603 numChannels: 16 array: 2 3 5 8 10 11 12 15 16 517 518 604 605 606 609 610 pbcch: 0 nom: 2 rac: 1 spgc: 0 pat: 6 nco: 0 t3168: 1000 t3192: 500 drxmax: 2 ctrlAck: 0 bsCVmax: 9 alpha: 5 pcMeasCh: 1 
arfcn: 837 rxLev: -88
arfcn: 839 rxLev: -88
arfcn: 833 rxLev: -88
arfcn: 835 rxLev: -88
arfcn: 848 rxLev: -88
$GPGGA,234558.000,4806.8714,N,00139.4437,W,1,04,3.3,32.7,M,48.3,M,,0000*71
arfcn: 830 rxLev: -88
$GPGSA,M,3,16,26,10,20,,,,,,,,,4.5,3.3,3.1*3D
arfcn: 856 rxLev: -88
arfcn: 875 rxLev: -88
$GPRMC,234558.000,A,4806.8714,N,00139.4437,W,1.99,189.85,050218,,,A*7C
arfcn: 858 rxLev: -88
arfcn: 846 rxLev: -88
arfcn: 841 rxLev: -88
arfcn: 843 rxLev: -88
arfcn: 840 rxLev: -88
$GPGGA,234559.000,4806.8717,N,00139.4441,W,1,04,3.3,33.0,M,48.3,M,,0000*74
$GPGSA,M,3,16,26,10,20,,,,,,,,,4.5,3.3,3.1*3D
$GPRMC,234559.000,A,4806.8717,N,00139.4441,W,2.07,189.40,050218,,,A*72
$GPGGA,234600.000,4806.8722,N,00139.4440,W,1,04,3.3,33.0,M,48.3,M,,0000*7C
$GPGSA,M,3,16,26,10,20,,,,,,,,,4.5,3.3,3.1*3D
$GPGSV,3,1,12,16,74,195,12,26,44,163,16,10,33,142,15,20,16,041,23*76
$GPGSV,3,2,12,21,41,058,07,27,65,300,04,39,31,144,,18,42,098,*71
$GPGSV,3,3,12,08,26,284,,07,15,318,,30,02,337,,15,01,056,*71
$GPRMC,234600.000,A,4806.8722,N,00139.4440,W,1.66,188.41,050218,,,A*7E
$GPGGA,234601.000,4806.8730,N,00139.4443,W,1,04,3.3,33.0,M,48.3,M,,0000*7D
$GPGSA,M,3,16,26,10,20,,,,,,,,,4.5,3.3,3.1*3D
$GPRMC,234601.000,A,4806.8730,N,00139.4443,W,1.12,188.41,050218,,,A*7C
arfcn: 1017 bsic: 33 rxLev: -88 ber: 2.02 mcc: 208 mnc: 20 lac: 418 cellId: 20104 cellStatus: CELL_SUITABLE numArfcn: 3 arfcn: 986 987 1017 numChannels: 20 array: 788 790 885 975 976 978 979 980 981 982 986 987 1011 1012 1015 1017 1019 1020 1021 1022 pbcch: 0 nom: 2 rac: 7 spgc: 0 pat: 6 nco: 0 t3168: 1500 t3192: 500 drxmax: 4 ctrlAck: 1 bsCVmax: 8 alpha: 6 pcMeasCh: 1 
$GPGGA,234602.000,4806.8736,N,00139.4445,W,1,04,3.3,33.2,M,48.3,M,,0000*7C
$GPGSA,M,3,16,26,10,20,,,,,,,,,4.5,3.3,3.1*3D
$GPRMC,234602.000,A,4806.8736,N,00139.4445,W,1.09,188.41,050218,,,A*75
$GPGGA,234603.000,4806.8741,N,00139.4438,W,1,04,3.3,33.4,M,48.3,M,,0000*71
$GPGSA,M,3,16,26,10,20,,,,,,,,,4.5,3.3,3.1*3D
$GPRMC,234603.000,A,4806.8741,N,00139.4438,W,0.96,188.41,050218,,,A*79
arfcn: 117 bsic: 12 rxLev: -88 ber: 0.00 mcc: 208 mnc: 10 lac: 49415 cellId: 3568 cellStatus: CELL_FORBIDDEN numArfcn: 2 arfcn: 82 117 numChannels: 17 array: 76 77 78 79 80 83 84 85 87 113 114 116 117 120 122 123 124 pbcch: 0 nom: 2 rac: 31 spgc: 0 pat: 6 nco: 0 t3168: 1000 t3192: 500 drxmax: 4 ctrlAck: 1 bsCVmax: 9 alpha: 10 pcMeasCh: 0 
arfcn: 66 rxLev: -88
arfcn: 59 rxLev: -88
arfcn: 53 rxLev: -88
arfcn: 54 rxLev: -89
$GPGGA,234604.000,4806.8748,N,00139.4431,W,1,04,3.3,33.6,M,48.3,M,,0000*74
arfcn: 124 rxLev: -89
$GPGSA,M,3,16,26,10,20,,,,,,,,,4.5,3.3,3.1*3D
arfcn: 859 rxLev: -89
arfcn: 860 rxLev: -89
$GPRMC,234604.000,A,4806.8748,N,00139.4431,W,1.00,188.41,050218,,,A*70
arfcn: 861 rxLev: -89
arfcn: 862 rxLev: -89
arfcn: 863 rxLev: -89
arfcn: 873 rxLev: -89
arfcn: 865 rxLev: -89
arfcn: 868 rxLev: -89
arfcn: 872 rxLev: -89
arfcn: 845 rxLev: -89
arfcn: 52 rxLev: -89
$GPGGA,234605.000,4806.8757,N,00139.4431,W,1,05,2.6,32.9,M,48.3,M,,0000*70
arfcn: 60 rxLev: -89
$GPGSA,M,3,16,26,21,10,20,,,,,,,,3.6,2.6,2.4*3A
arfcn: 47 rxLev: -90
arfcn: 70 rxLev: -90
$GPGSV,3,1,12,16,74,195,10,26,44,163,17,21,41,058,08,10,33,142,16*74
$GPGSV,3,2,12,20,16,041,23,27,65,300,06,39,31,144,,18,42,098,*7E
$GPGSV,3,3,12,08,26,284,,07,15,318,,30,02,337,,15,01,056,*71
$GPRMC,234605.000,A,4806.8757,N,00139.4431,W,1.25,171.20,050218,,,A*79
$GPGGA,234606.000,4806.8761,N,00139.4439,W,1,05,2.6,31.4,M,48.3,M,,0000*70
$GPGSA,M,3,16,26,21,10,20,,,,,,,,3.6,2.6,2.4*3A
$GPRMC,234606.000,A,4806.8761,N,00139.4439,W,0.75,171.20,050218,,,A*73
$GPGGA,234607.000,4806.8765,N,00139.4438,W,1,04,3.3,31.7,M,48.3,M,,0000*72
$GPGSA,M,3,16,26,10,20,,,,,,,,,4.5,3.3,3.1*3D
$GPRMC,234607.000,A,4806.8765,N,00139.4438,W,0.28,171.20,050218,,,A*7F
arfcn: 76 bsic: 5 rxLev: -90 ber: 0.05 mcc: 208 mnc: 10 lac: 49415 cellId: 44813 cellStatus: CELL_FORBIDDEN numArfcn: 2 arfcn: 76 121 numChannels: 16 array: 76 77 78 79 80 82 84 85 86 113 114 117 118 121 123 124 pbcch: 0 nom: 2 rac: 31 spgc: 0 pat: 6 nco: 0 t3168: 1000 t3192: 500 drxmax: 4 ctrlAck: 1 bsCVmax: 9 alpha: 10 pcMeasCh: 0 
arfcn: 871 rxLev: -90
arfcn: 867 rxLev: -90
arfcn: 864 rxLev: -90
arfcn: 857 rxLev: -90
arfcn: 866 rxLev: -90
arfcn: 869 rxLev: -90
arfcn: 870 rxLev: -90
arfcn: 874 rxLev: -90
$GPGGA,234608.000,4806.8769,N,00139.4441,W,1,04,3.3,32.2,M,48.3,M,,0000*79
arfcn: 877 rxLev: -90
$GPGSA,M,3,16,26,10,20,,,,,,,,,4.5,3.3,3.1*3D
arfcn: 879 rxLev: -90
$GPRMC,234608.000,A,4806.8769,N,00139.4441,W,0.22,171.20,050218,,,A*78
arfcn: 847 rxLev: -90
arfcn: 71 rxLev: -90
arfcn: 99 rxLev: -90
arfcn: 98 rxLev: -91
arfcn: 979 rxLev: -91
arfcn: 93 rxLev: -91
arfcn: 94 rxLev: -91
arfcn: 9 rxLev: -91
arfcn: 876 rxLev: -91
$GPGGA,234609.000,4806.8772,N,00139.4438,W,1,04,3.3,32.2,M,48.3,M,,0000*7C
arfcn: 758 rxLev: -91
$GPGSA,M,3,16,26,10,20,,,,,,,,,4.5,3.3,3.1*3D
arfcn: 759 rxLev: -91
arfcn: 760 rxLev: -91
$GPRMC,234609.000,A,4806.8772,N,00139.4438,W,0.26,171.20,050218,,,A*79
arfcn: 768 rxLev: -91
arfcn: 776 rxLev: -91
arfcn: 777 rxLev: -91
arfcn: 778 rxLev: -91
arfcn: 779 rxLev: -91
arfcn: 880 rxLev: -91
arfcn: 878 rxLev: -91
arfcn: 84 rxLev: -91
$GPGGA,234610.000,4806.8774,N,00139.4435,W,1,04,3.3,32.1,M,48.3,M,,0000*7C
arfcn: 72 rxLev: -91
$GPGSA,M,3,16,26,10,20,,,,,,,,,4.5,3.3,3.1*3D
arfcn: 1014 rxLev: -91
$GPGSV,3,1,12,16,74,195,11,26,44,163,16,10,33,142,17,20,16,041,22*76
arfcn: 514 rxLev: -92
arfcn: 97 rxLev: -92
$GPGSV,3,2,12,21,41,058,08,27,65,300,04,39,31,144,,18,42,098,*7E
$GPGSV,3,3,12,08,26,284,,07,15,318,,30,02,337,,15,01,056,*71
$GPRMC,234610.000,A,4806.8774,N,00139.4435,W,0.52,171.20,050218,,,A*79
$GPGGA,234611.000,4806.8778,N,00139.4438,W,1,05,2.6,31.3,M,48.3,M,,0000*78
$GPGSA,M,3,16,26,21,10,20,,,,,,,,3.6,2.6,2.4*3A
$GPRMC,234611.000,A,4806.8778,N,00139.4438,W,0.52,171.20,050218,,,A*79
$GPGGA,234612.000,4806.8783,N,00139.4437,W,1,05,2.6,30.5,M,48.3,M,,0000*77
$GPGSA,M,3,16,26,21,10,20,,,,,,,,3.6,2.6,2.4*3A
$GPRMC,234612.000,A,4806.8783,N,00139.4437,W,0.87,171.20,050218,,,A*79
$GPGGA,234613.000,4806.8793,N,00139.4453,W,1,05,2.6,29.9,M,48.3,M,,0000*71
$GPGSA,M,3,16,26,21,10,20,,,,,,,,3.6,2.6,2.4*3A
$GPRMC,234613.000,A,4806.8793,N,00139.4453,W,0.65,171.20,050218,,,A*77
$GPGGA,234614.000,4806.8797,N,00139.4484,W,1,05,2.6,27.3,M,48.3,M,,0000*7C
$GPGSA,M,3,16,26,21,10,20,,,,,,,,3.6,2.6,2.4*3A
$GPRMC,234614.000,A,4806.8797,N,00139.4484,W,1.39,198.89,050218,,,A*72
$GPGGA,234615.000,4806.8796,N,00139.4486,W,1,05,2.6,26.6,M,48.3,M,,0000*7A
$GPGSA,M,3,16,26,21,10,20,,,,,,,,3.6,2.6,2.4*3A
$GPGSV,3,1,12,16,74,195,11,26,44,163,16,21,41,058,10,10,33,142,17*7C
$GPGSV,3,2,12,20,16,041,22,33,33,198,,27,65,300,,18,42,098,*70
$GPGSV,3,3,12,08,26,284,,07,15,318,,30,02,337,,15,01,056,*71
$GPRMC,234615.000,A,4806.8796,N,00139.4486,W,1.09,198.89,050218,,,A*73
arfcn: 123 bsic: 1 rxLev: -92 ber: 8.10 mcc: 208 mnc: 10 lac: 49415 cellId: 41634 cellStatus: CELL_FORBIDDEN numArfcn: 2 arfcn: 87 123 numChannels: 0 array: pbcch: 0 nom: 2 rac: 31 spgc: 0 pat: 6 nco: 0 t3168: 1000 t3192: 500 drxmax: 4 ctrlAck: 1 bsCVmax: 9 alpha: 10 pcMeasCh: 0 
arfcn: 101 rxLev: -92
$GPGGA,234616.000,4806.8799,N,00139.4486,W,1,05,2.6,26.3,M,48.3,M,,0000*73
$GPGSA,M,3,16,26,21,10,20,,,,,,,,3.6,2.6,2.4*3A
$GPRMC,234616.000,A,4806.8799,N,00139.4486,W,0.81,198.89,050218,,,A*7E
$GPGGA,234617.000,4806.8806,N,00139.4492,W,1,05,2.6,27.1,M,48.3,M,,0000*7D
$GPGSA,M,3,16,26,21,10,20,,,,,,,,3.6,2.6,2.4*3A
$GPRMC,234617.000,A,4806.8806,N,00139.4492,W,1.50,223.16,050218,,,A*7B
arfcn: 114 bsic: 6 rxLev: -92 ber: 0.00 mcc: 208 mnc: 10 lac: 49415 cellId: 44202 cellStatus: CELL_FORBIDDEN numArfcn: 2 arfcn: 80 114 numChannels: 20 array: 76 77 78 79 80 84 85 86 113 114 115 116 117 118 119 120 121 122 123 124 pbcch: 0 nom: 2 rac: 31 spgc: 0 pat: 6 nco: 0 t3168: 1000 t3192: 500 drxmax: 4 ctrlAck: 1 bsCVmax: 9 alpha: 10 pcMeasCh: 0 
arfcn: 2 rxLev: -92
$GPGGA,234618.000,4806.8813,N,00139.4493,W,1,05,2.6,28.2,M,48.3,M,,0000*7B
arfcn: 767 rxLev: -92
arfcn: 769 rxLev: -92
$GPGSA,M,3,16,26,21,10,20,,,,,,,,3.6,2.6,2.4*3A
arfcn: 766 rxLev: -92
arfcn: 757 rxLev: -92
$GPRMC,234618.000,A,4806.8813,N,00139.4493,W,1.98,250.07,050218,,,A*71
arfcn: 756 rxLev: -92
arfcn: 751 rxLev: -92
arfcn: 749 rxLev: -92
arfcn: 750 rxLev: -92
arfcn: 6 rxLev: -92
arfcn: 100 rxLev: -92
arfcn: 102 rxLev: -92
$GPGGA,234619.000,4806.8818,N,00139.4493,W,1,05,2.6,28.8,M,48.3,M,,0000*7B
arfcn: 103 rxLev: -92
$GPGSA,M,3,16,26,21,10,20,,,,,,,,3.6,2.6,2.4*3A
arfcn: 96 rxLev: -92
arfcn: 92 rxLev: -92
$GPRMC,234619.000,A,4806.8818,N,00139.4493,W,1.79,264.53,050218,,,A*72
arfcn: 86 rxLev: -92
arfcn: 516 rxLev: -92
$GPGGA,234620.000,4806.8819,N,00139.4481,W,1,05,2.6,30.3,M,48.3,M,,0000*71
$GPGSA,M,3,16,26,21,10,20,,,,,,,,3.6,2.6,2.4*3A
$GPGSV,3,1,12,16,74,195,09,26,44,163,16,21,41,058,09,10,33,142,16*7C
$GPGSV,3,2,12,20,16,041,23,27,65,300,15,33,33,198,,18,42,098,*75
$GPGSV,3,3,12,08,26,284,,07,15,318,,30,02,337,,15,01,056,*71
$GPRMC,234620.000,A,4806.8819,N,00139.4481,W,1.05,264.53,050218,,,A*71
$GPGGA,234621.000,4806.8823,N,00139.4476,W,1,06,2.2,31.7,M,48.3,M,,0000*73
$GPGSA,M,3,16,27,26,21,10,20,,,,,,,4.1,2.2,3.4*3A
$GPRMC,234621.000,A,4806.8823,N,00139.4476,W,0.71,264.53,050218,,,A*73
$GPGGA,234622.000,4806.8826,N,00139.4460,W,1,06,2.2,34.4,M,48.3,M,,0000*74
arfcn: 1019 bsic: 48 rxLev: -92 ber: 4.06 mcc: 208 mnc: 20 lac: 418 cellId: 20015 cellStatus: CELL_SUITABLE numArfcn: 2 arfcn: 1010 1019 numChannels: 20 array: 787 789 794 882 976 979 981 982 983 985 986 987 1012 1013 1015 1016 1017 1020 1021 1022 pbcch: 0 nom: 2 rac: 6 spgc: 0 pat: 6 nco: 0 t3168: 1500 t3192: 500 drxmax: 0 ctrlAck: 0 bsCVmax: 8 alpha: 4 pcMeasCh: 1 
$GPGSA,M,3,16,27,26,21,10,20,,,,,,,4.1,2.2,3.4*3A
arfcn: 95 rxLev: -93
arfcn: 105 rxLev: -93
$GPRMC,234622.000,A,4806.8826,N,00139.4460,W,0.26,264.53,050218,,,A*70
arfcn: 107 rxLev: -93
arfcn: 748 rxLev: -93
arfcn: 724 rxLev: -93
arfcn: 765 rxLev: -93
arfcn: 761 rxLev: -93
arfcn: 774 rxLev: -93
arfcn: 775 rxLev: -93
$GPGGA,234623.000,4806.8826,N,00139.4453,W,1,06,2.2,35.6,M,48.3,M,,0000*76
arfcn: 770 rxLev: -93
arfcn: 762 rxLev: -93
$GPGSA,M,3,16,27,26,21,10,20,,,,,,,4.1,2.2,3.4*3A
arfcn: 725 rxLev: -93
arfcn: 722 rxLev: -93
$GPRMC,234623.000,A,4806.8826,N,00139.4453,W,0.40,264.53,050218,,,A*71
arfcn: 729 rxLev: -93
arfcn: 734 rxLev: -93
arfcn: 740 rxLev: -93
arfcn: 742 rxLev: -93
arfcn: 106 rxLev: -93
arfcn: 25 rxLev: -93
arfcn: 115 rxLev: -94
arfcn: 120 rxLev: -94
$GPGGA,234624.000,4806.8828,N,00139.4455,W,1,06,2.2,35.9,M,48.3,M,,0000*76
arfcn: 79 rxLev: -94
$GPGSA,M,3,16,27,26,21,10,20,,,,,,,4.1,2.2,3.4*3A
arfcn: 741 rxLev: -94
arfcn: 747 rxLev: -94
$GPRMC,234624.000,A,4806.8828,N,00139.4455,W,0.36,264.53,050218,,,A*7F
arfcn: 732 rxLev: -94
arfcn: 730 rxLev: -94
arfcn: 726 rxLev: -94
arfcn: 723 rxLev: -94
arfcn: 715 rxLev: -94
arfcn: 717 rxLev: -94
arfcn: 752 rxLev: -94
arfcn: 755 rxLev: -94
$GPGGA,234625.000,4806.8829,N,00139.4463,W,1,06,2.2,34.3,M,48.3,M,,0000*78
arfcn: 773 rxLev: -94
$GPGSA,M,3,16,27,26,21,10,20,,,,,,,4.1,2.2,3.4*3A
arfcn: 771 rxLev: -94
arfcn: 772 rxLev: -94
$GPGSV,3,1,12,16,74,195,09,27,65,300,14,26,44,163,15,21,41,058,09*7E
arfcn: 780 rxLev: -94
$GPGSV,3,2,12,10,33,142,14,20,16,041,22,33,33,198,,18,42,098,*76
arfcn: 753 rxLev: -94
arfcn: 763 rxLev: -94
$GPGSV,3,3,12,08,26,284,,07,15,318,,30,02,337,,15,01,056,*71
arfcn: 764 rxLev: -94
arfcn: 716 rxLev: -94
$GPRMC,234625.000,A,4806.8829,N,00139.4463,W,0.01,264.53,050218,,,A*7E
arfcn: 721 rxLev: -94
arfcn: 731 rxLev: -94
arfcn: 733 rxLev: -94
$GPGGA,234626.000,4806.8831,N,00139.4465,W,1,06,2.2,33.8,M,48.3,M,,0000*78
arfcn: 739 rxLev: -94
$GPGSA,M,3,16,27,26,21,10,20,,,,,,,4.1,2.2,3.4*3A
arfcn: 881 rxLev: -94
arfcn: 91 rxLev: -94
$GPRMC,234626.000,A,4806.8831,N,00139.4465,W,0.09,264.53,050218,,,A*7A
arfcn: 108 rxLev: -94
arfcn: 104 rxLev: -94
arfcn: 7 rxLev: -94
arfcn: 15 rxLev: -94
arfcn: 109 rxLev: -95
arfcn: 513 rxLev: -95
arfcn: 1021 rxLev: -95
$GPGGA,234627.000,4806.8834,N,00139.4461,W,1,06,2.2,34.2,M,48.3,M,,0000*75
arfcn: 608 rxLev: -95
$GPGSA,M,3,16,27,26,21,10,20,,,,,,,4.1,2.2,3.4*3A
arfcn: 735 rxLev: -95
$GPRMC,234627.000,A,4806.8834,N,00139.4461,W,0.25,264.53,050218,,,A*74
arfcn: 743 rxLev: -95
arfcn: 727 rxLev: -95
arfcn: 781 rxLev: -95
arfcn: 782 rxLev: -95
arfcn: 728 rxLev: -95
arfcn: 720 rxLev: -95
arfcn: 744 rxLev: -95
arfcn: 746 rxLev: -95
$GPGGA,234628.000,4806.8838,N,00139.4456,W,1,05,2.0,34.7,M,48.3,M,,0000*76
arfcn: 718 rxLev: -95
arfcn: 90 rxLev: -95
$GPGSA,M,3,16,27,26,21,20,,,,,,,,3.1,2.0,2.4*3F
arfcn: 81 rxLev: -95
arfcn: 73 rxLev: -96
$GPRMC,234628.000,A,4806.8838,N,00139.4456,W,0.57,264.53,050218,,,A*76
arfcn: 736 rxLev: -96
arfcn: 738 rxLev: -96
arfcn: 719 rxLev: -96
arfcn: 754 rxLev: -96
arfcn: 737 rxLev: -96
arfcn: 745 rxLev: -96
arfcn: 682 rxLev: -96
arfcn: 77 rxLev: -96
$GPGGA,234629.000,4806.8849,N,00139.4457,W,1,05,2.0,35.1,M,48.3,M,,0000*77
arfcn: 83 rxLev: -96
$GPGSA,M,3,16,27,26,21,20,,,,,,,,3.1,2.0,2.4*3F
arfcn: 976 rxLev: -97
$GPRMC,234629.000,A,4806.8849,N,00139.4457,W,1.54,293.04,050218,,,A*78
arfcn: 977 rxLev: -97
arfcn: 75 rxLev: -97
arfcn: 609 rxLev: -97
$GPGGA,234630.000,4806.8854,N,00139.4451,W,1,06,2.2,35.1,M,48.3,M,,0000*74
$GPGSA,M,3,16,27,26,21,10,20,,,,,,,4.1,2.2,3.4*3A
$GPGSV,3,1,12,16,74,195,09,27,65,300,14,26,44,163,14,21,41,058,10*77
$GPGSV,3,2,12,10,33,142,14,20,16,041,22,33,33,198,,18,42,098,*76
$GPGSV,3,3,12,08,26,284,,07,15,318,,30,02,337,,15,01,056,*71
$GPRMC,234630.000,A,4806.8854,N,00139.4451,W,1.53,314.84,050218,,,A*7B
$GPGGA,234631.000,4806.8858,N,00139.4450,W,1,06,2.2,34.9,M,48.3,M,,0000*71
$GPGSA,M,3,16,27,26,21,10,20,,,,,,,4.1,2.2,3.4*3A
$GPRMC,234631.000,A,4806.8858,N,00139.4450,W,1.22,322.42,050218,,,A*7E
$GPGGA,234632.000,4806.8861,N,00139.4454,W,1,06,2.2,34.3,M,48.3,M,,0000*76
$GPGSA,M,3,16,27,26,21,10,20,,,,,,,4.1,2.2,3.4*3A
$GPRMC,234632.000,A,4806.8861,N,00139.4454,W,1.09,322.42,050218,,,A*7A
arfcn: 1016 bsic: 41 rxLev: -97 ber: 0.00 mcc: 208 mnc: 20 lac: 418 cellId: 23623 cellStatus: CELL_SUITABLE numArfcn: 1 arfcn: 1016 numChannels: 28 array: 787 788 791 792 793 794 795 879 880 883 884 975 977 978 979 981 982 983 986 987 1011 1012 1017 1018 1019 1020 1021 1022 pbcch: 0 nom: 2 rac: 6 spgc: 0 pat: 6 nco: 0 t3168: 1500 t3192: 500 drxmax: 4 ctrlAck: 1 bsCVmax: 8 alpha: 6 pcMeasCh: 1 
arfcn: 988 rxLev: -98
arfcn: 639 rxLev: -98
arfcn: 121 rxLev: -98
arfcn: 110 rxLev: -98
arfcn: 617 rxLev: -98
arfcn: 650 rxLev: -98
arfcn: 660 rxLev: -98
$GPGGA,234633.000,4806.8864,N,00139.4455,W,1,06,2.2,33.6,M,48.3,M,,0000*71
arfcn: 662 rxLev: -98
$GPGSA,M,3,16,27,26,21,10,20,,,,,,,4.1,2.2,3.4*3A
arfcn: 664 rxLev: -98
$GPRMC,234633.000,A,4806.8864,N,00139.4455,W,1.28,325.88,050218,,,A*7D
$GPGGA,234634.000,4806.8868,N,00139.4458,W,1,06,2.2,32.7,M,48.3,M,,0000*77
$GPGSA,M,3,16,27,26,21,10,20,,,,,,,4.1,2.2,3.4*3A
$GPRMC,234634.000,A,4806.8868,N,00139.4458,W,1.66,329.65,050218,,,A*7E
$GPGGA,234635.000,4806.8876,N,00139.4463,W,1,06,2.2,31.7,M,48.3,M,,0000*72
arfcn: 610 bsic: 1 rxLev: -98 ber: 1.05 mcc: 208 mnc: 01 lac: 10300 cellId: 21582 cellStatus: CELL_FORBIDDEN numArfcn: 16 arfcn: 519 520 521 522 523 524 525 526 596 597 598 599 600 601 602 603 numChannels: 20 array: 1 4 5 6 8 10 12 13 14 15 512 513 514 515 516 517 518 605 607 608 pbcch: 0 nom: 2 rac: 1 spgc: 0 pat: 6 nco: 0 t3168: 1000 t3192: 500 drxmax: 2 ctrlAck: 0 bsCVmax: 9 alpha: 5 pcMeasCh: 1 
arfcn: 518 rxLev: -99
$GPGSA,M,3,16,27,26,21,10,20,,,,,,,4.1,2.2,3.4*3A
arfcn: 659 rxLev: -99
arfcn: 648 rxLev: -99
$GPGSV,3,1,12,16,74,195,09,27,65,300,11,26,44,163,09,21,41,058,10*7E
arfcn: 640 rxLev: -99
$GPGSV,3,2,12,10,33,142,12,20,16,041,22,33,33,198,,18,42,098,*70
arfcn: 642 rxLev: -99
$GPGSV,3,3,12,08,26,284,,07,15,318,,30,02,337,,15,01,056,*71
arfcn: 635 rxLev: -99
$GPRMC,234635.000,A,4806.8876,N,00139.4463,W,2.44,334.59,050218,,,A*78
arfcn: 638 rxLev: -99
arfcn: 51 rxLev: -99
arfcn: 680 rxLev: -99
$GPGGA,234636.000,4806.8883,N,00139.4466,W,1,06,2.2,30.4,M,48.3,M,,0000*7C
arfcn: 681 rxLev: -99
$GPGSA,M,3,16,27,26,21,10,20,,,,,,,4.1,2.2,3.4*3A
arfcn: 637 rxLev: -99
arfcn: 636 rxLev: -99
$GPRMC,234636.000,A,4806.8883,N,00139.4466,W,2.96,339.04,050218,,,A*7E
arfcn: 634 rxLev: -99
arfcn: 644 rxLev: -99
arfcn: 646 rxLev: -99
arfcn: 618 rxLev: -99
arfcn: 621 rxLev: -99
arfcn: 649 rxLev: -99
arfcn: 655 rxLev: -99
arfcn: 656 rxLev: -99
$GPGGA,234637.000,4806.8887,N,00139.4467,W,1,04,2.3,29.0,M,48.3,M,,0000*77
arfcn: 658 rxLev: -99
arfcn: 669 rxLev: -99
$GPGSA,M,3,27,21,10,20,,,,,,,,,4.5,2.3,3.8*30
arfcn: 607 rxLev: -99
$GPRMC,234637.000,A,4806.8887,N,00139.4467,W,3.12,342.17,050218,,,A*79
arfcn: 1011 rxLev: -100
arfcn: 1012 rxLev: -100
arfcn: 668 rxLev: -100
arfcn: 663 rxLev: -100
arfcn: 666 rxLev: -100
arfcn: 678 rxLev: -100
arfcn: 651 rxLev: -100
arfcn: 652 rxLev: -100
$GPGGA,234638.000,4806.8893,N,00139.4466,W,1,04,2.3,27.8,M,48.3,M,,0000*7A
arfcn: 622 rxLev: -100
$GPGSA,M,3,27,21,10,20,,,,,,,,,4.5,2.3,3.8*30
arfcn: 625 rxLev: -100
arfcn: 626 rxLev: -100
$GPRMC,234638.000,A,4806.8893,N,00139.4466,W,3.41,345.15,050218,,,A*71
arfcn: 643 rxLev: -100
arfcn: 641 rxLev: -100
arfcn: 679 rxLev: -100
arfcn: 683 rxLev: -100
arfcn: 685 rxLev: -100
arfcn: 687 rxLev: -100
arfcn: 645 rxLev: -100
arfcn: 623 rxLev: -100
$GPGGA,234639.000,4806.8901,N,00139.4465,W,1,04,2.3,26.6,M,48.3,M,,0000*7D
arfcn: 624 rxLev: -100
$GPGSA,M,3,27,21,10,20,,,,,,,,,4.5,2.3,3.8*30
arfcn: 628 rxLev: -100
arfcn: 620 rxLev: -100
$GPRMC,234639.000,A,4806.8901,N,00139.4465,W,3.92,348.77,050218,,,A*7E
arfcn: 653 rxLev: -100
arfcn: 647 rxLev: -100
arfcn: 657 rxLev: -100
arfcn: 661 rxLev: -100
arfcn: 677 rxLev: -100
arfcn: 675 rxLev: -100
arfcn: 676 rxLev: -100
$GPGGA,234640.000,4806.8908,N,00139.4457,W,1,04,4.7,25.6,M,48.3,M,,0000*7A
arfcn: 671 rxLev: -100
$GPGSA,M,3,26,21,10,20,,,,,,,,,6.1,4.7,3.9*34
arfcn: 672 rxLev: -100
arfcn: 673 rxLev: -100
$GPGSV,3,1,12,26,44,163,08,21,41,058,10,10,33,142,13,20,16,041,22*7E
arfcn: 665 rxLev: -100
$GPGSV,3,2,12,16,74,195,05,27,65,300,08,33,33,198,,18,42,098,*74
arfcn: 987 rxLev: -100
arfcn: 517 rxLev: -100
$GPGSV,3,3,12,08,26,284,,07,15,318,,30,02,337,,15,01,056,*71
$GPRMC,234640.000,A,4806.8908,N,00139.4457,W,4.28,352.58,050218,,,A*78
$GPGGA,234641.000,4806.8914,N,00139.4449,W,1,04,4.7,24.3,M,48.3,M,,0000*7D
$GPGSA,M,3,26,21,10,20,,,,,,,,,6.1,4.7,3.9*34
$GPRMC,234641.000,A,4806.8914,N,00139.4449,W,4.45,355.91,050218,,,A*72
$GPGGA,234642.000,4806.8919,N,00139.4460,W,1,04,2.3,22.8,M,48.3,M,,0000*77
$GPGSA,M,3,27,21,10,20,,,,,,,,,4.5,2.3,3.8*30
$GPRMC,234642.000,A,4806.8919,N,00139.4460,W,4.37,357.27,050218,,,A*7D
$GPGGA,234643.000,4806.8922,N,00139.4459,W,1,04,2.3,21.1,M,48.3,M,,0000*7E
$GPGSA,M,3,27,21,10,20,,,,,,,,,4.5,2.3,3.8*30
$GPRMC,234643.000,A,4806.8922,N,00139.4459,W,4.20,359.10,050218,,,A*72
arfcn: 1013 bsic: 63 rxLev: -100 ber: 5.09 mcc: 208 mnc: 20 lac: 418 cellId: 38979 cellStatus: CELL_SUITABLE numArfcn: 2 arfcn: 988 1013 numChannels: 27 array: 787 788 790 794 879 880 881 882 885 975 976 977 978 979 981 983 984 985 986 1012 1014 1016 1017 1018 1019 1020 1022 pbcch: 0 nom: 2 rac: 6 spgc: 0 pat: 6 nco: 0 t3168: 1500 t3192: 500 drxmax: 0 ctrlAck: 0 bsCVmax: 8 alpha: 6 pcMeasCh: 1 
arfcn: 119 rxLev: -100
arfcn: 975 rxLev: -100
$GPGGA,234644.000,4806.8933,N,00139.4458,W,0,00,,21.1,M,48.3,M,,0000*52
$GPGSA,M,1,,,,,,,,,,,,,,,*12
arfcn: 118 rxLev: -101
$GPRMC,234644.000,V,4806.8933,N,00139.4458,W,,,050218,,,N*64
arfcn: 667 rxLev: -101
arfcn: 670 rxLev: -101
arfcn: 674 rxLev: -101
arfcn: 654 rxLev: -101
arfcn: 619 rxLev: -101
arfcn: 627 rxLev: -101
arfcn: 633 rxLev: -101
arfcn: 632 rxLev: -101
arfcn: 689 rxLev: -101
$GPGGA,234645.000,4806.8937,N,00139.4453,W,1,05,1.8,19.3,M,48.3,M,,0000*76
arfcn: 691 rxLev: -101
$GPGSA,M,3,27,26,21,10,20,,,,,,,,3.0,1.8,2.4*33
arfcn: 704 rxLev: -101
arfcn: 629 rxLev: -101
$GPGSV,3,1,12,27,65,300,08,26,44,163,08,21,41,058,08,10,33,142,13*7A
arfcn: 630 rxLev: -101
arfcn: 1015 rxLev: -101
$GPGSV,3,2,12,20,16,041,23,16,74,195,04,37,27,150,,18,42,098,*7C
arfcn: 23 rxLev: -101
$GPGSV,3,3,12,08,26,284,,07,15,318,,30,02,337,,15,01,056,*71
$GPRMC,234645.000,A,4806.8937,N,00139.4453,W,3.86,2.03,050218,,,A*7E
$GPGGA,234646.102,4806.8943,N,00139.4436,W,1,04,2.4,19.2,M,48.3,M,,0000*79
$GPGSA,M,3,27,26,10,20,,,,,,,,,4.0,2.4,3.2*3F
$GPRMC,234646.102,A,4806.8943,N,00139.4436,W,4.03,6.17,050218,,,A*75
$GPGGA,234647.000,4806.8952,N,00139.4440,W,1,05,1.8,16.6,M,48.3,M,,0000*7F
$GPGSA,M,3,27,26,21,10,20,,,,,,,,3.0,1.8,2.4*33
arfcn: 82 bsic: 63 rxLev: -102 ber: 5.01 mcc: 208 mnc: 10 lac: 49415 cellId: 53517 cellStatus: CELL_FORBIDDEN numArfcn: 2 arfcn: 82 84 numChannels: 17 array: 76 77 78 79 80 82 85 86 114 115 118 119 120 121 122 123 124 pbcch: 0 nom: 2 rac: 31 spgc: 0 pat: 6 nco: 0 t3168: 1000 t3192: 500 drxmax: 4 ctrlAck: 1 bsCVmax: 9 alpha: 10 pcMeasCh: 0 
arfcn: 631 rxLev: -102
$GPRMC,234647.000,A,4806.8952,N,00139.4440,W,4.13,8.77,050218,,,A*7F
arfcn: 705 rxLev: -102
arfcn: 699 rxLev: -102
arfcn: 700 rxLev: -102
arfcn: 702 rxLev: -102
arfcn: 693 rxLev: -102
arfcn: 694 rxLev: -102
arfcn: 688 rxLev: -102
arfcn: 686 rxLev: -102
$GPGGA,234648.000,4806.8963,N,00139.4435,W,0,00,,16.6,M,48.3,M,,0000*53
arfcn: 684 rxLev: -102
$GPGSA,M,1,,,,,,,,,,,,,,,*12
arfcn: 690 rxLev: -102
$GPRMC,234648.000,V,4806.8963,N,00139.4435,W,,,050218,,,N*66
arfcn: 692 rxLev: -102
arfcn: 695 rxLev: -102
arfcn: 697 rxLev: -102
arfcn: 703 rxLev: -102
arfcn: 788 rxLev: -102
arfcn: 1018 rxLev: -102
arfcn: 89 rxLev: -102
arfcn: 74 rxLev: -103
$GPGGA,234649.000,4806.8974,N,00139.4430,W,0,00,,16.6,M,48.3,M,,0000*51
$GPGSA,M,1,,,,,,,,,,,,,,,*12
arfcn: 116 rxLev: -103
arfcn: 0 rxLev: -103
$GPRMC,234649.000,V,4806.8974,N,00139.4430,W,,,050218,,,N*64
arfcn: 698 rxLev: -103
arfcn: 696 rxLev: -103
arfcn: 701 rxLev: -103
arfcn: 706 rxLev: -103
arfcn: 113 rxLev: -103
arfcn: 603 rxLev: -103
arfcn: 546 rxLev: -104
arfcn: 111 rxLev: -104
arfcn: 88 rxLev: -104
arfcn: 16 rxLev: -104
$GPGGA,234650.102,4806.8986,N,00139.4424,W,0,00,,16.6,M,48.3,M,,0000*52
$GPGSA,M,1,,,,,,,,,,,,,,,*12
arfcn: 48 rxLev: -104
arfcn: 790 rxLev: -104
$GPGSV,3,1,12,10,33,142,13,16,74,195,04,20,16,041,23,21,41,058,06*7D
arfcn: 789 rxLev: -105
arfcn: 786 rxLev: -105
$GPGSV,3,2,12,26,44,163,04,27,65,300,09,37,27,150,,18,42,098,*78
$GPGSV,3,3,12,08,26,284,,07,15,318,,30,02,337,,15,01,056,*71
arfcn: 87 rxLev: -105
arfcn: 549 rxLev: -105
$GPRMC,234650.102,V,4806.8986,N,00139.4424,W,,,050218,,,N*67
arfcn: 1010 rxLev: -105
arfcn: 1022 rxLev: -106
arfcn: 611 rxLev: -106
arfcn: 22 rxLev: -106
$GPGGA,234651.102,4806.8997,N,00139.4420,W,0,00,,16.5,M,48.3,M,,0000*54
$GPGSA,M,1,,,,,,,,,,,,,,,*12
arfcn: 17 rxLev: -107
arfcn: 49 rxLev: -107
$GPRMC,234651.102,V,4806.8997,N,00139.4420,W,,,050218,,,N*62
arfcn: 50 rxLev: -107
arfcn: 18 rxLev: -107
arfcn: 24 rxLev: -107
arfcn: 1023 rxLev: -107
arfcn: 614 rxLev: -107
arfcn: 616 rxLev: -107
arfcn: 787 rxLev: -107
arfcn: 785 rxLev: -108
arfcn: 602 rxLev: -108
$GPGGA,234652.104,4806.9008,N,00139.4415,W,0,00,,16.5,M,48.3,M,,0000*59
arfcn: 554 rxLev: -108
$GPGSA,M,1,,,,,,,,,,,,,,,*12
arfcn: 600 rxLev: -108
arfcn: 21 rxLev: -108
Network survey ended
$GPRMC,234652.104,V,4806.9008,N,00139.4415,W,,,050218,,,N*6F
Survey end at #CCLK: "18/02/06,00:46:52+04"
Survey duration: 124 seconds, 31 bases detected over 449 freqs scanned.
$GPGGA,234653.104,4806.9019,N,00139.4410,W,0,00,,16.5,M,48.3,M,,0000*5D
$GPGSA,M,1,,,,,,,,,,,,,,,*12
$GPRMC,234653.104,V,4806.9019,N,00139.4410,W,,,050218,,,N*6B
$GPGGA,234654.104,4806.9030,N,00139.4405,W,0,00,,16.5,M,48.3,M,,0000*55
$GPGSA,M,1,,,,,,,,,,,,,,,*12
$GPRMC,234654.104,V,4806.9030,N,00139.4405,W,,,050218,,,N*63
Survey start at #CCLK: "18/02/06,00:46:54+04"
at#csurv
Network survey started ...
$GPGGA,234655.104,4806.9041,N,00139.4400,W,0,00,,16.4,M,48.3,M,,0000*56
$GPGSA,M,1,,,,,,,,,,,,,,,*12
$GPGSV,3,1,12,10,33,142,10,20,16,041,23,21,41,058,04,26,44,163,04*75
$GPGSV,3,2,12,27,65,300,08,37,27,150,,16,74,195,,18,42,098,*74
$GPGSV,3,3,12,08,26,284,,07,15,318,,30,02,337,,15,01,056,*71
$GPRMC,234655.104,V,4806.9041,N,00139.4400,W,,,050218,,,N*61
$GPGGA,234656.099,4806.9052,N,00139.4395,W,0,00,,16.4,M,48.3,M,,0000*59
$GPGSA,M,1,,,,,,,,,,,,,,,*12
$GPRMC,234656.099,V,4806.9052,N,00139.4395,W,,,050218,,,N*6E
$GPGGA,234657.099,4806.9063,N,00139.4391,W,0,00,,16.4,M,48.3,M,,0000*5E
$GPGSA,M,1,,,,,,,,,,,,,,,*12
$GPRMC,234657.099,V,4806.9063,N,00139.4391,W,,,050218,,,N*69
$GPGGA,234658.103,4806.9074,N,00139.4386,W,0,00,,16.3,M,48.3,M,,0000*54
$GPGSA,M,1,,,,,,,,,,,,,,,*12
$GPRMC,234658.103,V,4806.9074,N,00139.4386,W,,,050218,,,N*64
$GPGGA,234659.103,4806.9085,N,00139.4381,W,0,00,,16.3,M,48.3,M,,0000*5C
$GPGSA,M,1,,,,,,,,,,,,,,,*12
$GPRMC,234659.103,V,4806.9085,N,00139.4381,W,,,050218,,,N*6C
arfcn: 981 bsic: 46 rxLev: -49 ber: 0.00 mcc: 208 mnc: 20 lac: 418 cellId: 21807 cellStatus: CELL_SUITABLE numArfcn: 1 arfcn: 981 numChannels: 16 array: 979 982 983 985 1012 1014 1017 1019 1020 787 790 791 793 796 882 884 pbcch: 0 nom: 2 rac: 6 spgc: 0 pat: 6 nco: 0 t3168: 1500 t3192: 500 drxmax: 0 ctrlAck: 0 bsCVmax: 8 alpha: 6 pcMeasCh: 1 
$GPGGA,234700.103,4806.9096,N,00139.4376,W,0,00,,16.3,M,48.3,M,,0000*5B
$GPGSA,M,1,,,,,,,,,,,,,,,*12
$GPGSV,3,1,12,10,33,142,12,20,16,041,23,21,41,058,16,26,44,163,04*74
$GPGSV,3,2,12,27,65,300,04,37,27,150,,16,74,195,,18,42,098,*78
$GPGSV,3,3,12,08,26,284,,07,15,318,,30,02,337,,15,01,056,*71
$GPRMC,234700.103,V,4806.9096,N,00139.4376,W,,,050218,,,N*6B
$GPGGA,234701.103,4806.9107,N,00139.4371,W,0,00,,16.3,M,48.3,M,,0000*54
$GPGSA,M,1,,,,,,,,,,,,,,,*12
$GPRMC,234701.103,V,4806.9107,N,00139.4371,W,,,050218,,,N*64
arfcn: 985 bsic: 44 rxLev: -53 ber: 0.00 mcc: 208 mnc: 20 lac: 418 cellId: 21808 cellStatus: CELL_SUITABLE numArfcn: 1 arfcn: 985 numChannels: 25 array: 787 788 790 793 795 796 879 884 975 977 978 979 980 981 982 983 1011 1012 1014 1015 1017 1019 1020 1021 1022 pbcch: 0 nom: 2 rac: 6 spgc: 0 pat: 6 nco: 0 t3168: 1500 t3192: 500 drxmax: 0 ctrlAck: 0 bsCVmax: 8 alpha: 6 pcMeasCh: 1 
arfcn: 991 rxLev: -62
arfcn: 992 rxLev: -62
$GPGGA,234702.103,,,,,0,00,,,M,0.0,M,,0000*54
$GPGSA,M,1,,,,,,,,,,,,,,,*12
arfcn: 993 rxLev: -63
arfcn: 990 rxLev: -63
$GPRMC,234702.103,V,,,,,,,050218,,,N*41
arfcn: 997 rxLev: -63
arfcn: 998 rxLev: -63
arfcn: 999 rxLev: -63
arfcn: 996 rxLev: -63
arfcn: 994 rxLev: -63
arfcn: 995 rxLev: -63
$GPGGA,234703.104,,,,,0,00,,,M,0.0,M,,0000*52
$GPGSA,M,1,,,,,,,,,,,,,,,*12
$GPRMC,234703.104,V,,,,,,,050218,,,N*47
$GPGGA,234704.103,,,,,0,00,,,M,0.0,M,,0000*52
$GPGSA,M,1,,,,,,,,,,,,,,,*12
$GPRMC,234704.103,V,,,,,,,050218,,,N*47
$GPGGA,234705.103,,,,,0,00,,,M,0.0,M,,0000*53
$GPGSA,M,1,,,,,,,,,,,,,,,*12
$GPGSV,3,1,12,10,33,142,12,20,16,041,23,21,41,058,17,27,65,300,06*72
$GPGSV,3,2,12,37,27,150,,16,74,195,,26,44,163,,18,42,098,*79
$GPGSV,3,3,12,08,26,284,,07,15,318,,30,02,337,,15,01,056,*71
$GPRMC,234705.103,V,,,,,,,050218,,,N*46
$GPGGA,234706.103,,,,,0,00,,,M,0.0,M,,0000*50
$GPGSA,M,1,,,,,,,,,,,,,,,*12
$GPRMC,234706.103,V,,,,,,,050218,,,N*45
arfcn: 12 bsic: 0 rxLev: -63 ber: 0.00 mcc: 208 mnc: 01 lac: 10300 cellId: 6467 cellStatus: CELL_FORBIDDEN numArfcn: 13 arfcn: 12 17 18 19 20 21 22 23 24 25 47 48 49 numChannels: 15 array: 1 2 3 8 9 10 14 512 513 514 515 518 605 606 608 pbcch: 0 nom: 2 rac: 1 spgc: 0 pat: 6 nco: 0 t3168: 1000 t3192: 500 drxmax: 2 ctrlAck: 0 bsCVmax: 9 alpha: 5 pcMeasCh: 1 
arfcn: 1000 rxLev: -64
arfcn: 1001 rxLev: -64
arfcn: 1004 rxLev: -64
arfcn: 1005 rxLev: -64
arfcn: 1007 rxLev: -64
arfcn: 1006 rxLev: -65
arfcn: 1008 rxLev: -65
$GPGGA,234707.103,,,,,0,00,,,M,0.0,M,,0000*51
arfcn: 1002 rxLev: -65
$GPGSA,M,1,,,,,,,,,,,,,,,*12
arfcn: 1003 rxLev: -65
$GPRMC,234707.103,V,,,,,,,050218,,,N*44
arfcn: 982 rxLev: -66
arfcn: 980 rxLev: -66
arfcn: 986 rxLev: -69
