$GPGSA,M,1,,,,,,,,,,,,,,,*12
$GPRMC,013613.228,V,,,,,,,060218,,,N*4E
Survey start at #CCLK: "18/02/06,02:36:13+04"
at#csurv
Network survey started ...
Survey end at #CCLK: "18/02/06,02:36:13+04"
Survey duration: 0 seconds, 0 bases detected over 0 freqs scanned.
$GPGGA,013614.228,,,,,0,00,,,M,0.0,M,,0000*5F
$GPGSA,M,1,,,,,,,,,,,,,,,*12
$GPRMC,013614.228,V,,,,,,,060218,,,N*49
$GPGGA,013615.228,,,,,0,00,,,M,0.0,M,,0000*5E
$GPGSA,M,1,,,,,,,,,,,,,,,*12
$GPRMC,013615.228,V,,,,,,,060218,,,N*48
$GPGGA,013616.228,,,,,0,00,,,M,0.0,M,,0000*5D
Survey start at #CCLK: "18/02/06,02:36:15+04"
at#csurv
Network survey started ...
$GPGSA,M,1,,,,,,,,,,,,,,,*12
$GPGSV,3,1,12,27,63,117,23,08,73,303,,10,52,072,,11,29,274,*7B
$GPGSV,3,2,12,18,24,049,,01,22,254,,16,20,177,,32,11,118,*76
$GPGSV,3,3,12,28,09,325,,22,09,203,,30,08,296,,07,06,273,*74
$GPRMC,013616.228,V,,,,,,,060218,,,N*4B
$GPGGA,013617.228,,,,,0,00,,,M,0.0,M,,0000*5C
$GPGSA,M,1,,,,,,,,,,,,,,,*12
$GPRMC,013617.228,V,,,,,,,060218,,,N*4A
$GPGGA,013618.228,,,,,0,00,,,M,0.0,M,,0000*53
$GPGSA,M,1,,,,,,,,,,,,,,,*12
$GPRMC,013618.228,V,,,,,,,060218,,,N*45
$GPGGA,013619.228,,,,,0,00,,,M,0.0,M,,0000*52
$GPGSA,M,1,,,,,,,,,,,,,,,*12
$GPRMC,013619.228,V,,,,,,,060218,,,N*44
$GPGGA,013620.228,,,,,0,00,,,M,0.0,M,,0000*58
$GPGSA,M,1,,,,,,,,,,,,,,,*12
$GPRMC,013620.228,V,,,,,,,060218,,,N*4E
$GPGGA,013621.228,,,,,0,00,,,M,0.0,M,,0000*59
$GPGSA,M,1,,,,,,,,,,,,,,,*12
arfcn: 981 bsic: 46 rxLev: -51 ber: 0.00 mcc: 208 mnc: 20 lac: 418 cellId: 21807 cellStatus: CELL_SUITABLE numArfcn: 1 arfcn: 981 numChannels: 16 array: 979 982 983 985 1012 1014 1017 1019 1020 787 790 791 793 796 882 884 pbcch: 0 nom: 2 rac: 6 spgc: 0 pat: 6 nco: 0 t3168: 1500 t3192: 500 drxmax: 0 ctrlAck: 0 bsCVmax: 8 alpha: 6 pcMeasCh: 1 
$GPGSV,3,1,12,27,63,117,23,08,73,303,,10,52,072,,11,29,274,*7B
$GPGSV,3,2,12,18,24,049,,01,22,254,,16,20,177,,32,11,118,*76
$GPGSV,3,3,12,28,09,325,,22,09,203,,30,08,296,,07,06,273,*74
$GPRMC,013621.228,V,,,,,,,060218,,,N*4F
$GPGGA,013622.228,,,,,0,00,,,M,0.0,M,,0000*5A
$GPGSA,M,1,,,,,,,,,,,,,,,*12
$GPRMC,013622.228,V,,,,,,,060218,,,N*4C
$GPGGA,013623.228,,,,,0,00,,,M,0.0,M,,0000*5B
$GPGSA,M,1,,,,,,,,,,,,,,,*12
$GPRMC,013623.228,V,,,,,,,060218,,,N*4D
$GPGGA,013624.228,,,,,0,00,,,M,0.0,M,,0000*5C
$GPGSA,M,1,,,,,,,,,,,,,,,*12
$GPRMC,013624.228,V,,,,,,,060218,,,N*4A
$GPGGA,013625.228,,,,,0,00,,,M,0.0,M,,0000*5D
$GPGSA,M,1,,,,,,,,,,,,,,,*12
$GPRMC,013625.228,V,,,,,,,060218,,,N*4B
$GPGGA,013626.228,,,,,0,00,,,M,0.0,M,,0000*5E
$GPGSA,M,1,,,,,,,,,,,,,,,*12
$GPGSV,3,1,12,27,63,117,23,08,73,303,,10,52,072,,11,29,274,*7B
$GPGSV,3,2,12,18,24,049,,01,22,254,,16,20,177,,32,11,118,*76
$GPGSV,3,3,12,28,09,325,,22,09,203,,30,08,296,,07,06,273,*74
$GPRMC,013626.228,V,,,,,,,060218,,,N*48
$GPGGA,013627.228,,,,,0,00,,,M,0.0,M,,0000*5F
Survey end at #CCLK: "18/02/06,02:36:26+04"
Survey duration: 11 seconds, 1 bases detected over 1 freqs scanned.
$GPGSA,M,1,,,,,,,,,,,,,,,*12
$GPRMC,013627.228,V,,,,,,,060218,,,N*49
$GPGGA,013628.228,,,,,0,00,,,M,0.0,M,,0000*50
$GPGSA,M,1,,,,,,,,,,,,,,,*12
$GPRMC,013628.228,V,,,,,,,060218,,,N*46
Survey start at #CCLK: "18/02/06,02:36:28+04"
at#csurv
Network survey started ...
Survey end at #CCLK: "18/02/06,02:36:28+04"
Survey duration: 0 seconds, 0 bases detected over 0 freqs scanned.
$GPGGA,013629.229,,,,,0,00,,,M,0.0,M,,0000*50
$GPGSA,M,1,,,,,,,,,,,,,,,*12
$GPRMC,013629.229,V,,,,,,,060218,,,N*46
$GPGGA,013630.229,,,,,0,00,,,M,0.0,M,,0000*58
$GPGSA,M,1,,,,,,,,,,,,,,,*12
$GPRMC,013630.229,V,,,,,,,060218,,,N*4E
Survey start at #CCLK: "18/02/06,02:36:30+04"
at#csurv
Network survey started ...
Survey end at #CCLK: "18/02/06,02:36:30+04"
Survey duration: 0 seconds, 0 bases detected over 0 freqs scanned.
$GPGGA,013631.130,,,,,0,05,3.0,,M,0.0,M,,0000*7A
$GPGSA,M,1,,,,,,,,,,,,,,,*12
$GPGSV,3,1,12,08,73,303,15,27,63,117,23,10,52,072,13,32,11,118,16*79
$GPGSV,3,2,12,07,06,273,15,11,29,274,,18,24,049,,01,22,254,*72
$GPGSV,3,3,12,16,20,177,,28,09,325,,22,09,203,,30,08,296,*77
$GPRMC,013631.130,V,,,,,,,060218,,,N*44
$GPGGA,013631.230,,,,,0,04,7.7,,M,0.0,M,,0000*7B
$GPGSA,M,1,,,,,,,,,,,,,,,*12
$GPRMC,013631.230,V,,,,,,,060218,,,N*47
$GPGGA,013631.737,,,,,0,04,7.7,,M,0.0,M,,0000*79
$GPGSA,M,1,,,,,,,,,,,,,,,*12
$GPRMC,013631.737,V,,,,,,,060218,,,N*45
$GPGGA,013632.000,,,,,0,04,7.7,,M,0.0,M,,0000*79
$GPGSA,M,1,,,,,,,,,,,,,,,*12
$GPRMC,013632.000,V,,,,,,,060218,,,N*45
$GPGGA,013633.000,,,,,0,04,7.7,,M,0.0,M,,0000*78
$GPGSA,M,1,,,,,,,,,,,,,,,*12
$GPRMC,013633.000,V,,,,,,,060218,,,N*44
Survey start at #CCLK: "18/02/06,02:36:32+04"
at#csurv
Network survey started ...
$GPGGA,013634.000,,,,,0,05,3.0,,M,0.0,M,,0000*7D
$GPGSA,M,1,,,,,,,,,,,,,,,*12
$GPGSV,3,1,12,08,73,303,14,27,62,117,23,10,52,072,13,32,11,117,17*77
$GPGSV,3,2,12,07,05,273,16,16,20,176,04,22,09,203,04,28,10,325,04*7E
$GPGSV,3,3,12,33,33,198,,11,29,274,,18,24,049,,01,22,255,*71
$GPRMC,013634.000,V,,,,,,,060218,,,N*43
$GPGGA,013635.000,,,,,0,05,3.0,,M,0.0,M,,0000*7C
$GPGSA,M,1,,,,,,,,,,,,,,,*12
$GPRMC,013635.000,V,,,,,,,060218,,,N*42
$GPGGA,013636.000,,,,,0,05,2.9,,M,0.0,M,,0000*77
$GPGSA,M,1,,,,,,,,,,,,,,,*12
$GPRMC,013636.000,V,,,,,,,060218,,,N*41
$GPGGA,013637.000,,,,,0,05,2.9,,M,0.0,M,,0000*76
$GPGSA,M,1,,,,,,,,,,,,,,,*12
$GPRMC,013637.000,V,,,,,,,060218,,,N*40
$GPGGA,013638.000,,,,,0,05,2.9,,M,0.0,M,,0000*79
$GPGSA,M,1,,,,,,,,,,,,,,,*12
$GPRMC,013638.000,V,,,,,,,060218,,,N*4F
$GPGGA,013639.000,,,,,0,05,2.9,,M,0.0,M,,0000*78
$GPGSA,M,1,,,,,,,,,,,,,,,*12
$GPGSV,3,1,12,08,73,303,14,27,62,117,22,10,52,072,13,32,11,117,17*76
$GPGSV,3,2,12,07,05,273,16,33,33,198,,11,29,274,,18,24,049,*70
$GPGSV,3,3,12,01,22,255,,16,20,176,,28,10,325,,22,09,203,*7B
$GPRMC,013639.000,V,,,,,,,060218,,,N*4E
$GPGGA,013640.000,,,,,0,05,2.9,,M,0.0,M,,0000*76
$GPGSA,M,1,,,,,,,,,,,,,,,*12
$GPRMC,013640.000,V,,,,,,,060218,,,N*40
arfcn: 981 bsic: 46 rxLev: -52 ber: 50.00 mcc: 208 mnc: 20 lac: 418 cellId: 21807 cellStatus: CELL_SUITABLE numArfcn: 1 arfcn: 981 numChannels: 16 array: 979 982 983 985 1012 1014 1017 1019 1020 787 790 791 793 796 882 884 pbcch: 0 nom: 2 rac: 6 spgc: 0 pat: 6 nco: 0 t3168: 1500 t3192: 500 drxmax: 0 ctrlAck: 0 bsCVmax: 8 alpha: 6 pcMeasCh: 1 
$GPGGA,013641.000,4806.8183,N,00139.4538,W,1,05,2.9,21.7,M,48.3,M,,0000*73
$GPGSA,M,3,08,27,10,32,07,,,,,,,,3.3,2.9,1.5*3B
$GPRMC,013641.000,A,4806.8183,N,00139.4538,W,7.26,202.07,060218,,,A*7D
$GPGGA,013642.000,4806.8166,N,00139.4543,W,1,05,2.9,21.9,M,48.3,M,,0000*79
$GPGSA,M,3,08,27,10,32,07,,,,,,,,3.3,2.9,1.5*3B
$GPRMC,013642.000,A,4806.8166,N,00139.4543,W,7.30,201.87,060218,,,A*75
$GPGGA,013643.000,4806.8148,N,00139.4551,W,1,05,2.9,22.2,M,48.3,M,,0000*7F
$GPGSA,M,3,08,27,10,32,07,,,,,,,,3.3,2.9,1.5*3B
arfcn: 985 bsic: 44 rxLev: -56 ber: 0.00 mcc: 208 mnc: 20 lac: 418 cellId: 21808 cellStatus: CELL_SUITABLE numArfcn: 1 arfcn: 985 numChannels: 25 array: 787 788 790 793 795 796 879 884 975 977 978 979 980 981 982 983 1011 1012 1014 1015 1017 1019 1020 1021 1022 pbcch: 0 nom: 2 rac: 6 spgc: 0 pat: 6 nco: 0 t3168: 1500 t3192: 500 drxmax: 0 ctrlAck: 0 bsCVmax: 8 alpha: 6 pcMeasCh: 1 
$GPRMC,013643.000,A,4806.8148,N,00139.4551,W,7.39,201.13,060218,,,A*7F
arfcn: 990 rxLev: -62
arfcn: 991 rxLev: -62
arfcn: 994 rxLev: -62
arfcn: 992 rxLev: -63
arfcn: 995 rxLev: -63
arfcn: 997 rxLev: -63
arfcn: 1000 rxLev: -63
arfcn: 1001 rxLev: -63
arfcn: 1002 rxLev: -63
$GPGGA,013644.000,4806.8137,N,00139.4561,W,1,05,2.9,22.4,M,48.3,M,,0000*75
arfcn: 1004 rxLev: -63
$GPGSA,M,3,08,27,10,32,07,,,,,,,,3.3,2.9,1.5*3B
arfcn: 1003 rxLev: -63
$GPGSV,3,1,12,08,73,303,14,27,62,117,23,10,52,072,12,32,11,117,16*77
arfcn: 1005 rxLev: -63
$GPGSV,3,2,12,07,05,273,15,33,33,198,,11,29,274,,18,24,049,*73
arfcn: 999 rxLev: -63
$GPGSV,3,3,12,01,22,255,,16,20,176,,28,10,325,,22,09,203,*7B
arfcn: 998 rxLev: -63
arfcn: 996 rxLev: -63
$GPRMC,013644.000,A,4806.8137,N,00139.4561,W,7.32,200.92,060218,,,A*70
arfcn: 993 rxLev: -63
arfcn: 1007 rxLev: -64
arfcn: 1008 rxLev: -64
$GPGGA,013645.000,4806.8118,N,00139.4571,W,0,00,,22.6,M,48.3,M,,0000*5B
arfcn: 1006 rxLev: -64
$GPGSA,M,1,,,,,,,,,,,,,,,*12
arfcn: 980 rxLev: -69
$GPRMC,013645.000,V,4806.8118,N,00139.4571,W,,,060218,,,N*6A
$GPGGA,013646.000,4806.8099,N,00139.4582,W,0,00,,22.8,M,48.3,M,,0000*52
$GPGSA,M,1,,,,,,,,,,,,,,,*12
$GPRMC,013646.000,V,4806.8099,N,00139.4582,W,,,060218,,,N*6D
$GPGGA,013647.030,4806.8080,N,00139.4593,W,0,00,,23.0,M,48.3,M,,0000*51
$GPGSA,M,1,,,,,,,,,,,,,,,*12
arfcn: 12 bsic: 0 rxLev: -70 ber: 0.00 mcc: 208 mnc: 01 lac: 10300 cellId: 6467 cellStatus: CELL_FORBIDDEN numArfcn: 13 arfcn: 12 17 18 19 20 21 22 23 24 25 47 48 49 numChannels: 15 array: 1 2 3 8 9 10 14 512 513 514 515 518 605 606 608 pbcch: 0 nom: 2 rac: 1 spgc: 0 pat: 6 nco: 0 t3168: 1000 t3192: 500 drxmax: 2 ctrlAck: 0 bsCVmax: 9 alpha: 5 pcMeasCh: 1 
arfcn: 982 rxLev: -70
$GPRMC,013647.030,V,4806.8080,N,00139.4593,W,,,060218,,,N*67
$GPGGA,013648.030,4806.8061,N,00139.4603,W,0,00,,23.2,M,48.3,M,,0000*59
$GPGSA,M,1,,,,,,,,,,,,,,,*12
$GPRMC,013648.030,V,4806.8061,N,00139.4603,W,,,060218,,,N*6D
$GPGGA,013649.031,4806.8042,N,00139.4614,W,0,00,,23.4,M,48.3,M,,0000*58
$GPGSA,M,1,,,,,,,,,,,,,,,*12
arfcn: 80 bsic: 47 rxLev: -71 ber: 0.00 mcc: 208 mnc: 10 lac: 49415 cellId: 23568 cellStatus: CELL_FORBIDDEN numArfcn: 2 arfcn: 80 89 numChannels: 19 array: 76 77 78 80 82 83 84 85 113 114 115 116 117 118 119 120 122 123 124 pbcch: 0 nom: 2 rac: 31 spgc: 0 pat: 6 nco: 0 t3168: 1000 t3192: 500 drxmax: 4 ctrlAck: 1 bsCVmax: 9 alpha: 10 pcMeasCh: 0 
arfcn: 989 rxLev: -71
arfcn: 1009 rxLev: -73
$GPGSV,3,1,12,07,05,273,16,10,52,072,04,27,62,117,23,32,11,117,07*7A
arfcn: 986 rxLev: -74
$GPGSV,3,2,12,33,33,198,,08,73,303,,11,29,274,,18,24,049,*7F
arfcn: 984 rxLev: -74
$GPGSV,3,3,12,01,22,255,,16,20,176,,28,10,325,,22,09,203,*7B
$GPRMC,013649.031,V,4806.8042,N,00139.4614,W,,,060218,,,N*6A
$GPGGA,013650.031,4806.8023,N,00139.4624,W,0,00,,23.6,M,48.3,M,,0000*56
$GPGSA,M,1,,,,,,,,,,,,,,,*12
$GPRMC,013650.031,V,4806.8023,N,00139.4624,W,,,060218,,,N*66
$GPGGA,013651.031,4806.8003,N,00139.4635,W,0,00,,23.8,M,48.3,M,,0000*5B
$GPGSA,M,1,,,,,,,,,,,,,,,*12
$GPRMC,013651.031,V,4806.8003,N,00139.4635,W,,,060218,,,N*65
arfcn: 8 bsic: 48 rxLev: -74 ber: 0.00 mcc: 208 mnc: 01 lac: 10300 cellId: 6473 cellStatus: CELL_FORBIDDEN numArfcn: 13 arfcn: 8 17 18 19 20 21 22 23 24 25 47 48 49 numChannels: 18 array: 1 2 3 4 5 10 12 13 14 15 512 513 514 515 516 517 605 610 pbcch: 0 nom: 2 rac: 1 spgc: 0 pat: 6 nco: 0 t3168: 1000 t3192: 500 drxmax: 2 ctrlAck: 0 bsCVmax: 9 alpha: 5 pcMeasCh: 1 
$GPGGA,013652.031,,,,,0,04,3.0,,M,0.0,M,,0000*7E
$GPGSA,M,1,,,,,,,,,,,,,,,*12
$GPRMC,013652.031,V,,,,,,,060218,,,N*41
$GPGGA,013653.031,,,,,0,04,3.0,,M,0.0,M,,0000*7F
$GPGSA,M,1,,,,,,,,,,,,,,,*12
$GPRMC,013653.031,V,,,,,,,060218,,,N*40
arfcn: 10 bsic: 45 rxLev: -76 ber: 0.03 mcc: 208 mnc: 01 lac: 10301 cellId: 6461 cellStatus: CELL_FORBIDDEN numArfcn: 13 arfcn: 10 17 18 19 20 21 22 23 24 25 47 48 49 numChannels: 17 array: 1 3 4 5 6 8 12 14 512 513 514 516 517 604 605 606 608 pbcch: 0 nom: 2 rac: 1 spgc: 0 pat: 6 nco: 0 t3168: 1000 t3192: 500 drxmax: 2 ctrlAck: 0 bsCVmax: 9 alpha: 5 pcMeasCh: 1 
$GPGGA,013654.000,,,,,0,04,3.0,,M,0.0,M,,0000*7A
$GPGSA,M,1,,,,,,,,,,,,,,,*12
$GPGSV,3,1,12,27,62,117,23,10,52,072,11,32,11,117,10,07,05,273,15*7B
$GPGSV,3,2,12,01,22,255,14,08,73,303,11,33,33,198,,11,29,274,*7B
$GPGSV,3,3,12,18,24,049,,16,20,176,,28,10,325,,22,09,203,*7A
$GPRMC,013654.000,V,,,,,,,060218,,,N*45
$GPGGA,013655.000,,,,,0,04,2.9,,M,0.0,M,,0000*73
arfcn: 85 bsic: 0 rxLev: -76 ber: 0.00 mcc: 208 mnc: 10 lac: 49415 cellId: 44814 cellStatus: CELL_FORBIDDEN numArfcn: 2 arfcn: 85 119 numChannels: 20 array: 76 77 78 79 80 82 83 85 86 114 115 116 117 118 119 120 121 122 123 124 pbcch: 0 nom: 2 rac: 31 spgc: 0 pat: 6 nco: 0 t3168: 1000 t3192: 500 drxmax: 4 ctrlAck: 1 bsCVmax: 9 alpha: 10 pcMeasCh: 0 
$GPGSA,M,1,,,,,,,,,,,,,,,*12
$GPRMC,013655.000,V,,,,,,,060218,,,N*44
$GPGGA,013656.000,,,,,0,04,7.7,,M,0.0,M,,0000*7B
$GPGSA,M,1,,,,,,,,,,,,,,,*12
$GPRMC,013656.000,V,,,,,,,060218,,,N*47
arfcn: 78 bsic: 2 rxLev: -78 ber: 0.00 mcc: 208 mnc: 10 lac: 49415 cellId: 45280 cellStatus: CELL_FORBIDDEN numArfcn: 2 arfcn: 78 116 numChannels: 20 array: 76 77 78 79 80 82 83 84 85 86 114 115 116 117 118 120 121 122 123 124 pbcch: 0 nom: 2 rac: 31 spgc: 0 pat: 6 nco: 0 t3168: 1000 t3192: 500 drxmax: 4 ctrlAck: 1 bsCVmax: 9 alpha: 10 pcMeasCh: 0 
arfcn: 796 rxLev: -79
$GPGGA,013657.000,4806.8108,N,00139.4506,W,1,05,3.3,23.5,M,48.3,M,,0000*71
$GPGSA,M,3,08,27,01,32,07,,,,,,,,3.6,3.3,1.5*35
$GPRMC,013657.000,A,4806.8108,N,00139.4506,W,5.75,185.66,060218,,,A*7B
$GPGGA,013658.000,4806.8144,N,00139.4484,W,1,05,3.3,23.7,M,48.3,M,,0000*7F
$GPGSA,M,3,08,27,01,32,07,,,,,,,,3.6,3.3,1.5*35
$GPRMC,013658.000,A,4806.8144,N,00139.4484,W,5.37,187.06,060218,,,A*75
$GPGGA,013659.000,4806.8163,N,00139.4472,W,1,05,3.3,23.8,M,48.3,M,,0000*7D
$GPGSA,M,3,08,27,01,32,07,,,,,,,,3.6,3.3,1.5*35
$GPGSV,3,1,12,08,73,303,18,27,62,117,23,01,22,255,14,32,11,117,13*78
$GPGSV,3,2,12,07,05,273,15,33,33,198,,10,52,072,,11,29,274,*72
$GPGSV,3,3,12,18,24,049,,16,20,176,,28,10,325,,22,09,203,*7A
$GPRMC,013659.000,A,4806.8163,N,00139.4472,W,5.33,189.53,060218,,,A*72
$GPGGA,013700.000,4806.8208,N,00139.4450,W,1,05,3.3,23.7,M,48.3,M,,0000*71
$GPGSA,M,3,08,27,01,32,07,,,,,,,,3.6,3.3,1.5*35
$GPRMC,013700.000,A,4806.8208,N,00139.4450,W,4.35,192.03,060218,,,A*79
$GPGGA,013701.000,4806.8257,N,00139.4429,W,1,05,3.3,23.5,M,48.3,M,,0000*76
$GPGSA,M,3,08,27,01,32,07,,,,,,,,3.6,3.3,1.5*35
$GPRMC,013701.000,A,4806.8257,N,00139.4429,W,3.27,193.83,060218,,,A*71
$GPGGA,013702.000,4806.8309,N,00139.4408,W,1,05,3.3,23.3,M,48.3,M,,0000*7A
$GPGSA,M,3,08,27,01,32,07,,,,,,,,3.6,3.3,1.5*35
$GPRMC,013702.000,A,4806.8309,N,00139.4408,W,2.07,194.75,060218,,,A*76
$GPGGA,013703.000,4806.8308,N,00139.4406,W,1,05,3.3,23.5,M,48.3,M,,0000*72
$GPGSA,M,3,08,27,01,32,07,,,,,,,,3.6,3.3,1.5*35
arfcn: 983 bsic: 21 rxLev: -80 ber: 0.00 mcc: 208 mnc: 20 lac: 418 cellId: 21809 cellStatus: CELL_SUITABLE numArfcn: 1 arfcn: 983 numChannels: 24 array: 788 790 792 793 795 796 878 882 884 976 977 979 981 985 986 987 1012 1013 1014 1016 1017 1019 1020 1022 pbcch: 0 nom: 2 rac: 6 spgc: 0 pat: 6 nco: 0 t3168: 1500 t3192: 500 drxmax: 0 ctrlAck: 0 bsCVmax: 8 alpha: 6 pcMeasCh: 1 
$GPRMC,013703.000,A,4806.8308,N,00139.4406,W,3.13,196.26,060218,,,A*78
arfcn: 800 rxLev: -80
arfcn: 838 rxLev: -80
arfcn: 825 rxLev: -81
$GPGGA,013704.000,4806.8312,N,00139.4401,W,1,05,3.3,24.1,M,48.3,M,,0000*7A
$GPGSA,M,3,08,27,01,32,07,,,,,,,,3.6,3.3,1.5*35
$GPGSV,3,1,12,08,73,303,18,27,62,117,23,01,22,255,14,32,11,117,12*79
$GPGSV,3,2,12,07,05,273,14,37,27,150,,10,52,072,,11,29,274,*76
$GPGSV,3,3,12,18,24,049,,16,20,176,,28,10,325,,22,09,203,*7A
$GPRMC,013704.000,A,4806.8312,N,00139.4401,W,3.85,196.54,060218,,,A*79
$GPGGA,013705.000,4806.8302,N,00139.4405,W,0,00,,24.4,M,48.3,M,,0000*51
$GPGSA,M,1,,,,,,,,,,,,,,,*12
$GPRMC,013705.000,V,4806.8302,N,00139.4405,W,,,060218,,,N*64
arfcn: 604 bsic: 20 rxLev: -82 ber: 0.00 mcc: 208 mnc: 01 lac: 10300 cellId: 39915 cellStatus: CELL_FORBIDDEN numArfcn: 16 arfcn: 519 520 521 522 523 524 525 526 596 597 598 599 600 601 602 603 numChannels: 13 array: 5 6 10 15 16 512 514 516 517 518 608 609 610 pbcch: 0 nom: 2 rac: 1 spgc: 0 pat: 6 nco: 0 t3168: 1000 t3192: 500 drxmax: 2 ctrlAck: 0 bsCVmax: 9 alpha: 5 pcMeasCh: 1 
arfcn: 827 rxLev: -82
arfcn: 817 rxLev: -82
arfcn: 821 rxLev: -82
arfcn: 822 rxLev: -82
arfcn: 810 rxLev: -82
arfcn: 815 rxLev: -82
$GPGGA,013706.000,4806.8292,N,00139.4410,W,0,00,,24.8,M,48.3,M,,0000*52
$GPGSA,M,1,,,,,,,,,,,,,,,*12
arfcn: 798 rxLev: -82
arfcn: 835 rxLev: -82
$GPRMC,013706.000,V,4806.8292,N,00139.4410,W,,,060218,,,N*6B
arfcn: 842 rxLev: -83
arfcn: 844 rxLev: -83
arfcn: 849 rxLev: -83
arfcn: 813 rxLev: -83
arfcn: 811 rxLev: -83
arfcn: 808 rxLev: -83
arfcn: 809 rxLev: -83
arfcn: 801 rxLev: -83
arfcn: 802 rxLev: -83
arfcn: 803 rxLev: -83
$GPGGA,013707.034,4806.8281,N,00139.4415,W,0,00,,25.1,M,48.3,M,,0000*5B
$GPGSA,M,1,,,,,,,,,,,,,,,*12
arfcn: 807 rxLev: -83
$GPRMC,013707.034,V,4806.8281,N,00139.4415,W,,,060218,,,N*6A
$GPGGA,013708.034,4806.8271,N,00139.4420,W,0,00,,25.4,M,48.3,M,,0000*58
$GPGSA,M,1,,,,,,,,,,,,,,,*12
$GPRMC,013708.034,V,4806.8271,N,00139.4420,W,,,060218,,,N*6C
$GPGGA,013709.034,,,,,0,04,3.5,,M,0.0,M,,0000*71
$GPGSA,M,1,,,,,,,,,,,,,,,*12
arfcn: 5 bsic: 1 rxLev: -83 ber: 0.00 mcc: 208 mnc: 01 lac: 10300 cellId: 40079 cellStatus: CELL_FORBIDDEN numArfcn: 13 arfcn: 5 17 18 19 20 21 22 23 24 25 47 48 49 numChannels: 20 array: 1 2 3 4 5 8 9 10 11 13 14 15 16 512 513 518 604 606 608 610 pbcch: 0 nom: 2 rac: 1 spgc: 0 pat: 6 nco: 0 t3168: 1000 t3192: 500 drxmax: 2 ctrlAck: 0 bsCVmax: 9 alpha: 5 pcMeasCh: 1 
$GPGSV,3,1,12,08,73,303,18,27,62,117,22,01,22,255,14,07,05,273,13*7B
$GPGSV,3,2,12,10,52,072,07,32,11,117,04,37,27,150,,11,29,274,*72
$GPGSV,3,3,12,18,24,049,,16,20,176,,28,10,325,,22,09,203,*7A
$GPRMC,013709.034,V,,,,,,,060218,,,N*4B
$GPGGA,013710.034,,,,,0,04,3.5,,M,0.0,M,,0000*79
$GPGSA,M,1,,,,,,,,,,,,,,,*12
$GPRMC,013710.034,V,,,,,,,060218,,,N*43
$GPGGA,013711.000,4806.8316,N,00139.4406,W,0,00,,24.3,M,48.3,M,,0000*55
$GPGSA,M,1,,,,,,,,,,,,,,,*12
$GPRMC,013711.000,V,4806.8316,N,00139.4406,W,,,060218,,,N*67
$GPGGA,013712.000,4806.8308,N,00139.4414,W,0,00,,24.4,M,48.3,M,,0000*5D
arfcn: 605 bsic: 33 rxLev: -83 ber: 0.00 mcc: 208 mnc: 01 lac: 10300 cellId: 27588 cellStatus: CELL_FORBIDDEN numArfcn: 22 arfcn: 525 526 527 528 529 530 531 532 533 534 535 587 588 589 590 591 592 593 594 595 596 597 numChannels: 18 array: 1 3 5 8 12 15 512 513 514 515 516 517 518 604 605 606 607 609 pbcch: 0 nom: 2 rac: 1 spgc: 0 pat: 6 nco: 0 t3168: 1000 t3192: 500 drxmax: 2 ctrlAck: 0 bsCVmax: 9 alpha: 5 pcMeasCh: 1 
arfcn: 806 rxLev: -83
$GPGSA,M,1,,,,,,,,,,,,,,,*12
arfcn: 804 rxLev: -83
arfcn: 805 rxLev: -83
$GPRMC,013712.000,V,4806.8308,N,00139.4414,W,,,060218,,,N*68
arfcn: 812 rxLev: -83
arfcn: 823 rxLev: -83
arfcn: 820 rxLev: -83
arfcn: 816 rxLev: -83
arfcn: 818 rxLev: -83
arfcn: 819 rxLev: -83
arfcn: 829 rxLev: -83
arfcn: 831 rxLev: -83
arfcn: 794 rxLev: -83
$GPGGA,013713.034,4806.8300,N,00139.4421,W,0,00,,24.6,M,48.3,M,,0000*57
arfcn: 848 rxLev: -83
$GPGSA,M,1,,,,,,,,,,,,,,,*12
arfcn: 843 rxLev: -83
arfcn: 833 rxLev: -83
$GPRMC,013713.034,V,4806.8300,N,00139.4421,W,,,060218,,,N*60
arfcn: 837 rxLev: -83
arfcn: 832 rxLev: -84
arfcn: 845 rxLev: -84
arfcn: 847 rxLev: -84
arfcn: 850 rxLev: -84
arfcn: 854 rxLev: -84
arfcn: 867 rxLev: -84
$GPGGA,013714.030,,,,,0,04,3.5,,M,0.0,M,,0000*79
arfcn: 793 rxLev: -84
$GPGSA,M,1,,,,,,,,,,,,,,,*12
arfcn: 799 rxLev: -84
arfcn: 826 rxLev: -84
$GPGSV,3,1,12,08,73,303,18,27,62,117,22,01,22,255,09,07,05,273,12*76
arfcn: 814 rxLev: -84
$GPGSV,3,2,12,10,52,072,06,32,11,117,04,37,27,150,,11,29,274,*73
$GPGSV,3,3,12,18,24,049,,16,20,176,,28,10,325,,22,09,203,*7A
$GPRMC,013714.030,V,,,,,,,060218,,,N*43
$GPGGA,013715.030,,,,,0,04,3.1,,M,0.0,M,,0000*7C
$GPGSA,M,1,,,,,,,,,,,,,,,*12
$GPRMC,013715.030,V,,,,,,,060218,,,N*42
$GPGGA,013716.000,,,,,0,04,3.1,,M,0.0,M,,0000*7C
$GPGSA,M,1,,,,,,,,,,,,,,,*12
$GPRMC,013716.000,V,,,,,,,060218,,,N*42
arfcn: 117 bsic: 12 rxLev: -84 ber: 0.00 mcc: 208 mnc: 10 lac: 49415 cellId: 3568 cellStatus: CELL_FORBIDDEN numArfcn: 2 arfcn: 82 117 numChannels: 17 array: 76 77 78 79 80 83 84 85 87 113 114 116 117 120 122 123 124 pbcch: 0 nom: 2 rac: 31 spgc: 0 pat: 6 nco: 0 t3168: 1000 t3192: 500 drxmax: 4 ctrlAck: 1 bsCVmax: 9 alpha: 10 pcMeasCh: 0 
arfcn: 34 rxLev: -84
$GPGGA,013717.000,,,,,0,04,3.1,,M,0.0,M,,0000*7D
$GPGSA,M,1,,,,,,,,,,,,,,,*12
$GPRMC,013717.000,V,,,,,,,060218,,,N*43
arfcn: 512 bsic: 25 rxLev: -84 ber: 0.03 mcc: 208 mnc: 01 lac: 10300 cellId: 40155 cellStatus: CELL_FORBIDDEN numArfcn: 16 arfcn: 519 520 521 522 523 524 525 526 596 597 598 599 600 601 602 603 numChannels: 16 array: 2 3 5 8 10 11 12 15 16 517 518 604 605 606 609 610 pbcch: 0 nom: 2 rac: 1 spgc: 0 pat: 6 nco: 0 t3168: 1000 t3192: 500 drxmax: 2 ctrlAck: 0 bsCVmax: 9 alpha: 5 pcMeasCh: 1 
arfcn: 824 rxLev: -84
arfcn: 830 rxLev: -84
$GPGGA,013718.000,,,,,0,04,3.1,,M,0.0,M,,0000*72
arfcn: 828 rxLev: -84
$GPGSA,M,1,,,,,,,,,,,,,,,*12
$GPRMC,013718.000,V,,,,,,,060218,,,N*4C
arfcn: 797 rxLev: -84
arfcn: 792 rxLev: -84
arfcn: 795 rxLev: -84
arfcn: 866 rxLev: -84
arfcn: 864 rxLev: -84
arfcn: 872 rxLev: -84
arfcn: 852 rxLev: -84
arfcn: 856 rxLev: -84
arfcn: 858 rxLev: -84
arfcn: 859 rxLev: -84
$GPGGA,013719.000,,,,,0,00,,,M,0.0,M,,0000*5B
$GPGSA,M,1,,,,,,,,,,,,,,,*12
arfcn: 840 rxLev: -84
arfcn: 841 rxLev: -84
$GPGSV,3,1,12,01,22,255,07,08,73,303,17,10,52,072,10,27,62,117,21*71
arfcn: 834 rxLev: -84
arfcn: 839 rxLev: -84
$GPGSV,3,2,12,32,11,117,04,37,27,150,,11,29,274,,18,24,049,*74
arfcn: 836 rxLev: -85
arfcn: 846 rxLev: -85
$GPGSV,3,3,12,16,20,176,,28,10,325,,22,09,203,,30,08,296,*7E
arfcn: 857 rxLev: -85
$GPRMC,013719.000,V,,,,,,,060218,,,N*4D
arfcn: 860 rxLev: -85
arfcn: 862 rxLev: -85
arfcn: 855 rxLev: -85
arfcn: 876 rxLev: -85
$GPGGA,013720.000,,,,,0,00,,,M,0.0,M,,0000*51
$GPGSA,M,1,,,,,,,,,,,,,,,*12
$GPRMC,013720.000,V,,,,,,,060218,,,N*47
$GPGGA,013721.030,,,,,0,00,,,M,0.0,M,,0000*53
$GPGSA,M,1,,,,,,,,,,,,,,,*12
$GPRMC,013721.030,V,,,,,,,060218,,,N*45
$GPGGA,013722.030,,,,,0,04,3.3,,M,0.0,M,,0000*7A
$GPGSA,M,1,,,,,,,,,,,,,,,*12
$GPRMC,013722.030,V,,,,,,,060218,,,N*46
$GPGGA,013723.030,,,,,0,04,3.3,,M,0.0,M,,0000*7B
$GPGSA,M,1,,,,,,,,,,,,,,,*12
$GPRMC,013723.030,V,,,,,,,060218,,,N*47
$GPGGA,013724.000,,,,,0,04,3.3,,M,0.0,M,,0000*7F
$GPGSA,M,1,,,,,,,,,,,,,,,*12
$GPGSV,3,1,12,08,73,303,17,27,62,117,21,10,52,072,09,32,11,117,14*7E
$GPGSV,3,2,12,01,22,255,06,37,27,150,,11,29,274,,18,24,049,*73
$GPGSV,3,3,12,16,20,176,,28,10,325,,22,09,203,,30,08,296,*7E
$GPRMC,013724.000,V,,,,,,,060218,,,N*43
$GPGGA,013725.000,,,,,0,04,3.3,,M,0.0,M,,0000*7E
$GPGSA,M,1,,,,,,,,,,,,,,,*12
$GPRMC,013725.000,V,,,,,,,060218,,,N*42
$GPGGA,013726.000,,,,,0,04,3.3,,M,0.0,M,,0000*7D
$GPGSA,M,1,,,,,,,,,,,,,,,*12
$GPRMC,013726.000,V,,,,,,,060218,,,N*41
$GPGGA,013727.000,4806.8260,N,00139.4470,W,1,04,3.3,22.1,M,48.3,M,,0000*7E
$GPGSA,M,3,08,27,10,32,,,,,,,,,4.0,3.3,2.3*36
$GPRMC,013727.000,A,4806.8260,N,00139.4470,W,2.87,203.94,060218,,,A*7A
$GPGGA,013728.000,4806.8267,N,00139.4472,W,1,04,3.3,21.8,M,48.3,M,,0000*7E
$GPGSA,M,3,08,27,10,32,,,,,,,,,4.0,3.3,2.3*36
$GPRMC,013728.000,A,4806.8267,N,00139.4472,W,2.19,203.92,060218,,,A*71
$GPGGA,013729.000,4806.8271,N,00139.4464,W,1,04,3.3,21.8,M,48.3,M,,0000*7F
$GPGSA,M,3,08,27,10,32,,,,,,,,,4.0,3.3,2.3*36
$GPGSV,3,1,12,08,73,303,17,27,62,117,20,10,52,072,08,32,11,117,15*7F
$GPGSV,3,2,12,01,22,255,06,37,27,150,,11,29,274,,18,24,049,*73
$GPGSV,3,3,12,16,20,176,,28,10,325,,22,09,203,,30,08,296,*7E
$GPRMC,013729.000,A,4806.8271,N,00139.4464,W,1.75,202.02,060218,,,A*71
$GPGGA,013730.000,4806.8266,N,00139.4465,W,0,00,,21.7,M,48.3,M,,0000*54
$GPGSA,M,1,,,,,,,,,,,,,,,*12
$GPRMC,013730.000,V,4806.8266,N,00139.4465,W,,,060218,,,N*67
arfcn: 606 bsic: 57 rxLev: -85 ber: 4.11 mcc: 208 mnc: 01 lac: 10301 cellId: 27485 cellStatus: CELL_FORBIDDEN numArfcn: 16 arfcn: 519 520 521 522 523 524 525 526 596 597 598 599 600 601 602 603 numChannels: 15 array: 3 4 6 10 12 512 513 514 515 516 517 604 605 608 609
arfcn: 33 rxLev: -85
arfcn: 31 rxLev: -85
arfcn: 32 rxLev: -85
arfcn: 44 rxLev: -85
arfcn: 43 rxLev: -85
$GPGGA,013731.000,4806.8261,N,00139.4466,W,0,00,,21.7,M,48.3,M,,0000*51
$GPGSA,M,1,,,,,,,,,,,,,,,*12
arfcn: 45 rxLev: -85
arfcn: 35 rxLev: -85
$GPRMC,013731.000,V,4806.8261,N,00139.4466,W,,,060218,,,N*62
arfcn: 36 rxLev: -85
arfcn: 30 rxLev: -85
arfcn: 13 rxLev: -85
$GPGGA,013732.029,4806.8256,N,00139.4467,W,0,00,,21.7,M,48.3,M,,0000*5C
$GPGSA,M,1,,,,,,,,,,,,,,,*12
$GPRMC,013732.029,V,4806.8256,N,00139.4467,W,,,060218,,,N*6F
$GPGGA,013733.030,4806.8251,N,00139.4468,W,0,00,,21.6,M,48.3,M,,0000*5C
$GPGSA,M,1,,,,,,,,,,,,,,,*12
arfcn: 124 bsic: 2 rxLev: -85 ber: 0.05 mcc: 208 mnc: 10 lac: 49415 cellId: 43517 cellStatus: CELL_FORBIDDEN numArfcn: 2 arfcn: 112 124 numChannels: 14 array: 76 77 78 80 82 85 114 115 117 118 120 121 122 124 pbcch: 0 nom: 2 rac: 31 spgc: 0 pat: 6 nco: 0 t3168: 1000 t3192: 500 drxmax: 4 ctrlAck: 1 bsCVmax: 9 alpha: 10 pcMeasCh: 0 
arfcn: 878 rxLev: -85
$GPRMC,013733.030,V,4806.8251,N,00139.4468,W,,,060218,,,N*6E
arfcn: 874 rxLev: -85
arfcn: 868 rxLev: -85
arfcn: 853 rxLev: -85
arfcn: 851 rxLev: -85
arfcn: 861 rxLev: -85
arfcn: 869 rxLev: -86
arfcn: 870 rxLev: -86
arfcn: 873 rxLev: -86
$GPGGA,013734.030,,,,,0,04,3.3,,M,0.0,M,,0000*7D
arfcn: 879 rxLev: -86
$GPGSA,M,1,,,,,,,,,,,,,,,*12
arfcn: 880 rxLev: -86
arfcn: 42 rxLev: -86
$GPGSV,3,1,12,08,73,303,17,27,62,117,20,10,52,072,08,32,11,117,15*7F
arfcn: 41 rxLev: -86
arfcn: 28 rxLev: -86
$GPGSV,3,2,12,01,22,255,05,39,31,144,,11,29,274,,18,24,049,*7C
arfcn: 877 rxLev: -86
arfcn: 875 rxLev: -86
$GPGSV,3,3,12,16,20,176,,28,10,325,,22,09,203,,30,08,296,*7E
arfcn: 871 rxLev: -86
$GPRMC,013734.030,V,,,,,,,060218,,,N*41
arfcn: 865 rxLev: -86
arfcn: 863 rxLev: -86
arfcn: 29 rxLev: -87
arfcn: 37 rxLev: -87
$GPGGA,013735.030,,,,,0,04,3.3,,M,0.0,M,,0000*7C
$GPGSA,M,1,,,,,,,,,,,,,,,*12
$GPRMC,013735.030,V,,,,,,,060218,,,N*40
$GPGGA,013736.000,4806.8267,N,00139.4470,W,0,00,,21.5,M,48.3,M,,0000*55
$GPGSA,M,1,,,,,,,,,,,,,,,*12
$GPRMC,013736.000,V,4806.8267,N,00139.4470,W,,,060218,,,N*64
$GPGGA,013737.000,,,,,0,04,3.3,,M,0.0,M,,0000*7D
$GPGSA,M,1,,,,,,,,,,,,,,,*12
$GPRMC,013737.000,V,,,,,,,060218,,,N*41
$GPGGA,013738.030,,,,,0,04,3.3,,M,0.0,M,,0000*71
$GPGSA,M,1,,,,,,,,,,,,,,,*12
$GPRMC,013738.030,V,,,,,,,060218,,,N*4D
arfcn: 3 bsic: 0 rxLev: -87 ber: 0.01 mcc: 208 mnc: 01 lac: 10300 cellId: 2686 cellStatus: CELL_FORBIDDEN numArfcn: 13 arfcn: 3 17 18 19 20 21 22 23 24 25 47 48 49 numChannels: 13 array: 1 5 6 7 10 12 14 512 515 517 604 606 608 pbcch: 0 nom: 2 rac: 1 spgc: 0 pat: 6 nco: 0 t3168: 1000 t3192: 500 drxmax: 2 ctrlAck: 0 bsCVmax: 9 alpha: 5 pcMeasCh: 1 
arfcn: 40 rxLev: -87
$GPGGA,013739.000,,,,,0,05,2.9,,M,0.0,M,,0000*79
$GPGSA,M,1,,,,,,,,,,,,,,,*12
$GPGSV,3,1,12,08,73,303,16,27,62,117,20,10,52,072,08,32,11,117,15*7E
$GPGSV,3,2,12,07,05,273,13,01,22,255,06,39,31,144,,11,29,274,*7B
$GPGSV,3,3,12,18,24,049,,16,20,176,,28,10,325,,22,09,203,*7A
$GPRMC,013739.000,V,,,,,,,060218,,,N*4F
$GPGGA,013740.000,,,,,0,05,2.9,,M,0.0,M,,0000*77
$GPGSA,M,1,,,,,,,,,,,,,,,*12
$GPRMC,013740.000,V,,,,,,,060218,,,N*41
arfcn: 122 bsic: 3 rxLev: -87 ber: 0.00 mcc: 208 mnc: 10 lac: 49415 cellId: 33517 cellStatus: CELL_FORBIDDEN numArfcn: 3 arfcn: 77 88 122 numChannels: 17 array: 77 78 79 80 82 84 85 86 114 115 117 118 119 120 122 123 124 pbcch: 0 nom: 2 rac: 31 spgc: 0 pat: 6 nco: 0 t3168: 1000 t3192: 500 drxmax: 4 ctrlAck: 1 bsCVmax: 9 alpha: 10 pcMeasCh: 0 
arfcn: 39 rxLev: -88
arfcn: 63 rxLev: -88
arfcn: 11 rxLev: -88
arfcn: 38 rxLev: -88
arfcn: 27 rxLev: -88
arfcn: 881 rxLev: -88
arfcn: 791 rxLev: -88
$GPGGA,013741.000,,,,,0,05,2.9,,M,0.0,M,,0000*76
$GPGSA,M,1,,,,,,,,,,,,,,,*12
$GPRMC,013741.000,V,,,,,,,060218,,,N*40
$GPGGA,013742.000,4806.8327,N,00139.4515,W,1,05,2.9,21.8,M,48.3,M,,0000*7D
$GPGSA,M,3,08,27,10,32,07,,,,,,,,3.2,2.9,1.5*3A
$GPRMC,013742.000,A,4806.8327,N,00139.4515,W,1.64,208.53,060218,,,A*77
$GPGGA,013743.000,4806.8346,N,00139.4513,W,1,05,2.9,22.5,M,48.3,M,,0000*73
$GPGSA,M,3,08,27,10,32,07,,,,,,,,3.2,2.9,1.5*3A
$GPRMC,013743.000,A,4806.8346,N,00139.4513,W,1.26,210.36,060218,,,A*7B
$GPGGA,013744.000,4806.8361,N,00139.4513,W,1,05,2.9,23.1,M,48.3,M,,0000*74
$GPGSA,M,3,08,27,10,32,07,,,,,,,,3.2,2.9,1.5*3A
$GPGSV,3,1,12,08,73,303,16,27,62,117,20,10,52,072,11,32,11,117,14*77
arfcn: 1 bsic: 44 rxLev: -88 ber: 3.04 mcc: 208 mnc: 01 lac: 10300 cellId: 6468 cellStatus: CELL_FORBIDDEN numArfcn: 13 arfcn: 1 17 18 19 20 21 22 23 24 25 47 48 49 numChannels: 24 array: 2 4 5 6 7 8 9 10 11 12 15 512 513 514 515 516 517 518 605 606 607 608 609 610 pbcch: 0 nom: 2 rac: 1 spgc: 0 pat: 6 nco: 0 t3168: 1000 t3192: 500 drxmax: 2 ctrlAck: 0 bsCVmax: 9 alpha: 5 pcMeasCh: 1 
arfcn: 56 rxLev: -88
arfcn: 57 rxLev: -88
$GPGSV,3,2,12,07,05,273,14,01,22,255,06,39,31,144,,11,29,274,*7C
arfcn: 62 rxLev: -88
arfcn: 46 rxLev: -88
$GPGSV,3,3,12,18,24,049,,16,20,176,,28,10,325,,22,09,203,*7A
$GPRMC,013744.000,A,4806.8361,N,00139.4513,W,1.33,213.15,060218,,,A*7F
$GPGGA,013745.000,4806.8368,N,00139.4513,W,1,05,2.9,23.2,M,48.3,M,,0000*7F
$GPGSA,M,3,08,27,10,32,07,,,,,,,,3.2,2.9,1.5*3A
$GPRMC,013745.000,A,4806.8368,N,00139.4513,W,0.98,213.15,060218,,,A*77
$GPGGA,013746.000,4806.8382,N,00139.4507,W,1,05,2.9,23.0,M,48.3,M,,0000*7F
$GPGSA,M,3,08,27,10,32,07,,,,,,,,3.2,2.9,1.5*3A
$GPRMC,013746.000,A,4806.8382,N,00139.4507,W,0.79,213.15,060218,,,A*7A
$GPGGA,013747.000,4806.8388,N,00139.4499,W,1,06,2.4,23.0,M,48.3,M,,0000*7C
$GPGSA,M,3,08,27,10,01,32,07,,,,,,,2.8,2.4,1.6*3E
$GPRMC,013747.000,A,4806.8388,N,00139.4499,W,0.81,213.15,060218,,,A*70
arfcn: 979 bsic: 19 rxLev: -88 ber: 0.03 mcc: 208 mnc: 20 lac: 418 cellId: 20718 cellStatus: CELL_SUITABLE numArfcn: 1 arfcn: 979 numChannels: 22 array: 788 789 790 792 793 795 878 882 884 977 981 983 984 985 986 987 1012 1013 1014 1017 1019 1020 pbcch: 0 nom: 2 rac: 6 spgc: 0 pat: 6 nco: 0 t3168: 1500 t3192: 500 drxmax: 0 ctrlAck: 0 bsCVmax: 8 alpha: 6 pcMeasCh: 1 
arfcn: 79 rxLev: -88
$GPGGA,013748.000,4806.8397,N,00139.4490,W,1,05,2.9,22.9,M,48.3,M,,0000*72
arfcn: 81 rxLev: -88
$GPGSA,M,3,08,27,10,32,07,,,,,,,,3.2,2.9,1.5*3A
$GPRMC,013748.000,A,4806.8397,N,00139.4490,W,1.01,213.15,060218,,,A*71
$GPGGA,013749.000,4806.8410,N,00139.4478,W,1,06,2.4,23.0,M,48.3,M,,0000*7B
$GPGSA,M,3,08,27,10,01,32,07,,,,,,,2.8,2.4,1.6*3E
$GPGSV,3,1,12,08,73,303,16,27,62,117,21,10,52,072,10,01,22,255,09*7E
$GPGSV,3,2,12,32,11,117,09,07,05,273,14,39,31,144,,11,29,274,*76
$GPGSV,3,3,12,18,24,049,,16,20,176,,28,10,325,,22,09,203,*7A
$GPRMC,013749.000,A,4806.8410,N,00139.4478,W,1.33,224.72,060218,,,A*7A
arfcn: 514 bsic: 1 rxLev: -88 ber: 0.00 mcc: 208 mnc: 01 lac: 10300 cellId: 39259 cellStatus: CELL_FORBIDDEN numArfcn: 17 arfcn: 514 519 520 521 522 523 524 525 526 596 597 598 599 600 601 602 603 numChannels: 14 array: 1 6 8 10 12 14 512 513 514 517 604 605 606 608 pbcch: 0 nom: 2 rac: 1 spgc: 1 pat: 6 nco: 0 t3168: 1000 t3192: 500 drxmax: 4 ctrlAck: 1 bsCVmax: 9 alpha: 7 pcMeasCh: 0 
$GPGGA,013750.000,4806.8429,N,00139.4467,W,1,05,2.8,22.9,M,48.3,M,,0000*70
$GPGSA,M,3,08,27,10,01,07,,,,,,,,3.3,2.8,1.9*36
$GPRMC,013750.000,A,4806.8429,N,00139.4467,W,1.61,245.63,060218,,,A*76
$GPGGA,013751.000,4806.8465,N,00139.4443,W,1,05,2.8,23.2,M,48.3,M,,0000*75
$GPGSA,M,3,08,27,10,01,07,,,,,,,,3.3,2.8,1.9*36
$GPRMC,013751.000,A,4806.8465,N,00139.4443,W,2.94,301.18,060218,,,A*7D
$GPGGA,013752.000,4806.8467,N,00139.4444,W,1,05,2.8,23.2,M,48.3,M,,0000*73
$GPGSA,M,3,08,27,10,01,07,,,,,,,,3.3,2.8,1.9*36
$GPRMC,013752.000,A,4806.8467,N,00139.4444,W,2.35,325.29,060218,,,A*74
arfcn: 515 bsic: 34 rxLev: -88 ber: 0.00 mcc: 208 mnc: 01 lac: 10300 cellId: 27586 cellStatus: CELL_FORBIDDEN numArfcn: 16 arfcn: 519 520 521 522 523 524 525 526 596 597 598 599 600 601 602 603 numChannels: 9 array: 1 8 12 512 513 516 605 606 607 pbcch: 0 nom: 2 rac: 1 spgc: 0 pat: 6 nco: 0 t3168: 1000 t3192: 500 drxmax: 2 ctrlAck: 0 bsCVmax: 9 alpha: 5 pcMeasCh: 1 
arfcn: 94 rxLev: -89
arfcn: 96 rxLev: -89
arfcn: 55 rxLev: -89
$GPGGA,013753.000,4806.8478,N,00139.4442,W,1,05,2.8,23.1,M,48.3,M,,0000*79
arfcn: 64 rxLev: -89
arfcn: 68 rxLev: -89
$GPGSA,M,3,08,27,10,01,07,,,,,,,,3.3,2.8,1.9*36
arfcn: 67 rxLev: -89
arfcn: 69 rxLev: -89
$GPRMC,013753.000,A,4806.8478,N,00139.4442,W,2.27,336.14,060218,,,A*72
arfcn: 95 rxLev: -89
arfcn: 92 rxLev: -89
arfcn: 93 rxLev: -89
arfcn: 105 rxLev: -89
arfcn: 97 rxLev: -90
arfcn: 58 rxLev: -90
arfcn: 60 rxLev: -90
$GPGGA,013754.000,4806.8501,N,00139.4437,W,1,04,3.4,23.0,M,48.3,M,,0000*7E
$GPGSA,M,3,08,27,10,07,,,,,,,,,3.9,3.4,1.9*30
$GPGSV,3,1,12,08,73,303,16,27,62,117,20,10,52,072,10,07,05,273,10*70
$GPGSV,3,2,12,01,22,255,11,32,11,117,08,39,31,144,,11,29,274,*75
$GPGSV,3,3,12,18,24,049,,16,20,176,,28,10,325,,22,09,203,*7A
$GPRMC,013754.000,A,4806.8501,N,00139.4437,W,2.90,342.81,060218,,,A*7B
$GPGGA,013755.000,4806.8518,N,00139.4432,W,1,04,3.4,22.9,M,48.3,M,,0000*7A
$GPGSA,M,3,08,27,10,07,,,,,,,,,3.9,3.4,1.9*30
$GPRMC,013755.000,A,4806.8518,N,00139.4432,W,3.03,346.99,060218,,,A*71
$GPGGA,013756.000,4806.8538,N,00139.4428,W,1,04,3.4,22.8,M,48.3,M,,0000*71
$GPGSA,M,3,08,27,10,07,,,,,,,,,3.9,3.4,1.9*30
arfcn: 2 bsic: 54 rxLev: -90 ber: 0.00 mcc: 208 mnc: 01 lac: 10300 cellId: 42646 cellStatus: CELL_FORBIDDEN numArfcn: 13 arfcn: 2 17 18 19 20 21 22 23 24 25 47 48 49 numChannels: 22 array: 1 5 6 7 8 10 12 13 15 16 512 514 515 516 517 518 604 606 607 608 609 610 pbcch: 0 nom: 2 rac: 1 spgc: 0 pat: 6 nco: 0 t3168: 1000 t3192: 500 drxmax: 2 ctrlAck: 0 bsCVmax: 9 alpha: 5 pcMeasCh: 1 
$GPRMC,013756.000,A,4806.8538,N,00139.4428,W,3.42,349.26,060218,,,A*75
$GPGGA,013757.000,4806.8559,N,00139.4420,W,1,04,3.4,22.6,M,48.3,M,,0000*71
$GPGSA,M,3,08,27,10,07,,,,,,,,,3.9,3.4,1.9*30
$GPRMC,013757.000,A,4806.8559,N,00139.4420,W,3.60,351.79,060218,,,A*78
$GPGGA,013758.000,4806.8576,N,00139.4412,W,1,04,3.4,22.5,M,48.3,M,,0000*71
$GPGSA,M,3,08,27,10,07,,,,,,,,,3.9,3.4,1.9*30
$GPRMC,013758.000,A,4806.8576,N,00139.4412,W,3.60,354.30,060218,,,A*73
arfcn: 608 bsic: 46 rxLev: -90 ber: 0.00 mcc: 208 mnc: 01 lac: 10300 cellId: 36733 cellStatus: CELL_FORBIDDEN numArfcn: 16 arfcn: 519 520 521 522 523 524 525 526 596 597 598 599 600 601 602 603 numChannels: 15 array: 1 3 6 7 10 12 14 512 513 514 515 517 604 605 606 pbcch: 0 nom: 2 rac: 1 spgc: 0 pat: 6 nco: 0 t3168: 1000 t3192: 500 drxmax: 2 ctrlAck: 0 bsCVmax: 9 alpha: 5 pcMeasCh: 1 
arfcn: 9 rxLev: -90
$GPGGA,013759.000,4806.8586,N,00139.4411,W,0,00,,22.5,M,48.3,M,,0000*50
arfcn: 26 rxLev: -90
$GPGSA,M,1,,,,,,,,,,,,,,,*12
arfcn: 61 rxLev: -90
arfcn: 65 rxLev: -90
$GPGSV,3,1,12,01,22,255,10,07,05,273,07,08,73,303,16,10,52,072,11*71
arfcn: 66 rxLev: -90
arfcn: 53 rxLev: -90
$GPGSV,3,2,12,27,62,117,20,32,11,117,05,39,31,144,,11,29,274,*7F
arfcn: 54 rxLev: -90
arfcn: 100 rxLev: -90
$GPGSV,3,3,12,18,24,049,,16,20,176,,28,10,325,,22,09,203,*7A
arfcn: 103 rxLev: -90
$GPRMC,013759.000,V,4806.8586,N,00139.4411,W,,,060218,,,N*62
$GPGGA,013800.000,4806.8596,N,00139.4410,W,0,00,,22.6,M,48.3,M,,0000*50
$GPGSA,M,1,,,,,,,,,,,,,,,*12
$GPRMC,013800.000,V,4806.8596,N,00139.4410,W,,,060218,,,N*61
$GPGGA,013801.030,4806.8606,N,00139.4409,W,0,00,,22.7,M,48.3,M,,0000*51
$GPGSA,M,1,,,,,,,,,,,,,,,*12
$GPRMC,013801.030,V,4806.8606,N,00139.4409,W,,,060218,,,N*61
arfcn: 76 bsic: 5 rxLev: -90 ber: 0.00 mcc: 208 mnc: 10 lac: 49415 cellId: 44813 cellStatus: CELL_FORBIDDEN numArfcn: 2 arfcn: 76 121 numChannels: 16 array: 76 77 78 79 80 82 84 85 86 113 114 117 118 121 123 124 pbcch: 0 nom: 2 rac: 31 spgc: 0 pat: 6 nco: 0 t3168: 1000 t3192: 500 drxmax: 4 ctrlAck: 1 bsCVmax: 9 alpha: 10 pcMeasCh: 0 
arfcn: 104 rxLev: -90
arfcn: 106 rxLev: -90
arfcn: 102 rxLev: -91
arfcn: 101 rxLev: -91
arfcn: 98 rxLev: -91
arfcn: 70 rxLev: -91
$GPGGA,013802.030,4806.8616,N,00139.4407,W,0,00,,22.7,M,48.3,M,,0000*5D
$GPGSA,M,1,,,,,,,,,,,,,,,*12
arfcn: 59 rxLev: -91
$GPRMC,013802.030,V,4806.8616,N,00139.4407,W,,,060218,,,N*6D
$GPGGA,013803.030,4806.8626,N,00139.4406,W,0,00,,22.8,M,48.3,M,,0000*51
$GPGSA,M,1,,,,,,,,,,,,,,,*12
$GPRMC,013803.030,V,4806.8626,N,00139.4406,W,,,060218,,,N*6E
$GPGGA,013804.030,4806.8636,N,00139.4405,W,0,00,,22.9,M,48.3,M,,0000*55
$GPGSA,M,1,,,,,,,,,,,,,,,*12
$GPGSV,3,1,12,01,22,255,07,07,05,273,06,08,73,303,16,10,52,072,13*74
$GPGSV,3,2,12,27,62,117,20,32,11,117,04,33,33,198,,11,29,274,*77
$GPGSV,3,3,12,18,24,049,,16,20,176,,28,10,325,,22,09,203,*7A
$GPRMC,013804.030,V,4806.8636,N,00139.4405,W,,,060218,,,N*6B
arfcn: 1014 bsic: 31 rxLev: -91 ber: 4.08 mcc: 208 mnc: 20 lac: 418 cellId: 20649 cellStatus: CELL_SUITABLE numArfcn: 1 arfcn: 1014 numChannels: 25 array: 788 789 790 791 793 795 796 879 884 977 978 979 980 981 982 983 984 985 987 1012 1013 1017 1020 1021 1022 pbcch: 0 nom: 2 rac: 6 spgc: 0 pat: 6 nco: 0 t3168: 1500 t3192: 500 drxmax: 0 ctrlAck: 0 bsCVmax: 8 alpha: 6 pcMeasCh: 1 
arfcn: 14 rxLev: -91
$GPGGA,013805.030,4806.8646,N,00139.4404,W,0,00,,22.9,M,48.3,M,,0000*52
$GPGSA,M,1,,,,,,,,,,,,,,,*12
$GPRMC,013805.030,V,4806.8646,N,00139.4404,W,,,060218,,,N*6C
$GPGGA,013806.030,4806.8656,N,00139.4403,W,0,00,,23.0,M,48.3,M,,0000*5F
$GPGSA,M,1,,,,,,,,,,,,,,,*12
$GPRMC,013806.030,V,4806.8656,N,00139.4403,W,,,060218,,,N*69
$GPGGA,013807.029,4806.8666,N,00139.4401,W,0,00,,23.1,M,48.3,M,,0000*56
$GPGSA,M,1,,,,,,,,,,,,,,,*12
$GPRMC,013807.029,V,4806.8666,N,00139.4401,W,,,060218,,,N*61
$GPGGA,013808.029,4806.8676,N,00139.4400,W,0,00,,23.1,M,48.3,M,,0000*59
$GPGSA,M,1,,,,,,,,,,,,,,,*12
$GPRMC,013808.029,V,4806.8676,N,00139.4400,W,,,060218,,,N*6E
$GPGGA,013809.030,4806.8686,N,00139.4399,W,0,00,,23.2,M,48.3,M,,0000*5B
$GPGSA,M,1,,,,,,,,,,,,,,,*12
$GPGSV,3,1,12,01,22,255,07,07,05,273,04,08,73,303,15,10,52,072,16*70
$GPGSV,3,2,12,27,62,117,20,32,11,117,04,33,33,198,,11,29,274,*77
$GPGSV,3,3,12,18,24,049,,16,20,176,,28,10,325,,22,09,203,*7A
$GPRMC,013809.030,V,4806.8686,N,00139.4399,W,,,060218,,,N*6F
$GPGGA,013810.030,4806.8696,N,00139.4398,W,0,00,,23.3,M,48.3,M,,0000*52
$GPGSA,M,1,,,,,,,,,,,,,,,*12
$GPRMC,013810.030,V,4806.8696,N,00139.4398,W,,,060218,,,N*67
$GPGGA,013811.029,,,,,0,04,3.1,,M,0.0,M,,0000*7F
$GPGSA,M,1,,,,,,,,,,,,,,,*12
$GPRMC,013811.029,V,,,,,,,060218,,,N*41
$GPGGA,013812.029,,,,,0,04,3.1,,M,0.0,M,,0000*7C
$GPGSA,M,1,,,,,,,,,,,,,,,*12
$GPRMC,013812.029,V,,,,,,,060218,,,N*42
$GPGGA,013813.000,,,,,0,04,3.1,,M,0.0,M,,0000*76
$GPGSA,M,1,,,,,,,,,,,,,,,*12
$GPRMC,013813.000,V,,,,,,,060218,,,N*48
$GPGGA,013814.000,,,,,0,05,2.7,,M,0.0,M,,0000*77
$GPGSA,M,1,,,,,,,,,,,,,,,*12
$GPGSV,3,1,12,08,73,303,15,27,62,117,20,10,52,072,17,01,22,255,13*70
$GPGSV,3,2,12,32,11,117,12,07,05,273,04,33,33,198,,11,29,274,*74
$GPGSV,3,3,12,18,24,049,,16,20,176,,28,10,325,,22,09,203,*7A
$GPRMC,013814.000,V,,,,,,,060218,,,N*4F
$GPGGA,013815.000,,,,,0,05,2.7,,M,0.0,M,,0000*76
$GPGSA,M,1,,,,,,,,,,,,,,,*12
$GPRMC,013815.000,V,,,,,,,060218,,,N*4E
arfcn: 4 bsic: 54 rxLev: -91 ber: 0.03 mcc: 208 mnc: 01 lac: 10300 cellId: 43768 cellStatus: CELL_FORBIDDEN numArfcn: 13 arfcn: 4 17 18 19 20 21 22 23 24 25 47 48 49 numChannels: 20 array: 1 3 5 6 7 8 12 13 14 513 514 515 517 518 601 605 606 608 609 610 pbcch: 0 nom: 2 rac: 1 spgc: 0 pat: 6 nco: 0 t3168: 1000 t3192: 500 drxmax: 2 ctrlAck: 0 bsCVmax: 9 alpha: 5 pcMeasCh: 1 
arfcn: 99 rxLev: -91
arfcn: 91 rxLev: -91
arfcn: 107 rxLev: -91
$GPGGA,013816.000,4806.8694,N,00139.4331,W,1,05,2.7,21.6,M,48.3,M,,0000*7E
arfcn: 108 rxLev: -91
$GPGSA,M,3,08,27,10,01,32,,,,,,,,3.3,2.7,1.9*3F
$GPRMC,013816.000,A,4806.8694,N,00139.4331,W,0.44,0.64,060218,,,A*79
$GPGGA,013817.000,4806.8694,N,00139.4319,W,1,05,2.7,21.0,M,48.3,M,,0000*73
$GPGSA,M,3,08,27,10,01,32,,,,,,,,3.3,2.7,1.9*3F
$GPRMC,013817.000,A,4806.8694,N,00139.4319,W,0.52,0.64,060218,,,A*75
arfcn: 115 bsic: 43 rxLev: -92 ber: 0.00 mcc: 208 mnc: 10 lac: 49415 cellId: 55710 cellStatus: CELL_FORBIDDEN numArfcn: 2 arfcn: 87 115 numChannels: 22 array: 76 77 78 79 80 82 83 84 85 86 113 114 115 116 117 118 119 120 121 122 123 124 pbcch: 0 nom: 2 rac: 31 spgc: 0 pat: 6 nco: 0 t3168: 1000 t3192: 500 drxmax: 4 ctrlAck: 1 bsCVmax: 9 alpha: 10 pcMeasCh: 0 
arfcn: 86 rxLev: -92
$GPGGA,013818.000,4806.8705,N,00139.4307,W,1,05,2.7,20.4,M,48.3,M,,0000*7F
$GPGSA,M,3,08,27,10,01,32,,,,,,,,3.3,2.7,1.9*3F
$GPRMC,013818.000,A,4806.8705,N,00139.4307,W,0.32,0.64,060218,,,A*7A
$GPGGA,013819.000,4806.8705,N,00139.4301,W,1,05,2.7,20.4,M,48.3,M,,0000*78
$GPGSA,M,3,08,27,10,01,32,,,,,,,,3.3,2.7,1.9*3F
$GPGSV,3,1,12,08,73,303,15,27,62,117,20,10,52,072,18,01,22,255,12*7E
$GPGSV,3,2,12,32,11,117,11,07,05,273,04,33,33,198,,11,29,274,*77
$GPGSV,3,3,12,18,24,049,,16,20,176,,28,10,325,,22,09,203,*7A
$GPRMC,013819.000,A,4806.8705,N,00139.4301,W,0.56,0.64,060218,,,A*7F
$GPGGA,013820.000,4806.8700,N,00139.4301,W,1,06,2.3,20.3,M,48.3,M,,0000*77
arfcn: 1016 bsic: 41 rxLev: -92 ber: 0.00 mcc: 208 mnc: 20 lac: 418 cellId: 23623 cellStatus: CELL_SUITABLE numArfcn: 1 arfcn: 1016 numChannels: 28 array: 787 788 791 792 793 794 795 879 880 883 884 975 977 978 979 981 982 983 986 987 1011 1012 1017 1018 1019 1020 1021 1022 pbcch: 0 nom: 2 rac: 6 spgc: 0 pat: 6 nco: 0 t3168: 1500 t3192: 500 drxmax: 4 ctrlAck: 1 bsCVmax: 8 alpha: 6 pcMeasCh: 1 
$GPGSA,M,3,08,27,10,01,32,07,,,,,,,2.8,2.3,1.6*39
$GPRMC,013820.000,A,4806.8700,N,00139.4301,W,0.93,0.64,060218,,,A*79
$GPGGA,013821.000,4806.8703,N,00139.4310,W,1,05,2.7,20.2,M,48.3,M,,0000*73
$GPGSA,M,3,08,27,10,01,07,,,,,,,,3.3,2.7,1.9*39
$GPRMC,013821.000,A,4806.8703,N,00139.4310,W,1.17,352.75,060218,,,A*72
$GPGGA,013822.000,4806.8707,N,00139.4322,W,1,05,2.7,20.0,M,48.3,M,,0000*77
$GPGSA,M,3,08,27,10,01,07,,,,,,,,3.3,2.7,1.9*39
$GPRMC,013822.000,A,4806.8707,N,00139.4322,W,1.33,343.90,060218,,,A*79
$GPGGA,013823.000,4806.8705,N,00139.4333,W,1,05,2.7,20.0,M,48.3,M,,0000*74
arfcn: 1017 bsic: 33 rxLev: -92 ber: 0.01 mcc: 208 mnc: 20 lac: 418 cellId: 20104 cellStatus: CELL_SUITABLE numArfcn: 3 arfcn: 986 987 1017 numChannels: 20 array: 788 790 885 975 976 978 979 980 981 982 986 987 1011 1012 1015 1017 1019 1020 1021 1022 pbcch: 0 nom: 2 rac: 7 spgc: 0 pat: 6 nco: 0 t3168: 1500 t3192: 500 drxmax: 4 ctrlAck: 1 bsCVmax: 8 alpha: 6 pcMeasCh: 1 
$GPGSA,M,3,08,27,10,01,07,,,,,,,,3.3,2.7,1.9*39
$GPRMC,013823.000,A,4806.8705,N,00139.4333,W,1.39,333.44,060218,,,A*7E
$GPGGA,013824.000,4806.8704,N,00139.4345,W,1,05,2.7,19.9,M,48.3,M,,0000*70
$GPGSA,M,3,08,27,10,01,07,,,,,,,,3.3,2.7,1.9*39
arfcn: 114 bsic: 6 rxLev: -92 ber: 4.06 mcc: 208 mnc: 10 lac: 49415 cellId: 44202 cellStatus: CELL_FORBIDDEN numArfcn: 2 arfcn: 80 114 numChannels: 20 array: 76 77 78 79 80 84 85 86 113 114 115 116 117 118 119 120 121 122 123 124 pbcch: 0 nom: 2 rac: 31 spgc: 0 pat: 6 nco: 0 t3168: 1000 t3192: 500 drxmax: 4 ctrlAck: 1 bsCVmax: 9 alpha: 10 pcMeasCh: 0 
$GPGSV,3,1,12,08,73,303,16,27,62,117,20,10,52,072,17,01,22,255,11*71
$GPGSV,3,2,12,07,05,273,11,33,33,198,,11,29,274,,18,24,049,*77
$GPGSV,3,3,12,16,20,176,,32,11,117,,28,10,325,,22,09,203,*7E
$GPRMC,013824.000,A,4806.8704,N,00139.4345,W,1.70,322.70,060218,,,A*73
$GPGGA,013825.000,4806.8709,N,00139.4352,W,1,05,2.7,19.5,M,48.3,M,,0000*76
$GPGSA,M,3,08,27,10,01,07,,,,,,,,3.3,2.7,1.9*39
$GPRMC,013825.000,A,4806.8709,N,00139.4352,W,1.59,317.27,060218,,,A*76
$GPGGA,013826.000,4806.8701,N,00139.4358,W,1,05,2.7,19.7,M,48.3,M,,0000*75
$GPGSA,M,3,08,27,10,01,07,,,,,,,,3.3,2.7,1.9*39
$GPRMC,013826.000,A,4806.8701,N,00139.4358,W,1.53,310.91,060218,,,A*77
$GPGGA,013827.000,4806.8707,N,00139.4363,W,1,05,2.7,19.5,M,48.3,M,,0000*78
$GPGSA,M,3,08,27,10,01,07,,,,,,,,3.3,2.7,1.9*39
$GPRMC,013827.000,A,4806.8707,N,00139.4363,W,1.38,307.80,060218,,,A*73
$GPGGA,013828.000,4806.8707,N,00139.4363,W,1,05,2.7,19.5,M,48.3,M,,0000*77
$GPGSA,M,3,08,27,10,01,07,,,,,,,,3.3,2.7,1.9*39
$GPRMC,013828.000,A,4806.8707,N,00139.4363,W,1.15,307.80,060218,,,A*73
$GPGGA,013829.000,4806.8698,N,00139.4364,W,1,05,2.7,19.7,M,48.3,M,,0000*74
$GPGSA,M,3,08,27,10,01,07,,,,,,,,3.3,2.7,1.9*39
$GPGSV,3,1,12,08,73,303,16,27,62,117,20,10,52,072,17,01,22,255,11*71
$GPGSV,3,2,12,07,05,273,11,33,33,198,,11,29,274,,18,24,049,*77
$GPGSV,3,3,12,16,20,176,,32,11,117,,28,10,325,,22,09,203,*7E
$GPRMC,013829.000,A,4806.8698,N,00139.4364,W,1.35,301.62,060218,,,A*7A
arfcn: 6 bsic: 2 rxLev: -92 ber: 6.01 mcc: FFF mnc: FF lac: 65535 cellId: 0 cellStatus: CELL_OTHER numArfcn: 13 arfcn: 6 17 18 19 20 21 22 23 24 25 47 48 49 numChannels: 16 array: 1 2 3 4 5 10 11 12 14 15 512 513 517 604 606 607
arfcn: 7 rxLev: -93
$GPGGA,013830.000,4806.8700,N,00139.4363,W,1,04,3.4,19.6,M,48.3,M,,0000*79
$GPGSA,M,3,08,27,10,07,,,,,,,,,3.9,3.4,1.9*30
arfcn: 109 rxLev: -93
arfcn: 71 rxLev: -94
$GPRMC,013830.000,A,4806.8700,N,00139.4363,W,0.83,301.62,060218,,,A*79
arfcn: 52 rxLev: -94
arfcn: 47 rxLev: -94
arfcn: 77 rxLev: -94
arfcn: 84 rxLev: -94
arfcn: 72 rxLev: -95
arfcn: 90 rxLev: -95
arfcn: 120 rxLev: -95
arfcn: 123 rxLev: -95
$GPGGA,013831.000,4806.8702,N,00139.4368,W,1,04,3.4,19.7,M,48.3,M,,0000*70
$GPGSA,M,3,08,27,10,07,,,,,,,,,3.9,3.4,1.9*30
$GPRMC,013831.000,A,4806.8702,N,00139.4368,W,1.09,301.62,060218,,,A*72
$GPGGA,013832.000,4806.8703,N,00139.4372,W,0,00,,19.6,M,48.3,M,,0000*54
$GPGSA,M,1,,,,,,,,,,,,,,,*12
$GPRMC,013832.000,V,4806.8703,N,00139.4372,W,,,060218,,,N*6D
arfcn: 516 bsic: 38 rxLev: -95 ber: 0.00 mcc: 208 mnc: 01 lac: 10300 cellId: 27540 cellStatus: CELL_FORBIDDEN numArfcn: 16 arfcn: 519 520 521 522 523 524 525 526 596 597 598 599 600 601 602 603 numChannels: 19 array: 1 2 6 7 9 10 11 15 512 513 514 515 517 604 605 606 607 609 610 pbcch: 0 nom: 2 rac: 1 spgc: 0 pat: 6 nco: 0 t3168: 1000 t3192: 500 drxmax: 2 ctrlAck: 0 bsCVmax: 9 alpha: 5 pcMeasCh: 1 
arfcn: 513 rxLev: -96
arfcn: 978 rxLev: -96
$GPGGA,013833.000,4806.8703,N,00139.4377,W,0,00,,19.5,M,48.3,M,,0000*53
arfcn: 110 rxLev: -96
$GPGSA,M,1,,,,,,,,,,,,,,,*12
$GPRMC,013833.000,V,4806.8703,N,00139.4377,W,,,060218,,,N*69
$GPGGA,013834.028,4806.8704,N,00139.4381,W,0,00,,19.4,M,48.3,M,,0000*51
$GPGSA,M,1,,,,,,,,,,,,,,,*12
$GPGSV,3,1,12,07,05,273,04,08,73,303,16,10,52,072,18,27,62,117,20*7D
$GPGSV,3,2,12,32,11,117,08,37,27,150,,11,29,274,,18,24,049,*78
$GPGSV,3,3,12,01,22,255,,16,20,176,,28,10,325,,22,09,203,*7B
$GPRMC,013834.028,V,4806.8704,N,00139.4381,W,,,060218,,,N*6A
$GPGGA,013835.028,4806.8704,N,00139.4386,W,0,00,,19.3,M,48.3,M,,0000*50
$GPGSA,M,1,,,,,,,,,,,,,,,*12
$GPRMC,013835.028,V,4806.8704,N,00139.4386,W,,,060218,,,N*6C
$GPGGA,013836.028,4806.8705,N,00139.4390,W,0,00,,19.2,M,48.3,M,,0000*54
$GPGSA,M,1,,,,,,,,,,,,,,,*12
$GPRMC,013836.028,V,4806.8705,N,00139.4390,W,,,060218,,,N*69
arfcn: 82 bsic: 63 rxLev: -96 ber: 0.01 mcc: 208 mnc: 10 lac: 49415 cellId: 53517 cellStatus: CELL_FORBIDDEN numArfcn: 2 arfcn: 82 84 numChannels: 17 array: 76 77 78 79 80 82 85 86 114 115 118 119 120 121 122 123 124 pbcch: 0 nom: 2 rac: 31 spgc: 0 pat: 6 nco: 0 t3168: 1000 t3192: 500 drxmax: 4 ctrlAck: 1 bsCVmax: 9 alpha: 10 pcMeasCh: 0 
arfcn: 15 rxLev: -96
arfcn: 25 rxLev: -97
$GPGGA,013837.028,,,,,0,04,3.2,,M,0.0,M,,0000*79
$GPGSA,M,1,,,,,,,,,,,,,,,*12
$GPRMC,013837.028,V,,,,,,,060218,,,N*44
$GPGGA,013838.028,,,,,0,04,3.2,,M,0.0,M,,0000*76
$GPGSA,M,1,,,,,,,,,,,,,,,*12
$GPRMC,013838.028,V,,,,,,,060218,,,N*4B
$GPGGA,013839.000,,,,,0,04,3.2,,M,0.0,M,,0000*7D
$GPGSA,M,1,,,,,,,,,,,,,,,*12
$GPGSV,3,1,12,08,73,303,17,27,62,117,21,10,52,072,18,32,11,117,11*7B
$GPGSV,3,2,12,07,05,273,04,37,27,150,,11,29,274,,18,24,049,*76
$GPGSV,3,3,12,01,22,255,,16,20,176,,28,10,325,,22,09,203,*7B
$GPRMC,013839.000,V,,,,,,,060218,,,N*40
$GPGGA,013840.000,,,,,0,04,3.2,,M,0.0,M,,0000*73
arfcn: 1021 bsic: 35 rxLev: -97 ber: 3.06 mcc: 208 mnc: 20 lac: 418 cellId: 20102 cellStatus: CELL_SUITABLE numArfcn: 3 arfcn: 975 982 1021 numChannels: 21 array: 788 790 880 885 975 976 977 978 980 981 982 986 987 1011 1012 1015 1017 1019 1020 1021 1022 pbcch: 0 nom: 2 rac: 7 spgc: 0 pat: 6 nco: 0 t3168: 1500 t3192: 500 drxmax: 4 ctrlAck: 1 bsCVmax: 8 alpha: 6 pcMeasCh: 1 
arfcn: 1015 rxLev: -97
$GPGSA,M,1,,,,,,,,,,,,,,,*12
$GPRMC,013840.000,V,,,,,,,060218,,,N*4E
$GPGGA,013841.000,,,,,0,04,3.2,,M,0.0,M,,0000*72
$GPGSA,M,1,,,,,,,,,,,,,,,*12
$GPRMC,013841.000,V,,,,,,,060218,,,N*4F
$GPGGA,013842.000,4806.8688,N,00139.4396,W,1,04,3.2,21.5,M,48.3,M,,0000*79
$GPGSA,M,3,08,27,10,32,,,,,,,,,4.0,3.2,2.3*37
$GPRMC,013842.000,A,4806.8688,N,00139.4396,W,0.29,309.09,060218,,,A*72
$GPGGA,013843.000,4806.8691,N,00139.4395,W,1,04,3.2,21.6,M,48.3,M,,0000*70
arfcn: 987 bsic: 40 rxLev: -97 ber: 5.05 mcc: 208 mnc: 20 lac: 418 cellId: 22381 cellStatus: CELL_SUITABLE numArfcn: 2 arfcn: 987 1018 numChannels: 25 array: 790 792 793 796 878 882 884 976 977 978 979 981 982 983 984 986 1011 1013 1014 1015 1016 1017 1019 1020 1022 pbcch: 0 nom: 2 rac: 6 spgc: 0 pat: 6 nco: 0 t3168: 1500 t3192: 500 drxmax: 0 ctrlAck: 0 bsCVmax: 8 alpha: 6 pcMeasCh: 1 
arfcn: 118 rxLev: -97
$GPGSA,M,3,08,27,10,32,,,,,,,,,4.0,3.2,2.3*37
arfcn: 116 rxLev: -98
$GPRMC,013843.000,A,4806.8691,N,00139.4395,W,0.42,309.09,060218,,,A*75
$GPGGA,013844.000,4806.8692,N,00139.4397,W,0,00,,21.8,M,48.3,M,,0000*52
$GPGSA,M,1,,,,,,,,,,,,,,,*12
$GPGSV,3,1,12,07,05,273,04,08,73,303,17,10,52,072,18,27,62,117,21*7D
$GPGSV,3,2,12,32,11,117,04,37,27,150,,11,29,274,,18,24,049,*74
$GPGSV,3,3,12,01,22,255,,16,20,176,,28,10,325,,22,09,203,*7B
$GPRMC,013844.000,V,4806.8692,N,00139.4397,W,,,060218,,,N*6E
$GPGGA,013845.000,4806.8692,N,00139.4398,W,0,00,,21.9,M,48.3,M,,0000*5D
$GPGSA,M,1,,,,,,,,,,,,,,,*12
$GPRMC,013845.000,V,4806.8692,N,00139.4398,W,,,060218,,,N*60
arfcn: 1019 bsic: 48 rxLev: -98 ber: 1.03 mcc: 208 mnc: 20 lac: 418 cellId: 20015 cellStatus: CELL_OTHER numArfcn: 2 arfcn: 1010 1019 numChannels: 20 array: 787 789 794 882 976 979 981 982 983 985 986 987 1012 1013 1015 1016 1017 1020 1021 1022 pbcch: 0 nom: 2 rac: 6 spgc: 0 pat: 6 nco: 0 t3168: 1500 t3192: 500 drxmax: 0 ctrlAck: 0 bsCVmax: 8 alpha: 4 pcMeasCh: 1 
$GPGGA,013846.028,4806.8693,N,00139.4400,W,0,00,,22.1,M,48.3,M,,0000*58
$GPGSA,M,1,,,,,,,,,,,,,,,*12
$GPRMC,013846.028,V,4806.8693,N,00139.4400,W,,,060218,,,N*6E
$GPGGA,013847.028,4806.8694,N,00139.4401,W,0,00,,22.2,M,48.3,M,,0000*5C
$GPGSA,M,1,,,,,,,,,,,,,,,*12
$GPRMC,013847.028,V,4806.8694,N,00139.4401,W,,,060218,,,N*69
$GPGGA,013848.028,4806.8694,N,00139.4403,W,0,00,,22.4,M,48.3,M,,0000*57
$GPGSA,M,1,,,,,,,,,,,,,,,*12
$GPRMC,013848.028,V,4806.8694,N,00139.4403,W,,,060218,,,N*64
arfcn: 1020 bsic: 39 rxLev: -98 ber: 5.02 mcc: 208 mnc: 20 lac: 418 cellId: 38980 cellStatus: CELL_SUITABLE numArfcn: 1 arfcn: 1020 numChannels: 26 array: 787 788 790 791 793 795 796 879 884 885 978 979 981 982 983 985 986 987 1011 1012 1013 1014 1015 1017 1019 1022 pbcch: 0 nom: 2 rac: 6 spgc: 0 pat: 6 nco: 0 t3168: 1500 t3192: 500 drxmax: 0 ctrlAck: 0 bsCVmax: 8 alpha: 6 pcMeasCh: 1 
arfcn: 729 rxLev: -98
arfcn: 659 rxLev: -99
arfcn: 121 rxLev: -99
arfcn: 73 rxLev: -99
arfcn: 75 rxLev: -99
arfcn: 977 rxLev: -99
$GPGGA,013849.028,,,,,0,04,3.2,,M,0.0,M,,0000*70
arfcn: 669 rxLev: -99
$GPGSA,M,1,,,,,,,,,,,,,,,*12
arfcn: 661 rxLev: -100
$GPGSV,3,1,12,08,73,303,16,27,62,117,21,10,52,072,19,32,11,117,12*78
arfcn: 639 rxLev: -100
arfcn: 603 rxLev: -100
$GPGSV,3,2,12,01,22,255,13,07,05,273,04,37,27,150,,11,29,274,*75
arfcn: 609 rxLev: -100
$GPGSV,3,3,12,18,24,049,,16,20,176,,28,10,325,,22,09,203,*7A
arfcn: 610 rxLev: -100
$GPRMC,013849.028,V,,,,,,,060218,,,N*4D
arfcn: 976 rxLev: -100
arfcn: 111 rxLev: -100
arfcn: 51 rxLev: -100
arfcn: 618 rxLev: -100
$GPGGA,013850.028,,,,,0,04,3.2,,M,0.0,M,,0000*78
arfcn: 607 rxLev: -100
$GPGSA,M,1,,,,,,,,,,,,,,,*12
arfcn: 621 rxLev: -100
$GPRMC,013850.028,V,,,,,,,060218,,,N*45
$GPGGA,013851.000,,,,,0,04,3.2,,M,0.0,M,,0000*73
$GPGSA,M,1,,,,,,,,,,,,,,,*12
$GPRMC,013851.000,V,,,,,,,060218,,,N*4E
arfcn: 517 bsic: 57 rxLev: -100 ber: 8.06 mcc: FFF mnc: FF lac: 65535 cellId: 0 cellStatus: CELL_OTHER numArfcn: 0 arfcn: numChannels: 0 array:
arfcn: 638 rxLev: -100
arfcn: 662 rxLev: -100
arfcn: 663 rxLev: -100
arfcn: 665 rxLev: -100
$GPGGA,013852.000,4806.8670,N,00139.4380,W,1,04,3.0,20.0,M,48.3,M,,0000*7E
arfcn: 680 rxLev: -100
$GPGSA,M,3,08,27,10,01,,,,,,,,,3.8,3.0,2.3*3A
arfcn: 667 rxLev: -101
arfcn: 631 rxLev: -101
$GPRMC,013852.000,A,4806.8670,N,00139.4380,W,0.28,281.99,060218,,,A*7A
arfcn: 632 rxLev: -101
arfcn: 651 rxLev: -101
arfcn: 620 rxLev: -101
arfcn: 625 rxLev: -101
arfcn: 626 rxLev: -101
arfcn: 619 rxLev: -101
arfcn: 617 rxLev: -101
$GPGGA,013853.000,,,,,0,04,3.0,,M,0.0,M,,0000*73
$GPGSA,M,1,,,,,,,,,,,,,,,*12
$GPRMC,013853.000,V,,,,,,,060218,,,N*4C
$GPGGA,013854.000,4806.8661,N,00139.4390,W,1,04,3.0,19.1,M,48.3,M,,0000*72
$GPGSA,M,3,08,27,10,01,,,,,,,,,3.8,3.0,2.3*3A
$GPGSV,3,1,12,08,73,303,16,27,62,117,21,10,52,072,20,01,22,255,12*77
$GPGSV,3,2,12,32,11,117,04,37,27,150,,11,29,274,,18,24,049,*74
$GPGSV,3,3,12,16,20,176,,28,10,325,,22,09,203,,30,08,296,*7E
$GPRMC,013854.000,A,4806.8661,N,00139.4390,W,1.79,265.06,060218,,,A*74
$GPGGA,013855.000,4806.8662,N,00139.4385,W,1,04,3.0,19.2,M,48.3,M,,0000*77
$GPGSA,M,3,08,27,10,01,,,,,,,,,3.8,3.0,2.3*3A
$GPRMC,013855.000,A,4806.8662,N,00139.4385,W,1.70,257.33,060218,,,A*7C
$GPGGA,013856.000,4806.8658,N,00139.4377,W,1,04,3.0,19.3,M,48.3,M,,0000*71
$GPGSA,M,3,08,27,10,01,,,,,,,,,3.8,3.0,2.3*3A
$GPRMC,013856.000,A,4806.8658,N,00139.4377,W,1.75,244.80,060218,,,A*74
arfcn: 1012 bsic: 19 rxLev: -101 ber: 1.03 mcc: 208 mnc: 20 lac: 418 cellId: 20011 cellStatus: CELL_OTHER numArfcn: 2 arfcn: 988 1012 numChannels: 24 array: 787 789 794 882 976 977 978 979 980 981 982 983 985 986 987 1011 1013 1014 1015 1016 1017 1019 1020 1021 pbcch: 0 nom: 2 rac: 6 spgc: 0 pat: 6 nco: 0 t3168: 1500 t3192: 500 drxmax: 0 ctrlAck: 0 bsCVmax: 8 alpha: 4 pcMeasCh: 1 
arfcn: 975 rxLev: -101
arfcn: 89 rxLev: -101
arfcn: 624 rxLev: -101
$GPGGA,013857.000,4806.8665,N,00139.4376,W,1,04,3.0,19.0,M,48.3,M,,0000*7C
arfcn: 622 rxLev: -101
$GPGSA,M,3,08,27,10,01,,,,,,,,,3.8,3.0,2.3*3A
arfcn: 649 rxLev: -101
arfcn: 658 rxLev: -101
$GPRMC,013857.000,A,4806.8665,N,00139.4376,W,1.38,242.53,060218,,,A*7B
arfcn: 653 rxLev: -101
arfcn: 655 rxLev: -101
arfcn: 630 rxLev: -101
arfcn: 628 rxLev: -101
arfcn: 636 rxLev: -101
arfcn: 643 rxLev: -101
arfcn: 664 rxLev: -101
$GPGGA,013858.000,4806.8663,N,00139.4380,W,1,04,3.0,19.0,M,48.3,M,,0000*7C
arfcn: 670 rxLev: -101
$GPGSA,M,3,08,27,10,01,,,,,,,,,3.8,3.0,2.3*3A
arfcn: 682 rxLev: -101
arfcn: 679 rxLev: -101
$GPRMC,013858.000,A,4806.8663,N,00139.4380,W,1.85,241.93,060218,,,A*72
arfcn: 716 rxLev: -101
arfcn: 696 rxLev: -101
arfcn: 751 rxLev: -101
arfcn: 759 rxLev: -102
arfcn: 703 rxLev: -102
arfcn: 718 rxLev: -102
arfcn: 730 rxLev: -102
arfcn: 677 rxLev: -102
arfcn: 684 rxLev: -102
$GPGGA,013859.000,4806.8668,N,00139.4383,W,1,04,3.0,18.7,M,48.3,M,,0000*73
arfcn: 687 rxLev: -102
$GPGSA,M,3,08,27,10,01,,,,,,,,,3.8,3.0,2.3*3A
arfcn: 671 rxLev: -102
arfcn: 672 rxLev: -102
$GPGSV,3,1,12,08,73,303,16,27,62,117,21,10,52,072,21,01,22,255,13*77
arfcn: 673 rxLev: -102
arfcn: 674 rxLev: -102
$GPGSV,3,2,12,32,11,117,04,37,27,150,,11,29,274,,18,24,049,*74
arfcn: 675 rxLev: -102
arfcn: 660 rxLev: -102
$GPGSV,3,3,12,16,20,176,,28,10,325,,22,09,203,,30,08,296,*7E
arfcn: 640 rxLev: -102
$GPRMC,013859.000,A,4806.8668,N,00139.4383,W,1.78,242.99,060218,,,A*70
arfcn: 629 rxLev: -102
arfcn: 652 rxLev: -102
arfcn: 657 rxLev: -102
$GPGGA,013900.000,4806.8670,N,00139.4385,W,1,04,3.0,18.3,M,48.3,M,,0000*75
arfcn: 648 rxLev: -102
$GPGSA,M,3,08,27,10,01,,,,,,,,,3.8,3.0,2.3*3A
arfcn: 650 rxLev: -102
arfcn: 644 rxLev: -102
$GPRMC,013900.000,A,4806.8670,N,00139.4385,W,1.49,244.37,060218,,,A*72
arfcn: 647 rxLev: -102
arfcn: 623 rxLev: -102
$GPGGA,013901.000,4806.8664,N,00139.4385,W,1,04,3.0,18.0,M,48.3,M,,0000*72
$GPGSA,M,3,08,27,10,01,,,,,,,,,3.8,3.0,2.3*3A
$GPRMC,013901.000,A,4806.8664,N,00139.4385,W,1.04,244.37,060218,,,A*7F
arfcn: 83 bsic: 58 rxLev: -102 ber: 8.05 mcc: FFF mnc: FF lac: 65535 cellId: 0 cellStatus: CELL_OTHER numArfcn: 0 arfcn: numChannels: 0 array:
$GPGGA,013902.000,4806.8650,N,00139.4385,W,1,05,2.7,18.1,M,48.3,M,,0000*70
arfcn: 17 rxLev: -102
arfcn: 627 rxLev: -102
$GPGSA,M,3,08,27,10,01,32,,,,,,,,3.3,2.7,1.9*3F
arfcn: 549 rxLev: -102
arfcn: 988 rxLev: -102
$GPRMC,013902.000,A,4806.8650,N,00139.4385,W,1.43,243.16,060218,,,A*7C
arfcn: 646 rxLev: -102
arfcn: 645 rxLev: -102
arfcn: 654 rxLev: -102
arfcn: 633 rxLev: -102
arfcn: 635 rxLev: -102
arfcn: 641 rxLev: -102
arfcn: 642 rxLev: -102
$GPGGA,013903.000,4806.8639,N,00139.4381,W,1,05,2.7,17.9,M,48.3,M,,0000*7D
arfcn: 666 rxLev: -102
arfcn: 686 rxLev: -102
$GPGSA,M,3,08,27,10,01,32,,,,,,,,3.3,2.7,1.9*3F
arfcn: 685 rxLev: -102
arfcn: 676 rxLev: -102
$GPRMC,013903.000,A,4806.8639,N,00139.4381,W,1.30,240.09,060218,,,A*7F
arfcn: 678 rxLev: -102
arfcn: 681 rxLev: -102
arfcn: 728 rxLev: -102
arfcn: 704 rxLev: -102
arfcn: 698 rxLev: -102
arfcn: 750 rxLev: -102
arfcn: 749 rxLev: -102
$GPGGA,013904.000,4806.8639,N,00139.4383,W,1,05,2.7,18.3,M,48.3,M,,0000*7D
arfcn: 748 rxLev: -103
$GPGSA,M,3,08,27,10,01,32,,,,,,,,3.3,2.7,1.9*3F
arfcn: 744 rxLev: -103
arfcn: 745 rxLev: -103
$GPGSV,3,1,12,08,73,303,17,27,62,117,21,10,52,072,21,01,22,255,13*76
arfcn: 747 rxLev: -103
arfcn: 692 rxLev: -103
$GPGSV,3,2,12,32,11,117,11,39,31,144,,11,29,274,,18,24,049,*7C
arfcn: 694 rxLev: -103
arfcn: 706 rxLev: -103
$GPGSV,3,3,12,16,20,176,,28,10,325,,22,09,203,,30,08,296,*7E
arfcn: 715 rxLev: -103
arfcn: 702 rxLev: -103
$GPRMC,013904.000,A,4806.8639,N,00139.4383,W,1.26,239.81,060218,,,A*73
arfcn: 700 rxLev: -103
arfcn: 722 rxLev: -103
arfcn: 777 rxLev: -103
$GPGGA,013905.000,4806.8638,N,00139.4387,W,1,05,2.7,18.7,M,48.3,M,,0000*7D
arfcn: 778 rxLev: -103
$GPGSA,M,3,08,27,10,01,32,,,,,,,,3.3,2.7,1.9*3F
arfcn: 683 rxLev: -103
arfcn: 688 rxLev: -103
$GPRMC,013905.000,A,4806.8638,N,00139.4387,W,1.42,240.91,060218,,,A*7A
arfcn: 689 rxLev: -103
arfcn: 634 rxLev: -103
arfcn: 119 rxLev: -103
arfcn: 0 rxLev: -103
arfcn: 690 rxLev: -103
arfcn: 668 rxLev: -103
arfcn: 1018 rxLev: -103
arfcn: 772 rxLev: -103
arfcn: 773 rxLev: -103
$GPGGA,013906.000,4806.8627,N,00139.4387,W,1,05,2.7,19.1,M,48.3,M,,0000*77
$GPGSA,M,3,08,27,10,01,32,,,,,,,,3.3,2.7,1.9*3F
arfcn: 769 rxLev: -103
arfcn: 720 rxLev: -103
$GPRMC,013906.000,A,4806.8627,N,00139.4387,W,1.65,239.00,060218,,,A*74
arfcn: 731 rxLev: -103
arfcn: 727 rxLev: -103
arfcn: 701 rxLev: -103
arfcn: 699 rxLev: -103
arfcn: 746 rxLev: -103
arfcn: 740 rxLev: -103
arfcn: 734 rxLev: -103
arfcn: 738 rxLev: -103
arfcn: 761 rxLev: -103
$GPGGA,013907.000,4806.8631,N,00139.4387,W,1,05,2.7,19.0,M,48.3,M,,0000*70
arfcn: 762 rxLev: -104
$GPGSA,M,3,08,27,10,01,32,,,,,,,,3.3,2.7,1.9*3F
arfcn: 736 rxLev: -104
arfcn: 732 rxLev: -104
$GPRMC,013907.000,A,4806.8631,N,00139.4387,W,1.15,239.00,060218,,,A*75
arfcn: 742 rxLev: -104
arfcn: 697 rxLev: -104
arfcn: 695 rxLev: -104
arfcn: 693 rxLev: -104
arfcn: 705 rxLev: -104
arfcn: 726 rxLev: -104
arfcn: 768 rxLev: -104
arfcn: 770 rxLev: -104
arfcn: 767 rxLev: -104
$GPGGA,013908.000,4806.8632,N,00139.4387,W,1,05,2.7,19.1,M,48.3,M,,0000*7D
arfcn: 779 rxLev: -104
$GPGSA,M,3,08,27,10,01,32,,,,,,,,3.3,2.7,1.9*3F
$GPRMC,013908.000,A,4806.8632,N,00139.4387,W,1.17,239.00,060218,,,A*7B
$GPGGA,013909.000,4806.8621,N,00139.4389,W,1,05,2.7,19.5,M,48.3,M,,0000*74
$GPGSA,M,3,08,27,10,01,32,,,,,,,,3.3,2.7,1.9*3F
$GPGSV,3,1,12,08,73,303,16,27,62,117,21,10,52,072,20,01,22,255,13*76
$GPGSV,3,2,12,32,11,117,11,39,31,144,,11,29,274,,18,24,049,*7C
$GPGSV,3,3,12,16,20,176,,28,10,325,,22,09,203,,30,08,296,*7E
arfcn: 1011 bsic: 26 rxLev: -104 ber: 8.03 mcc: FFF mnc: FF lac: 65535 cellId: 0 cellStatus: CELL_OTHER numArfcn: 0 arfcn: numChannels: 0 array:
$GPRMC,013909.000,A,4806.8621,N,00139.4389,W,1.99,235.04,060218,,,A*78
arfcn: 518 rxLev: -104
arfcn: 637 rxLev: -104
arfcn: 656 rxLev: -104
arfcn: 691 rxLev: -104
$GPGGA,013910.000,4806.8615,N,00139.4390,W,1,04,3.0,19.9,M,48.3,M,,0000*78
arfcn: 16 rxLev: -104
$GPGSA,M,3,08,27,10,01,,,,,,,,,3.8,3.0,2.3*3A
arfcn: 771 rxLev: -104
$GPRMC,013910.000,A,4806.8615,N,00139.4390,W,2.29,231.86,060218,,,A*79
arfcn: 790 rxLev: -104
arfcn: 724 rxLev: -104
arfcn: 725 rxLev: -104
arfcn: 743 rxLev: -104
arfcn: 741 rxLev: -104
arfcn: 735 rxLev: -104
arfcn: 737 rxLev: -104
$GPGGA,013911.000,4806.8618,N,00139.4393,W,1,04,3.0,19.8,M,48.3,M,,0000*76
arfcn: 758 rxLev: -104
arfcn: 757 rxLev: -104
$GPGSA,M,3,08,27,10,01,,,,,,,,,3.8,3.0,2.3*3A
arfcn: 752 rxLev: -104
arfcn: 753 rxLev: -104
$GPRMC,013911.000,A,4806.8618,N,00139.4393,W,2.21,232.04,060218,,,A*77
arfcn: 755 rxLev: -104
arfcn: 763 rxLev: -105
arfcn: 760 rxLev: -105
arfcn: 739 rxLev: -105
arfcn: 721 rxLev: -105
arfcn: 723 rxLev: -105
arfcn: 717 rxLev: -105
arfcn: 788 rxLev: -105
$GPGGA,013912.000,4806.8624,N,00139.4397,W,1,04,3.0,19.7,M,48.3,M,,0000*71
arfcn: 775 rxLev: -105
$GPGSA,M,3,08,27,10,01,,,,,,,,,3.8,3.0,2.3*3A
arfcn: 113 rxLev: -105
arfcn: 74 rxLev: -105
$GPRMC,013912.000,A,4806.8624,N,00139.4397,W,2.07,234.32,060218,,,A*78
arfcn: 546 rxLev: -105
arfcn: 774 rxLev: -105
arfcn: 776 rxLev: -105
arfcn: 766 rxLev: -105
arfcn: 764 rxLev: -105
arfcn: 765 rxLev: -105
arfcn: 780 rxLev: -105
$GPGGA,013913.000,4806.8627,N,00139.4398,W,1,04,3.0,19.5,M,48.3,M,,0000*7E
arfcn: 781 rxLev: -105
arfcn: 719 rxLev: -105
$GPGSA,M,3,08,27,10,01,,,,,,,,,3.8,3.0,2.3*3A
arfcn: 733 rxLev: -105
arfcn: 756 rxLev: -105
$GPRMC,013913.000,A,4806.8627,N,00139.4398,W,1.82,236.59,060218,,,A*74
arfcn: 754 rxLev: -105
arfcn: 782 rxLev: -106
arfcn: 786 rxLev: -106
