$GPGSA,M,1,,,,,,,,,,,,,,,*12
$GPRMC,152732.220,V,,,,,,,090218,,,N*4F
$GPGGA,152732.425,,,,,0,04,4.1,,M,0.0,M,,0000*7A
$GPGSA,M,1,,,,,,,,,,,,,,,*12
$GPGSV,3,1,12,24,80,329,25,19,36,085,25,17,31,059,23,13,19,143,11*7B
$GPGSV,3,2,12,20,00,205,12,33,33,198,,12,52,218,,15,45,169,*79
$GPGSV,3,3,12,10,25,290,,18,22,256,,25,13,227,,32,10,315,*7A
Survey start at #CCLK: "18/02/09,16:27:32+04"
at#csurv
Network survey started ...
Survey end at #CCLK: "18/02/09,16:27:32+04"
Survey duration: 0 seconds, 0 bases detected over 0 freqs scanned.
$GPRMC,152732.425,V,,,,,,,090218,,,N*4C
$GPGGA,152733.000,,,,,0,04,4.1,,M,0.0,M,,0000*78
$GPGSA,M,1,,,,,,,,,,,,,,,*12
$GPRMC,152733.000,V,,,,,,,090218,,,N*4E
$GPGGA,152734.000,,,,,0,04,4.1,,M,0.0,M,,0000*7F
$GPGSA,M,1,,,,,,,,,,,,,,,*12
$GPRMC,152734.000,V,,,,,,,090218,,,N*49
$GPGGA,152735.000,4806.8594,N,00139.4599,W,1,04,4.1,-52.0,M,48.3,M,,0000*5D
$GPGSA,M,3,24,19,17,13,,,,,,,,,7.5,4.1,6.3*36
Survey start at #CCLK: "18/02/09,16:27:35+04"
at#csurv
Network survey started ...
$GPRMC,152735.000,A,4806.8594,N,00139.4599,W,2.45,290.52,090218,,,A*76
$GPGGA,152736.000,4806.8602,N,00139.4595,W,1,04,4.1,-50.8,M,48.3,M,,0000*54
$GPGSA,M,3,24,19,17,13,,,,,,,,,7.5,4.1,6.3*36
$GPRMC,152736.000,A,4806.8602,N,00139.4595,W,2.27,286.70,090218,,,A*76
$GPGGA,152737.000,4806.8617,N,00139.4600,W,1,04,4.1,-52.9,M,48.3,M,,0000*5D
$GPGSA,M,3,24,19,17,13,,,,,,,,,7.5,4.1,6.3*36
$GPGSV,3,1,12,24,80,329,26,19,36,085,25,17,31,059,23,13,19,143,10*79
$GPGSV,3,2,12,20,00,205,09,33,33,198,,12,52,218,,15,45,169,*73
$GPGSV,3,3,12,10,25,290,,18,22,256,,25,13,227,,32,10,315,*7A
$GPRMC,152737.000,A,4806.8617,N,00139.4600,W,2.03,286.59,090218,,,A*71
$GPGGA,152738.000,4806.8618,N,00139.4586,W,1,04,4.1,-48.7,M,48.3,M,,0000*55
$GPGSA,M,3,24,19,17,13,,,,,,,,,7.5,4.1,6.3*36
$GPRMC,152738.000,A,4806.8618,N,00139.4586,W,2.19,287.00,090218,,,A*7A
$GPGGA,152739.000,4806.8622,N,00139.4576,W,1,04,4.1,-45.1,M,48.3,M,,0000*59
$GPGSA,M,3,24,19,17,13,,,,,,,,,7.5,4.1,6.3*36
$GPRMC,152739.000,A,4806.8622,N,00139.4576,W,2.18,288.09,090218,,,A*7A
$GPGGA,152740.000,4806.8626,N,00139.4583,W,1,04,4.1,-48.7,M,48.3,M,,0000*52
$GPGSA,M,3,24,19,17,13,,,,,,,,,7.5,4.1,6.3*36
$GPRMC,152740.000,A,4806.8626,N,00139.4583,W,1.95,289.10,090218,,,A*75
arfcn: 981 bsic: 46 rxLev: -54 ber: 0.00 mcc: 208 mnc: 20 lac: 418 cellId: 21807 cellStatus: CELL_SUITABLE numArfcn: 1 arfcn: 981 numChannels: 16 array: 979 982 983 985 1012 1014 1017 1019 1020 787 790 791 793 796 882 884 pbcch: 0 nom: 2 rac: 6 spgc: 0 pat: 6 nco: 0 t3168: 1500 t3192: 500 drxmax: 0 ctrlAck: 0 bsCVmax: 8 alpha: 6 pcMeasCh: 1 
arfcn: 994 rxLev: -61
arfcn: 997 rxLev: -61
arfcn: 995 rxLev: -62
$GPGGA,152741.000,4806.8622,N,00139.4575,W,1,04,4.1,-46.5,M,48.3,M,,0000*52
arfcn: 998 rxLev: -62
arfcn: 992 rxLev: -62
$GPGSA,M,3,24,19,17,13,,,,,,,,,7.5,4.1,6.3*36
arfcn: 993 rxLev: -62
arfcn: 991 rxLev: -62
$GPRMC,152741.000,A,4806.8622,N,00139.4575,W,1.95,287.64,090218,,,A*74
arfcn: 996 rxLev: -62
arfcn: 1002 rxLev: -62
arfcn: 1003 rxLev: -62
arfcn: 1004 rxLev: -62
arfcn: 1005 rxLev: -62
arfcn: 1006 rxLev: -62
arfcn: 1007 rxLev: -62
arfcn: 1008 rxLev: -62
$GPGGA,152742.000,4806.8618,N,00139.4583,W,1,04,4.1,-47.9,M,48.3,M,,0000*5C
arfcn: 999 rxLev: -63
arfcn: 1000 rxLev: -63
$GPGSA,M,3,24,19,17,13,,,,,,,,,7.5,4.1,6.3*36
arfcn: 1001 rxLev: -63
arfcn: 990 rxLev: -63
$GPGSV,3,1,12,24,80,329,26,19,36,085,25,17,31,059,24,13,19,143,12*7C
$GPGSV,3,2,12,20,00,205,08,33,33,198,,12,52,218,,15,45,169,*72
$GPGSV,3,3,12,10,25,290,,18,22,256,,25,13,227,,32,10,315,*7A
$GPRMC,152742.000,A,4806.8618,N,00139.4583,W,1.86,284.97,090218,,,A*7A
$GPGGA,152743.000,4806.8617,N,00139.4577,W,1,04,4.1,-47.7,M,48.3,M,,0000*57
$GPGSA,M,3,24,19,17,13,,,,,,,,,7.5,4.1,6.3*36
$GPRMC,152743.000,A,4806.8617,N,00139.4577,W,1.47,281.55,090218,,,A*79
$GPGGA,152744.000,4806.8614,N,00139.4573,W,1,04,4.1,-44.4,M,48.3,M,,0000*57
$GPGSA,M,3,24,19,17,13,,,,,,,,,7.5,4.1,6.2*37
$GPRMC,152744.000,A,4806.8614,N,00139.4573,W,1.51,278.42,090218,,,A*7E
$GPGGA,152745.000,4806.8613,N,00139.4580,W,0,00,,-45.9,M,48.3,M,,0000*7F
$GPGSA,M,1,,,,,,,,,,,,,,,*12
$GPRMC,152745.000,V,4806.8613,N,00139.4580,W,,,090218,,,N*62
$GPGGA,152746.000,4806.8612,N,00139.4586,W,0,00,,-47.3,M,48.3,M,,0000*73
$GPGSA,M,1,,,,,,,,,,,,,,,*12
$GPRMC,152746.000,V,4806.8612,N,00139.4586,W,,,090218,,,N*66
$GPGGA,152747.024,4806.8611,N,00139.4592,W,0,00,,-48.8,M,48.3,M,,0000*76
$GPGSA,M,1,,,,,,,,,,,,,,,*12
$GPGSV,3,1,12,13,19,143,13,17,31,059,24,19,36,085,25,20,00,205,06*7C
$GPGSV,3,2,12,24,80,329,26,33,33,198,,12,52,218,,15,45,169,*7D
$GPGSV,3,3,12,10,25,290,,18,22,256,,25,13,227,,32,10,315,*7A
$GPRMC,152747.024,V,4806.8611,N,00139.4592,W,,,090218,,,N*67
$GPGGA,152748.024,4806.8610,N,00139.4598,W,0,00,,-50.2,M,48.3,M,,0000*71
$GPGSA,M,1,,,,,,,,,,,,,,,*12
$GPRMC,152748.024,V,4806.8610,N,00139.4598,W,,,090218,,,N*63
$GPGGA,152749.024,4806.8609,N,00139.4604,W,0,00,,-51.7,M,48.3,M,,0000*7A
$GPGSA,M,1,,,,,,,,,,,,,,,*12
$GPRMC,152749.024,V,4806.8609,N,00139.4604,W,,,090218,,,N*6C
$GPGGA,152750.024,4806.8608,N,00139.4610,W,0,00,,-53.1,M,48.3,M,,0000*72
$GPGSA,M,1,,,,,,,,,,,,,,,*12
$GPRMC,152750.024,V,4806.8608,N,00139.4610,W,,,090218,,,N*60
$GPGGA,152751.025,,,,,0,04,4.1,,M,0.0,M,,0000*7B
$GPGSA,M,1,,,,,,,,,,,,,,,*12
$GPRMC,152751.025,V,,,,,,,090218,,,N*4D
$GPGGA,152752.024,,,,,0,04,4.1,,M,0.0,M,,0000*79
$GPGSA,M,1,,,,,,,,,,,,,,,*12
$GPGSV,3,1,12,24,80,329,26,19,36,085,25,17,31,059,24,13,19,143,15*7B
$GPGSV,3,2,12,15,45,169,11,20,00,205,09,33,33,198,,12,52,218,*73
$GPGSV,3,3,12,10,25,290,,18,22,256,,25,13,227,,32,10,315,*7A
$GPRMC,152752.024,V,,,,,,,090218,,,N*4F
$GPGGA,152753.000,,,,,0,04,4.1,,M,0.0,M,,0000*7E
$GPGSA,M,1,,,,,,,,,,,,,,,*12
$GPRMC,152753.000,V,,,,,,,090218,,,N*48
arfcn: 985 bsic: 44 rxLev: -67 ber: 0.00 mcc: 208 mnc: 20 lac: 418 cellId: 21808 cellStatus: CELL_SUITABLE numArfcn: 1 arfcn: 985 numChannels: 17 array: 975 977 978 979 980 981 982 983 1011 1012 1014 1015 1017 1019 1020 1021 1022 pbcch: 0 nom: 2 rac: 6 spgc: 0 pat: 6 nco: 0 t3168: 1500 t3192: 500 drxmax: 0 ctrlAck: 0 bsCVmax: 8 alpha: 6 pcMeasCh: 1 
$GPGGA,152754.000,,,,,0,05,3.9,,M,0.0,M,,0000*77
$GPGSA,M,1,,,,,,,,,,,,,,,*12
$GPRMC,152754.000,V,,,,,,,090218,,,N*4F
$GPGGA,152755.000,,,,,0,05,3.9,,M,0.0,M,,0000*76
$GPGSA,M,1,,,,,,,,,,,,,,,*12
$GPRMC,152755.000,V,,,,,,,090218,,,N*4E
arfcn: 12 bsic: 0 rxLev: -69 ber: 0.00 mcc: 208 mnc: 01 lac: 10300 cellId: 6467 cellStatus: CELL_FORBIDDEN numArfcn: 13 arfcn: 12 17 18 19 20 21 22 23 24 25 47 48 49 numChannels: 15 array: 1 2 3 8 9 10 14 512 513 514 515 518 605 606 608 pbcch: 0 nom: 2 rac: 1 spgc: 0 pat: 6 nco: 0 t3168: 1000 t3192: 500 drxmax: 2 ctrlAck: 0 bsCVmax: 9 alpha: 5 pcMeasCh: 1 
arfcn: 989 rxLev: -71
arfcn: 1009 rxLev: -71
$GPGGA,152756.000,4806.8639,N,00139.4490,W,1,05,3.9,-19.2,M,48.3,M,,0000*57
$GPGSA,M,3,24,15,19,17,13,,,,,,,,7.0,3.9,5.9*31
$GPRMC,152756.000,A,4806.8639,N,00139.4490,W,0.36,269.90,090218,,,A*71
$GPGGA,152757.000,4806.8639,N,00139.4476,W,1,05,3.9,-15.8,M,48.3,M,,0000*58
$GPGSA,M,3,24,15,19,17,13,,,,,,,,7.0,3.9,5.8*30
$GPGSV,3,1,12,24,80,329,25,15,45,169,17,19,36,085,25,17,31,059,24*7D
$GPGSV,3,2,12,13,19,143,15,20,00,205,08,25,13,227,05,33,33,198,*79
arfcn: 85 bsic: 0 rxLev: -71 ber: 0.00 mcc: 208 mnc: 10 lac: 49415 cellId: 44814 cellStatus: CELL_FORBIDDEN numArfcn: 2 arfcn: 85 119 numChannels: 20 array: 76 77 78 79 80 82 83 85 86 114 115 116 117 118 119 120 121 122 123 124 pbcch: 0 nom: 2 rac: 31 spgc: 0 pat: 6 nco: 0 t3168: 1000 t3192: 500 drxmax: 4 ctrlAck: 1 bsCVmax: 9 alpha: 10 pcMeasCh: 0 
$GPGSV,3,3,12,12,52,218,,10,25,290,,18,22,256,,32,10,315,*77
$GPRMC,152757.000,A,4806.8639,N,00139.4476,W,0.10,269.90,090218,,,A*7C
$GPGGA,152758.000,4806.8637,N,00139.4461,W,1,05,3.9,-12.6,M,48.3,M,,0000*56
$GPGSA,M,3,24,15,19,17,13,,,,,,,,7.0,3.9,5.8*30
$GPRMC,152758.000,A,4806.8637,N,00139.4461,W,0.20,269.90,090218,,,A*78
$GPGGA,152759.000,4806.8633,N,00139.4440,W,1,05,3.9,-7.6,M,48.3,M,,0000*64
$GPGSA,M,3,24,15,19,17,13,,,,,,,,7.0,3.9,5.8*30
arfcn: 80 bsic: 47 rxLev: -72 ber: 0.00 mcc: 208 mnc: 10 lac: 49415 cellId: 23568 cellStatus: CELL_FORBIDDEN numArfcn: 2 arfcn: 80 89 numChannels: 19 array: 76 77 78 80 82 83 84 85 113 114 115 116 117 118 119 120 122 123 124 pbcch: 0 nom: 2 rac: 31 spgc: 0 pat: 6 nco: 0 t3168: 1000 t3192: 500 drxmax: 4 ctrlAck: 1 bsCVmax: 9 alpha: 10 pcMeasCh: 0 
arfcn: 982 rxLev: -72
arfcn: 980 rxLev: -73
$GPRMC,152759.000,A,4806.8633,N,00139.4440,W,0.36,269.90,090218,,,A*79
arfcn: 8 rxLev: -73
$GPGGA,152800.000,4806.8638,N,00139.4433,W,1,05,3.9,-4.9,M,48.3,M,,0000*64
$GPGSA,M,3,24,15,19,17,13,,,,,,,,7.0,3.9,5.8*30
$GPRMC,152800.000,A,4806.8638,N,00139.4433,W,0.07,269.90,090218,,,A*77
$GPGGA,152801.000,4806.8639,N,00139.4423,W,1,06,1.4,-1.0,M,48.3,M,,0000*65
$GPGSA,M,3,24,15,19,17,13,25,,,,,,,2.3,1.4,1.9*3B
arfcn: 124 bsic: 2 rxLev: -74 ber: 0.00 mcc: 208 mnc: 10 lac: 49415 cellId: 43517 cellStatus: CELL_FORBIDDEN numArfcn: 2 arfcn: 112 124 numChannels: 14 array: 76 77 78 80 82 85 114 115 117 118 120 121 122 124 pbcch: 0 nom: 2 rac: 31 spgc: 0 pat: 6 nco: 0 t3168: 1000 t3192: 500 drxmax: 4 ctrlAck: 1 bsCVmax: 9 alpha: 10 pcMeasCh: 0 
arfcn: 793 rxLev: -77
$GPRMC,152801.000,A,4806.8639,N,00139.4423,W,0.55,269.90,090218,,,A*71
arfcn: 794 rxLev: -78
arfcn: 795 rxLev: -78
arfcn: 792 rxLev: -78
arfcn: 803 rxLev: -78
arfcn: 28 rxLev: -78
arfcn: 29 rxLev: -79
$GPGGA,152802.000,4806.8640,N,00139.4411,W,1,06,1.4,2.8,M,48.3,M,,0000*4F
$GPGSA,M,3,24,15,19,17,13,25,,,,,,,2.3,1.4,1.9*3B
$GPGSV,3,1,12,24,80,329,25,15,45,169,17,19,36,085,25,17,31,059,24*7D
$GPGSV,3,2,12,13,19,143,15,25,13,227,10,20,00,205,09,37,27,150,*79
$GPGSV,3,3,12,12,52,218,,10,25,290,,18,22,256,,32,10,315,*77
$GPRMC,152802.000,A,4806.8640,N,00139.4411,W,0.87,269.90,090218,,,A*72
$GPGGA,152803.000,4806.8641,N,00139.4395,W,1,06,1.4,7.2,M,48.3,M,,0000*4B
$GPGSA,M,3,24,15,19,17,13,25,,,,,,,2.3,1.4,1.9*3B
$GPRMC,152803.000,A,4806.8641,N,00139.4395,W,0.42,269.90,090218,,,A*70
$GPGGA,152804.000,4806.8641,N,00139.4385,W,1,06,1.4,9.8,M,48.3,M,,0000*49
$GPGSA,M,3,24,15,19,17,13,25,,,,,,,2.3,1.4,1.9*3B
$GPRMC,152804.000,A,4806.8641,N,00139.4385,W,0.13,269.90,090218,,,A*72
$GPGGA,152805.000,4806.8643,N,00139.4376,W,1,06,1.4,12.4,M,48.3,M,,0000*70
$GPGSA,M,3,24,15,19,17,13,25,,,,,,,2.4,1.4,1.9*3C
$GPRMC,152805.000,A,4806.8643,N,00139.4376,W,0.33,269.90,090218,,,A*7F
arfcn: 605 bsic: 33 rxLev: -79 ber: 0.00 mcc: 208 mnc: 01 lac: 10300 cellId: 27588 cellStatus: CELL_FORBIDDEN numArfcn: 22 arfcn: 525 526 527 528 529 530 531 532 533 534 535 587 588 589 590 591 592 593 594 595 596 597 numChannels: 18 array: 1 3 5 8 12 15 512 513 514 515 516 517 518 604 605 606 607 609 pbcch: 0 nom: 2 rac: 1 spgc: 0 pat: 6 nco: 0 t3168: 1000 t3192: 500 drxmax: 2 ctrlAck: 0 bsCVmax: 9 alpha: 5 pcMeasCh: 1 
arfcn: 801 rxLev: -79
arfcn: 802 rxLev: -79
arfcn: 796 rxLev: -79
$GPGGA,152806.000,4806.8646,N,00139.4385,W,1,06,1.4,11.2,M,48.3,M,,0000*7F
arfcn: 798 rxLev: -79
arfcn: 799 rxLev: -79
$GPGSA,M,3,24,15,19,17,13,25,,,,,,,2.4,1.4,1.9*3C
arfcn: 800 rxLev: -79
arfcn: 797 rxLev: -79
$GPRMC,152806.000,A,4806.8646,N,00139.4385,W,0.72,269.90,090218,,,A*70
arfcn: 34 rxLev: -79
arfcn: 35 rxLev: -80
arfcn: 30 rxLev: -80
arfcn: 805 rxLev: -80
arfcn: 807 rxLev: -80
arfcn: 808 rxLev: -80
arfcn: 817 rxLev: -80
arfcn: 822 rxLev: -80
$GPGGA,152807.000,4806.8650,N,00139.4394,W,1,06,1.4,10.3,M,48.3,M,,0000*79
$GPGSA,M,3,24,15,19,17,13,25,,,,,,,2.4,1.4,1.9*3C
$GPGSV,3,1,12,24,80,329,25,15,45,169,17,19,36,085,26,17,31,059,25*7F
$GPGSV,3,2,12,13,19,143,15,25,13,227,11,20,00,205,08,37,27,150,*79
$GPGSV,3,3,12,12,52,218,,10,25,290,,18,22,256,,32,10,315,*77
$GPRMC,152807.000,A,4806.8650,N,00139.4394,W,0.62,269.90,090218,,,A*77
$GPGGA,152808.000,4806.8653,N,00139.4397,W,1,06,1.4,9.9,M,48.3,M,,0000*44
$GPGSA,M,3,24,15,19,17,13,25,,,,,,,2.4,1.4,1.9*3C
$GPRMC,152808.000,A,4806.8653,N,00139.4397,W,0.38,269.90,090218,,,A*77
$GPGGA,152809.000,4806.8658,N,00139.4400,W,1,06,1.4,9.2,M,48.3,M,,0000*4C
arfcn: 5 bsic: 1 rxLev: -80 ber: 0.00 mcc: 208 mnc: 01 lac: 10300 cellId: 40079 cellStatus: CELL_FORBIDDEN numArfcn: 13 arfcn: 5 17 18 19 20 21 22 23 24 25 47 48 49 numChannels: 20 array: 1 2 3 4 5 8 9 10 11 13 14 15 16 512 513 518 604 606 608 610 pbcch: 0 nom: 2 rac: 1 spgc: 0 pat: 6 nco: 0 t3168: 1000 t3192: 500 drxmax: 2 ctrlAck: 0 bsCVmax: 9 alpha: 5 pcMeasCh: 1 
arfcn: 33 rxLev: -80
$GPGSA,M,3,24,15,19,17,13,25,,,,,,,2.4,1.4,1.9*3C
$GPRMC,152809.000,A,4806.8658,N,00139.4400,W,0.33,269.90,090218,,,A*7F
$GPGGA,152810.000,4806.8664,N,00139.4400,W,1,06,1.4,8.4,M,48.3,M,,0000*4C
$GPGSA,M,3,24,15,19,17,13,25,,,,,,,2.4,1.4,1.9*3C
$GPRMC,152810.000,A,4806.8664,N,00139.4400,W,0.50,269.90,090218,,,A*7D
$GPGGA,152811.000,4806.8670,N,00139.4407,W,1,06,1.4,7.7,M,48.3,M,,0000*43
$GPGSA,M,3,24,15,19,17,13,25,,,,,,,2.4,1.4,1.9*3C
$GPRMC,152811.000,A,4806.8670,N,00139.4407,W,0.86,269.90,090218,,,A*75
$GPGGA,152812.000,4806.8673,N,00139.4408,W,1,06,1.4,8.4,M,48.3,M,,0000*40
$GPGSA,M,3,24,15,19,17,13,25,,,,,,,2.4,1.4,1.9*3C
$GPGSV,3,1,12,24,80,329,25,15,45,169,16,19,36,085,26,17,31,059,25*7E
arfcn: 1020 bsic: 39 rxLev: -80 ber: 0.00 mcc: 208 mnc: 20 lac: 418 cellId: 38980 cellStatus: CELL_SUITABLE numArfcn: 1 arfcn: 1020 numChannels: 26 array: 787 788 790 791 793 795 796 879 884 885 978 979 981 982 983 985 986 987 1011 1012 1013 1014 1015 1017 1019 1022 pbcch: 0 nom: 2 rac: 6 spgc: 0 pat: 6 nco: 0 t3168: 1500 t3192: 500 drxmax: 0 ctrlAck: 0 bsCVmax: 8 alpha: 6 pcMeasCh: 1 
$GPGSV,3,2,12,13,19,143,15,25,13,227,12,20,00,205,08,37,27,150,*7A
$GPGSV,3,3,12,12,52,218,,10,25,290,,18,22,256,,32,10,315,*77
$GPRMC,152812.000,A,4806.8673,N,00139.4408,W,1.12,269.90,090218,,,A*76
$GPGGA,152813.000,4806.8674,N,00139.4405,W,1,06,1.4,9.7,M,48.3,M,,0000*49
$GPGSA,M,3,24,15,19,17,13,25,,,,,,,2.4,1.4,1.9*3C
$GPRMC,152813.000,A,4806.8674,N,00139.4405,W,0.94,269.90,090218,,,A*72
$GPGGA,152814.000,4806.8675,N,00139.4403,W,1,06,1.4,10.0,M,48.3,M,,0000*76
$GPGSA,M,3,24,15,19,17,13,25,,,,,,,2.4,1.4,1.9*3C
$GPRMC,152814.000,A,4806.8675,N,00139.4403,W,0.45,269.90,090218,,,A*7E
$GPGGA,152815.000,4806.8672,N,00139.4399,W,1,06,1.4,12.1,M,48.3,M,,0000*77
$GPGSA,M,3,24,15,19,17,13,25,,,,,,,2.4,1.4,1.9*3C
arfcn: 1017 bsic: 33 rxLev: -81 ber: 0.00 mcc: 208 mnc: 20 lac: 418 cellId: 20104 cellStatus: CELL_SUITABLE numArfcn: 3 arfcn: 986 987 1017 numChannels: 20 array: 788 790 885 975 976 978 979 980 981 982 986 987 1011 1012 1015 1017 1019 1020 1021 1022 pbcch: 0 nom: 2 rac: 7 spgc: 0 pat: 6 nco: 0 t3168: 1500 t3192: 500 drxmax: 4 ctrlAck: 1 bsCVmax: 8 alpha: 6 pcMeasCh: 1 
arfcn: 36 rxLev: -81
$GPRMC,152815.000,A,4806.8672,N,00139.4399,W,0.27,269.90,090218,,,A*78
arfcn: 37 rxLev: -81
$GPGGA,152816.000,4806.8670,N,00139.4395,W,1,06,1.4,13.5,M,48.3,M,,0000*7F
$GPGSA,M,3,24,15,19,17,13,25,,,,,,,2.4,1.4,1.9*3C
$GPRMC,152816.000,A,4806.8670,N,00139.4395,W,0.24,269.90,090218,,,A*76
$GPGGA,152817.000,4806.8669,N,00139.4388,W,1,06,1.4,15.2,M,48.3,M,,0000*7B
$GPGSA,M,3,24,15,19,17,13,25,,,,,,,2.4,1.4,1.9*3C
$GPGSV,3,1,12,24,80,329,25,15,45,169,15,19,36,085,27,17,31,059,25*7C
$GPGSV,3,2,12,13,19,143,15,25,13,227,12,20,00,205,07,37,27,150,*75
$GPGSV,3,3,12,12,52,218,,10,25,290,,18,22,256,,32,10,315,*77
$GPRMC,152817.000,A,4806.8669,N,00139.4388,W,0.57,269.90,090218,,,A*77
$GPGGA,152818.000,4806.8667,N,00139.4382,W,1,06,1.4,16.3,M,48.3,M,,0000*72
$GPGSA,M,3,24,15,19,17,13,25,,,,,,,2.4,1.4,1.9*3C
$GPRMC,152818.000,A,4806.8667,N,00139.4382,W,0.78,269.90,090218,,,A*71
arfcn: 10 bsic: 1 rxLev: -81 ber: 4.06 mcc: 208 mnc: 01 lac: 10300 cellId: 39884 cellStatus: CELL_FORBIDDEN numArfcn: 13 arfcn: 10 17 18 19 20 21 22 23 24 25 47 48 49 numChannels: 16 array: 5 6 7 11 15 16 512 514 516 517 518 604 605 608 609 610 pbcch: 0 nom: 2 rac: 1 spgc: 0 pat: 6 nco: 0 t3168: 1000 t3192: 500 drxmax: 2 ctrlAck: 0 bsCVmax: 9 alpha: 5 pcMeasCh: 1 
arfcn: 31 rxLev: -81
arfcn: 27 rxLev: -81
arfcn: 821 rxLev: -81
$GPGGA,152819.000,4806.8666,N,00139.4376,W,1,05,1.7,17.8,M,48.3,M,,0000*73
arfcn: 823 rxLev: -81
$GPGSA,M,3,24,19,17,13,25,,,,,,,,2.9,1.7,2.4*38
arfcn: 824 rxLev: -81
arfcn: 820 rxLev: -81
$GPRMC,152819.000,A,4806.8666,N,00139.4376,W,0.73,269.90,090218,,,A*71
arfcn: 835 rxLev: -81
arfcn: 852 rxLev: -81
arfcn: 806 rxLev: -81
arfcn: 804 rxLev: -81
arfcn: 809 rxLev: -81
arfcn: 791 rxLev: -81
arfcn: 867 rxLev: -81
arfcn: 825 rxLev: -81
$GPGGA,152820.000,4806.8666,N,00139.4373,W,1,06,1.4,19.3,M,48.3,M,,0000*79
arfcn: 32 rxLev: -81
arfcn: 829 rxLev: -82
$GPGSA,M,3,24,15,19,17,13,25,,,,,,,2.4,1.4,1.9*3C
arfcn: 818 rxLev: -82
arfcn: 838 rxLev: -82
$GPRMC,152820.000,A,4806.8666,N,00139.4373,W,0.37,269.90,090218,,,A*7E
arfcn: 847 rxLev: -82
arfcn: 850 rxLev: -82
arfcn: 853 rxLev: -82
arfcn: 810 rxLev: -82
arfcn: 815 rxLev: -82
arfcn: 811 rxLev: -82
arfcn: 854 rxLev: -82
$GPGGA,152821.000,4806.8666,N,00139.4371,W,1,06,1.4,20.0,M,48.3,M,,0000*73
arfcn: 851 rxLev: -82
arfcn: 857 rxLev: -82
$GPGSA,M,3,24,15,19,17,13,25,,,,,,,2.4,1.4,1.9*3C
arfcn: 862 rxLev: -82
arfcn: 864 rxLev: -82
$GPRMC,152821.000,A,4806.8666,N,00139.4371,W,0.13,269.90,090218,,,A*7B
arfcn: 819 rxLev: -82
arfcn: 826 rxLev: -82
arfcn: 41 rxLev: -82
$GPGGA,152822.000,4806.8666,N,00139.4371,W,1,06,1.4,20.4,M,48.3,M,,0000*74
$GPGSA,M,3,24,15,19,17,13,25,,,,,,,2.4,1.4,1.9*3C
$GPGSV,3,1,12,24,80,329,25,15,45,169,08,19,36,085,27,17,31,059,25*70
$GPGSV,3,2,12,13,19,143,14,25,13,227,11,37,27,150,,12,52,218,*7A
$GPGSV,3,3,12,10,25,290,,18,22,256,,32,10,315,,20,00,205,*7D
$GPRMC,152822.000,A,4806.8666,N,00139.4371,W,0.12,269.90,090218,,,A*79
$GPGGA,152823.000,4806.8666,N,00139.4370,W,1,06,1.4,21.4,M,48.3,M,,0000*75
$GPGSA,M,3,24,15,19,17,13,25,,,,,,,2.4,1.4,1.9*3C
$GPRMC,152823.000,A,4806.8666,N,00139.4370,W,0.42,269.90,090218,,,A*7C
$GPGGA,152824.000,4806.8666,N,00139.4367,W,1,06,1.4,21.9,M,48.3,M,,0000*79
$GPGSA,M,3,24,15,19,17,13,25,,,,,,,2.4,1.4,1.9*3C
$GPRMC,152824.000,A,4806.8666,N,00139.4367,W,0.27,269.90,090218,,,A*7E
arfcn: 978 bsic: 19 rxLev: -82 ber: 0.01 mcc: 208 mnc: 20 lac: 418 cellId: 18480 cellStatus: CELL_SUITABLE numArfcn: 2 arfcn: 978 1023 numChannels: 24 array: 788 790 794 880 883 975 976 977 979 980 981 982 983 985 986 1011 1012 1014 1016 1017 1018 1019 1020 1021 pbcch: 0 nom: 2 rac: 6 spgc: 0 pat: 6 nco: 0 t3168: 1500 t3192: 500 drxmax: 4 ctrlAck: 1 bsCVmax: 8 alpha: 6 pcMeasCh: 1 
arfcn: 986 rxLev: -83
arfcn: 43 rxLev: -83
arfcn: 44 rxLev: -83
arfcn: 863 rxLev: -83
$GPGGA,152825.000,4806.8667,N,00139.4366,W,1,06,1.4,22.7,M,48.3,M,,0000*75
arfcn: 861 rxLev: -83
$GPGSA,M,3,24,15,19,17,13,25,,,,,,,2.4,1.4,1.9*3C
arfcn: 858 rxLev: -83
arfcn: 855 rxLev: -83
$GPRMC,152825.000,A,4806.8667,N,00139.4366,W,0.46,269.90,090218,,,A*78
arfcn: 856 rxLev: -83
arfcn: 869 rxLev: -83
arfcn: 874 rxLev: -83
arfcn: 875 rxLev: -83
arfcn: 877 rxLev: -83
arfcn: 880 rxLev: -83
arfcn: 813 rxLev: -83
arfcn: 814 rxLev: -83
arfcn: 816 rxLev: -83
$GPGGA,152826.000,4806.8668,N,00139.4364,W,1,05,1.7,23.3,M,48.3,M,,0000*7E
arfcn: 876 rxLev: -83
$GPGSA,M,3,24,19,17,13,25,,,,,,,,2.9,1.7,2.4*38
arfcn: 873 rxLev: -83
arfcn: 871 rxLev: -83
$GPRMC,152826.000,A,4806.8668,N,00139.4364,W,0.46,269.90,090218,,,A*76
arfcn: 868 rxLev: -83
arfcn: 866 rxLev: -83
arfcn: 859 rxLev: -83
arfcn: 860 rxLev: -83
arfcn: 827 rxLev: -83
arfcn: 828 rxLev: -83
arfcn: 830 rxLev: -83
$GPGGA,152827.000,4806.8669,N,00139.4364,W,1,06,1.4,23.6,M,48.3,M,,0000*7B
arfcn: 848 rxLev: -83
arfcn: 842 rxLev: -83
$GPGSA,M,3,24,15,19,17,13,25,,,,,,,2.4,1.4,1.9*3C
arfcn: 844 rxLev: -83
arfcn: 42 rxLev: -83
$GPGSV,3,1,12,24,81,331,25,15,44,169,08,19,36,085,27,17,31,058,25*78
arfcn: 40 rxLev: -83
arfcn: 45 rxLev: -84
$GPGSV,3,2,12,13,19,144,13,25,14,227,11,37,27,150,,12,52,218,*7D
arfcn: 38 rxLev: -84
$GPGSV,3,3,12,10,25,290,,18,22,256,,32,10,315,,20,00,204,*7C
$GPRMC,152827.000,A,4806.8669,N,00139.4364,W,0.37,269.90,090218,,,A*70
$GPGGA,152828.000,4806.8669,N,00139.4361,W,1,05,1.7,24.0,M,48.3,M,,0000*70
$GPGSA,M,3,24,19,17,13,25,,,,,,,,2.9,1.7,2.4*38
$GPRMC,152828.000,A,4806.8669,N,00139.4361,W,0.58,269.90,090218,,,A*73
$GPGGA,152829.000,4806.8672,N,00139.4359,W,1,05,1.7,24.2,M,48.3,M,,0000*72
$GPGSA,M,3,24,19,17,13,25,,,,,,,,2.9,1.7,2.4*38
arfcn: 14 bsic: 35 rxLev: -84 ber: 0.00 mcc: 208 mnc: 01 lac: 10300 cellId: 39250 cellStatus: CELL_FORBIDDEN numArfcn: 13 arfcn: 14 17 18 19 20 21 22 23 24 25 47 48 49 numChannels: 14 array: 1 3 4 6 8 10 12 14 512 513 514 517 604 608 pbcch: 0 nom: 2 rac: 1 spgc: 1 pat: 6 nco: 0 t3168: 1000 t3192: 500 drxmax: 4 ctrlAck: 1 bsCVmax: 9 alpha: 7 pcMeasCh: 0 
arfcn: 67 rxLev: -84
$GPRMC,152829.000,A,4806.8672,N,00139.4359,W,0.69,269.90,090218,,,A*71
$GPGGA,152830.000,4806.8674,N,00139.4356,W,1,05,1.7,24.4,M,48.3,M,,0000*75
$GPGSA,M,3,24,19,17,13,25,,,,,,,,2.9,1.7,2.4*38
$GPRMC,152830.000,A,4806.8674,N,00139.4356,W,0.76,269.90,090218,,,A*7E
$GPGGA,152831.000,4806.8678,N,00139.4354,W,1,05,1.7,23.9,M,48.3,M,,0000*70
$GPGSA,M,3,24,19,17,13,25,,,,,,,,2.9,1.7,2.4*38
$GPRMC,152831.000,A,4806.8678,N,00139.4354,W,0.88,269.90,090218,,,A*70
$GPGGA,152832.000,4806.8683,N,00139.4353,W,1,05,1.7,23.0,M,48.3,M,,0000*79
$GPGSA,M,3,24,19,17,13,25,,,,,,,,2.9,1.7,2.4*38
$GPGSV,3,1,12,24,81,331,25,19,36,085,27,17,31,058,25,13,19,144,09*78
$GPGSV,3,2,12,25,14,227,10,15,44,169,06,39,31,144,,12,52,218,*75
$GPGSV,3,3,12,10,25,290,,18,22,256,,32,10,315,,20,00,204,*7C
$GPRMC,152832.000,A,4806.8683,N,00139.4353,W,0.77,269.90,090218,,,A*70
$GPGGA,152833.000,4806.8688,N,00139.4354,W,1,05,1.7,22.8,M,48.3,M,,0000*7D
$GPGSA,M,3,24,19,17,13,25,,,,,,,,2.9,1.7,2.4*38
arfcn: 515 bsic: 34 rxLev: -84 ber: 0.00 mcc: 208 mnc: 01 lac: 10300 cellId: 27586 cellStatus: CELL_FORBIDDEN numArfcn: 16 arfcn: 519 520 521 522 523 524 525 526 596 597 598 599 600 601 602 603 numChannels: 9 array: 1 8 12 512 513 516 605 606 607 pbcch: 0 nom: 2 rac: 1 spgc: 0 pat: 6 nco: 0 t3168: 1000 t3192: 500 drxmax: 2 ctrlAck: 0 bsCVmax: 9 alpha: 5 pcMeasCh: 1 
arfcn: 843 rxLev: -84
$GPRMC,152833.000,A,4806.8688,N,00139.4354,W,0.93,269.90,090218,,,A*77
arfcn: 845 rxLev: -84
arfcn: 846 rxLev: -84
arfcn: 849 rxLev: -84
arfcn: 872 rxLev: -84
arfcn: 870 rxLev: -84
arfcn: 879 rxLev: -84
arfcn: 878 rxLev: -84
arfcn: 865 rxLev: -84
$GPGGA,152834.000,4806.8692,N,00139.4355,W,1,05,1.7,22.9,M,48.3,M,,0000*71
arfcn: 837 rxLev: -84
$GPGSA,M,3,24,19,17,13,25,,,,,,,,2.9,1.7,2.4*38
arfcn: 840 rxLev: -84
arfcn: 836 rxLev: -84
$GPRMC,152834.000,A,4806.8692,N,00139.4355,W,1.16,269.90,090218,,,A*76
arfcn: 832 rxLev: -84
arfcn: 66 rxLev: -84
arfcn: 26 rxLev: -84
arfcn: 39 rxLev: -84
arfcn: 65 rxLev: -85
arfcn: 831 rxLev: -85
arfcn: 834 rxLev: -85
arfcn: 841 rxLev: -85
arfcn: 812 rxLev: -85
$GPGGA,152835.000,4806.8695,N,00139.4352,W,1,05,1.7,23.0,M,48.3,M,,0000*78
arfcn: 833 rxLev: -85
arfcn: 839 rxLev: -85
$GPGSA,M,3,24,19,17,13,25,,,,,,,,2.9,1.7,2.4*38
arfcn: 881 rxLev: -85
$GPRMC,152835.000,A,4806.8695,N,00139.4352,W,1.16,269.90,090218,,,A*77
arfcn: 64 rxLev: -85
arfcn: 68 rxLev: -85
arfcn: 92 rxLev: -85
arfcn: 94 rxLev: -85
arfcn: 95 rxLev: -85
$GPGGA,152836.000,4806.8699,N,00139.4352,W,1,05,1.7,23.0,M,48.3,M,,0000*77
$GPGSA,M,3,24,19,17,13,25,,,,,,,,2.9,1.7,2.4*38
$GPRMC,152836.000,A,4806.8699,N,00139.4352,W,1.18,320.11,090218,,,A*73
$GPGGA,152837.000,4806.8700,N,00139.4348,W,1,05,1.7,23.4,M,48.3,M,,0000*78
$GPGSA,M,3,24,19,17,13,25,,,,,,,,2.9,1.7,2.4*38
$GPGSV,3,1,12,24,81,331,25,19,36,085,27,17,31,058,24,13,19,144,09*79
$GPGSV,3,2,12,25,14,227,11,15,44,169,06,39,31,144,,12,52,218,*74
$GPGSV,3,3,12,10,25,290,,18,22,256,,32,10,315,,20,00,204,*7C
$GPRMC,152837.000,A,4806.8700,N,00139.4348,W,1.05,320.11,090218,,,A*74
arfcn: 120 bsic: 59 rxLev: -85 ber: 0.00 mcc: 208 mnc: 10 lac: 49415 cellId: 13571 cellStatus: CELL_FORBIDDEN numArfcn: 2 arfcn: 111 120 numChannels: 14 array: 76 77 79 80 83 84 85 114 115 116 117 120 122 124 pbcch: 0 nom: 2 rac: 31 spgc: 0 pat: 6 nco: 0 t3168: 1000 t3192: 500 drxmax: 4 ctrlAck: 1 bsCVmax: 9 alpha: 10 pcMeasCh: 0 
arfcn: 13 rxLev: -85
$GPGGA,152838.000,4806.8702,N,00139.4347,W,1,05,1.7,23.3,M,48.3,M,,0000*7D
$GPGSA,M,3,24,19,17,13,25,,,,,,,,2.9,1.7,2.4*38
$GPRMC,152838.000,A,4806.8702,N,00139.4347,W,0.96,320.11,090218,,,A*7D
$GPGGA,152839.000,4806.8707,N,00139.4348,W,1,05,1.7,22.9,M,48.3,M,,0000*7D
$GPGSA,M,3,24,19,17,13,25,,,,,,,,2.9,1.7,2.4*38
$GPRMC,152839.000,A,4806.8707,N,00139.4348,W,0.98,320.11,090218,,,A*78
arfcn: 512 bsic: 25 rxLev: -85 ber: 0.01 mcc: 208 mnc: 01 lac: 10300 cellId: 40155 cellStatus: CELL_FORBIDDEN numArfcn: 16 arfcn: 519 520 521 522 523 524 525 526 596 597 598 599 600 601 602 603 numChannels: 16 array: 2 3 5 8 10 11 12 15 16 517 518 604 605 606 609 610 pbcch: 0 nom: 2 rac: 1 spgc: 0 pat: 6 nco: 0 t3168: 1000 t3192: 500 drxmax: 2 ctrlAck: 0 bsCVmax: 9 alpha: 5 pcMeasCh: 1 
$GPGGA,152840.000,4806.8712,N,00139.4349,W,1,05,1.7,22.6,M,48.3,M,,0000*79
$GPGSA,M,3,24,19,17,13,25,,,,,,,,2.9,1.7,2.4*38
$GPRMC,152840.000,A,4806.8712,N,00139.4349,W,1.05,320.11,090218,,,A*76
$GPGGA,152841.000,4806.8717,N,00139.4352,W,1,05,1.7,22.9,M,48.3,M,,0000*78
$GPGSA,M,3,24,19,17,13,25,,,,,,,,2.9,1.7,2.4*38
arfcn: 4 bsic: 54 rxLev: -86 ber: 0.04 mcc: 208 mnc: 01 lac: 10300 cellId: 43768 cellStatus: CELL_FORBIDDEN numArfcn: 13 arfcn: 4 17 18 19 20 21 22 23 24 25 47 48 49 numChannels: 20 array: 1 3 5 6 7 8 12 13 14 513 514 515 517 518 601 605 606 608 609 610 pbcch: 0 nom: 2 rac: 1 spgc: 0 pat: 6 nco: 0 t3168: 1000 t3192: 500 drxmax: 2 ctrlAck: 0 bsCVmax: 9 alpha: 5 pcMeasCh: 1 
$GPRMC,152841.000,A,4806.8717,N,00139.4352,W,1.21,330.95,090218,,,A*73
$GPGGA,152842.000,4806.8720,N,00139.4354,W,1,05,1.7,23.4,M,48.3,M,,0000*75
$GPGSA,M,3,24,19,17,13,25,,,,,,,,2.9,1.7,2.4*38
$GPGSV,3,1,12,24,81,331,25,19,36,085,27,17,31,058,24,13,19,144,09*79
$GPGSV,3,2,12,25,14,227,12,15,44,169,10,39,31,144,,12,52,218,*70
$GPGSV,3,3,12,10,25,290,,18,22,256,,32,10,315,,20,00,204,*7C
arfcn: 114 bsic: 6 rxLev: -86 ber: 0.00 mcc: 208 mnc: 10 lac: 49415 cellId: 44202 cellStatus: CELL_FORBIDDEN numArfcn: 2 arfcn: 80 114 numChannels: 20 array: 76 77 78 79 80 84 85 86 113 114 115 116 117 118 119 120 121 122 123 124 pbcch: 0 nom: 2 rac: 31 spgc: 0 pat: 6 nco: 0 t3168: 1000 t3192: 500 drxmax: 4 ctrlAck: 1 bsCVmax: 9 alpha: 10 pcMeasCh: 0 
arfcn: 96 rxLev: -86
$GPRMC,152842.000,A,4806.8720,N,00139.4354,W,1.06,330.95,090218,,,A*77
arfcn: 98 rxLev: -86
arfcn: 99 rxLev: -86
arfcn: 93 rxLev: -86
$GPGGA,152843.000,4806.8721,N,00139.4356,W,1,05,1.7,24.2,M,48.3,M,,0000*76
arfcn: 69 rxLev: -86
$GPGSA,M,3,24,19,17,13,25,,,,,,,,2.9,1.7,2.4*38
arfcn: 100 rxLev: -86
arfcn: 108 rxLev: -86
$GPRMC,152843.000,A,4806.8721,N,00139.4356,W,0.71,330.95,090218,,,A*74
arfcn: 104 rxLev: -87
arfcn: 101 rxLev: -87
arfcn: 102 rxLev: -87
arfcn: 97 rxLev: -87
$GPGGA,152844.000,4806.8722,N,00139.4356,W,1,05,1.7,24.9,M,48.3,M,,0000*79
$GPGSA,M,3,24,19,17,13,25,,,,,,,,2.9,1.7,2.4*38
$GPRMC,152844.000,A,4806.8722,N,00139.4356,W,0.53,330.95,090218,,,A*70
$GPGGA,152845.000,4806.8721,N,00139.4356,W,1,05,1.7,25.4,M,48.3,M,,0000*77
$GPGSA,M,3,24,19,17,13,25,,,,,,,,2.9,1.7,2.4*38
$GPRMC,152845.000,A,4806.8721,N,00139.4356,W,0.24,330.95,090218,,,A*72
arfcn: 76 bsic: 5 rxLev: -87 ber: 0.03 mcc: 208 mnc: 10 lac: 49415 cellId: 44813 cellStatus: CELL_FORBIDDEN numArfcn: 2 arfcn: 76 121 numChannels: 16 array: 76 77 78 79 80 82 84 85 86 113 114 117 118 121 123 124 pbcch: 0 nom: 2 rac: 31 spgc: 0 pat: 6 nco: 0 t3168: 1000 t3192: 500 drxmax: 4 ctrlAck: 1 bsCVmax: 9 alpha: 10 pcMeasCh: 0 
arfcn: 11 rxLev: -87
arfcn: 63 rxLev: -87
$GPGGA,152846.000,4806.8718,N,00139.4354,W,1,05,1.7,26.2,M,48.3,M,,0000*79
$GPGSA,M,3,24,19,17,13,25,,,,,,,,2.9,1.7,2.4*38
$GPRMC,152846.000,A,4806.8718,N,00139.4354,W,0.61,330.95,090218,,,A*78
$GPGGA,152847.000,4806.8713,N,00139.4350,W,1,05,1.7,27.2,M,48.3,M,,0000*76
$GPGSA,M,3,24,19,17,13,25,,,,,,,,2.9,1.7,2.4*38
$GPGSV,3,1,12,24,81,331,25,19,36,085,27,17,31,058,24,13,19,144,10*71
$GPGSV,3,2,12,25,14,227,11,15,44,169,05,39,31,144,,12,52,218,*77
$GPGSV,3,3,12,10,25,290,,18,22,256,,32,10,315,,20,00,204,*7C
$GPRMC,152847.000,A,4806.8713,N,00139.4350,W,0.92,330.95,090218,,,A*7A
arfcn: 979 bsic: 19 rxLev: -87 ber: 1.04 mcc: 208 mnc: 20 lac: 418 cellId: 20718 cellStatus: CELL_SUITABLE numArfcn: 1 arfcn: 979 numChannels: 22 array: 788 789 790 792 793 795 878 882 884 977 981 983 984 985 986 987 1012 1013 1014 1017 1019 1020 pbcch: 0 nom: 2 rac: 6 spgc: 0 pat: 6 nco: 0 t3168: 1500 t3192: 500 drxmax: 0 ctrlAck: 0 bsCVmax: 8 alpha: 6 pcMeasCh: 1 
$GPGGA,152848.000,4806.8712,N,00139.4348,W,1,04,3.5,27.3,M,48.3,M,,0000*71
arfcn: 984 rxLev: -87
$GPGSA,M,3,24,19,17,25,,,,,,,,,4.4,3.5,2.7*32
$GPRMC,152848.000,A,4806.8712,N,00139.4348,W,0.98,330.95,090218,,,A*77
$GPGGA,152849.000,4806.8711,N,00139.4348,W,1,04,3.5,27.3,M,48.3,M,,0000*73
$GPGSA,M,3,24,19,17,25,,,,,,,,,4.4,3.5,2.7*32
$GPRMC,152849.000,A,4806.8711,N,00139.4348,W,0.66,330.95,090218,,,A*74
arfcn: 604 bsic: 20 rxLev: -87 ber: 0.00 mcc: 208 mnc: 01 lac: 10300 cellId: 39915 cellStatus: CELL_FORBIDDEN numArfcn: 16 arfcn: 519 520 521 522 523 524 525 526 596 597 598 599 600 601 602 603 numChannels: 13 array: 5 6 10 15 16 512 514 516 517 518 608 609 610 pbcch: 0 nom: 2 rac: 1 spgc: 0 pat: 6 nco: 0 t3168: 1000 t3192: 500 drxmax: 2 ctrlAck: 0 bsCVmax: 9 alpha: 5 pcMeasCh: 1 
arfcn: 46 rxLev: -87
arfcn: 91 rxLev: -87
arfcn: 105 rxLev: -87
$GPGGA,152850.000,4806.8708,N,00139.4347,W,1,04,3.5,27.8,M,48.3,M,,0000*77
arfcn: 106 rxLev: -87
$GPGSA,M,3,24,19,17,25,,,,,,,,,4.4,3.5,2.7*32
arfcn: 107 rxLev: -87
$GPRMC,152850.000,A,4806.8708,N,00139.4347,W,0.98,330.95,090218,,,A*7A
arfcn: 109 rxLev: -88
arfcn: 103 rxLev: -88
$GPGGA,152851.000,4806.8705,N,00139.4348,W,1,04,3.5,28.7,M,48.3,M,,0000*74
$GPGSA,M,3,24,19,17,25,,,,,,,,,4.4,3.5,2.7*32
$GPRMC,152851.000,A,4806.8705,N,00139.4348,W,0.93,330.95,090218,,,A*72
$GPGGA,152852.000,4806.8701,N,00139.4349,W,1,04,3.5,29.2,M,48.3,M,,0000*76
arfcn: 122 bsic: 3 rxLev: -88 ber: 0.00 mcc: 208 mnc: 10 lac: 49415 cellId: 33517 cellStatus: CELL_FORBIDDEN numArfcn: 3 arfcn: 77 88 122 numChannels: 17 array: 77 78 79 80 82 84 85 86 114 115 117 118 119 120 122 123 124 pbcch: 0 nom: 2 rac: 31 spgc: 0 pat: 6 nco: 0 t3168: 1000 t3192: 500 drxmax: 4 ctrlAck: 1 bsCVmax: 9 alpha: 10 pcMeasCh: 0 
arfcn: 62 rxLev: -88
$GPGSA,M,3,24,19,17,25,,,,,,,,,4.4,3.5,2.7*32
$GPGSV,3,1,12,24,81,332,26,19,36,084,27,17,31,058,24,25,14,228,10*71
$GPGSV,3,2,12,13,19,144,12,15,44,169,07,39,31,144,,12,52,218,*78
$GPGSV,3,3,12,10,25,289,,18,22,256,,32,11,315,,01,00,010,*71
$GPRMC,152852.000,A,4806.8701,N,00139.4349,W,1.15,330.95,090218,,,A*7B
$GPGGA,152853.000,4806.8699,N,00139.4352,W,1,04,3.5,29.7,M,48.3,M,,0000*78
$GPGSA,M,3,24,19,17,25,,,,,,,,,4.4,3.5,2.7*32
$GPRMC,152853.000,A,4806.8699,N,00139.4352,W,1.05,330.95,090218,,,A*71
$GPGGA,152854.000,4806.8695,N,00139.4352,W,1,04,3.5,30.0,M,48.3,M,,0000*7C
$GPGSA,M,3,24,19,17,25,,,,,,,,,4.4,3.5,2.7*32
$GPRMC,152854.000,A,4806.8695,N,00139.4352,W,1.06,330.95,090218,,,A*79
$GPGGA,152855.000,4806.8694,N,00139.4352,W,1,04,3.5,30.4,M,48.3,M,,0000*78
$GPGSA,M,3,24,19,17,25,,,,,,,,,4.4,3.5,2.7*32
$GPRMC,152855.000,A,4806.8694,N,00139.4352,W,0.51,330.95,090218,,,A*7A
$GPGGA,152856.000,4806.8694,N,00139.4351,W,1,04,3.5,30.5,M,48.3,M,,0000*79
$GPGSA,M,3,24,19,17,25,,,,,,,,,4.4,3.5,2.7*32
$GPRMC,152856.000,A,4806.8694,N,00139.4351,W,0.21,330.95,090218,,,A*7D
arfcn: 606 bsic: 57 rxLev: -88 ber: 12.10 mcc: 208 mnc: 01 lac: 10301 cellId: 27485 cellStatus: CELL_FORBIDDEN numArfcn: 16 arfcn: 519 520 521 522 523 524 525 526 596 597 598 599 600 601 602 603 numChannels: 0 array:
arfcn: 53 rxLev: -88
$GPGGA,152857.000,4806.8693,N,00139.4348,W,1,04,3.5,30.7,M,48.3,M,,0000*75
arfcn: 86 rxLev: -88
$GPGSA,M,3,24,19,17,25,,,,,,,,,4.4,3.5,2.7*32
$GPGSV,3,1,12,24,81,332,26,19,36,084,27,17,31,058,24,25,14,228,10*71
$GPGSV,3,2,12,13,19,144,12,15,44,169,04,39,31,144,,12,52,218,*7B
$GPGSV,3,3,12,10,25,289,,18,22,256,,32,11,315,,01,00,010,*71
$GPRMC,152857.000,A,4806.8693,N,00139.4348,W,0.32,330.95,090218,,,A*71
$GPGGA,152858.000,4806.8695,N,00139.4346,W,1,04,3.5,30.9,M,48.3,M,,0000*7C
$GPGSA,M,3,24,19,17,25,,,,,,,,,4.4,3.5,2.7*32
$GPRMC,152858.000,A,4806.8695,N,00139.4346,W,0.40,330.95,090218,,,A*73
arfcn: 78 bsic: 2 rxLev: -88 ber: 2.05 mcc: 208 mnc: 10 lac: 49415 cellId: 45280 cellStatus: CELL_FORBIDDEN numArfcn: 2 arfcn: 78 116 numChannels: 20 array: 76 77 78 79 80 82 83 84 85 86 114 115 116 117 118 120 121 122 123 124 pbcch: 0 nom: 2 rac: 31 spgc: 0 pat: 6 nco: 0 t3168: 1000 t3192: 500 drxmax: 4 ctrlAck: 1 bsCVmax: 9 alpha: 10 pcMeasCh: 0 
arfcn: 70 rxLev: -88
arfcn: 84 rxLev: -89
arfcn: 57 rxLev: -89
arfcn: 58 rxLev: -89
$GPGGA,152859.000,4806.8694,N,00139.4340,W,1,04,3.5,31.1,M,48.3,M,,0000*73
$GPGSA,M,3,24,19,17,25,,,,,,,,,4.4,3.5,2.7*32
$GPRMC,152859.000,A,4806.8694,N,00139.4340,W,0.85,330.95,090218,,,A*7C
$GPGGA,152900.000,4806.8695,N,00139.4335,W,1,04,3.5,31.2,M,48.3,M,,0000*7E
$GPGSA,M,3,24,19,17,25,,,,,,,,,4.4,3.5,2.6*33
$GPRMC,152900.000,A,4806.8695,N,00139.4335,W,0.94,330.95,090218,,,A*72
arfcn: 514 bsic: 1 rxLev: -89 ber: 1.01 mcc: 208 mnc: 01 lac: 10300 cellId: 39259 cellStatus: CELL_FORBIDDEN numArfcn: 17 arfcn: 514 519 520 521 522 523 524 525 526 596 597 598 599 600 601 602 603 numChannels: 14 array: 1 6 8 10 12 14 512 513 514 517 604 605 606 608 pbcch: 0 nom: 2 rac: 1 spgc: 1 pat: 6 nco: 0 t3168: 1000 t3192: 500 drxmax: 4 ctrlAck: 1 bsCVmax: 9 alpha: 7 pcMeasCh: 0 
arfcn: 59 rxLev: -89
arfcn: 60 rxLev: -89
$GPGGA,152901.000,4806.8698,N,00139.4330,W,1,04,3.5,31.4,M,48.3,M,,0000*71
$GPGSA,M,3,24,19,17,25,,,,,,,,,4.4,3.5,2.6*33
$GPRMC,152901.000,A,4806.8698,N,00139.4330,W,1.25,0.25,090218,,,A*7B
$GPGGA,152902.000,4806.8702,N,00139.4328,W,1,04,3.5,31.8,M,48.3,M,,0000*75
$GPGSA,M,3,24,19,17,25,,,,,,,,,4.4,3.5,2.6*33
$GPGSV,3,1,12,24,81,332,26,19,36,084,28,17,31,058,24,25,14,228,10*7E
$GPGSV,3,2,12,13,19,144,12,15,44,169,04,33,33,198,,12,52,218,*72
$GPGSV,3,3,12,10,25,289,,18,22,256,,32,11,315,,01,00,010,*71
$GPRMC,152902.000,A,4806.8702,N,00139.4328,W,1.27,14.86,090218,,,A*4D
arfcn: 3 bsic: 0 rxLev: -89 ber: 0.02 mcc: 208 mnc: 01 lac: 10300 cellId: 2686 cellStatus: CELL_FORBIDDEN numArfcn: 13 arfcn: 3 17 18 19 20 21 22 23 24 25 47 48 49 numChannels: 13 array: 1 5 6 7 10 12 14 512 515 517 604 606 608 pbcch: 0 nom: 2 rac: 1 spgc: 0 pat: 6 nco: 0 t3168: 1000 t3192: 500 drxmax: 2 ctrlAck: 0 bsCVmax: 9 alpha: 5 pcMeasCh: 1 
arfcn: 81 rxLev: -89
$GPGGA,152903.000,4806.8705,N,00139.4326,W,1,04,3.5,32.3,M,48.3,M,,0000*75
arfcn: 79 rxLev: -89
$GPGSA,M,3,24,19,17,25,,,,,,,,,4.4,3.5,2.6*33
arfcn: 123 rxLev: -89
$GPRMC,152903.000,A,4806.8705,N,00139.4326,W,0.99,14.86,090218,,,A*41
$GPGGA,152904.000,4806.8710,N,00139.4327,W,1,04,3.5,32.8,M,48.3,M,,0000*7C
$GPGSA,M,3,24,19,17,25,,,,,,,,,4.4,3.5,2.6*33
$GPRMC,152904.000,A,4806.8710,N,00139.4327,W,0.75,14.86,090218,,,A*41
$GPGGA,152905.000,4806.8711,N,00139.4326,W,1,04,3.5,33.1,M,48.3,M,,0000*75
arfcn: 117 bsic: 12 rxLev: -90 ber: 0.00 mcc: 208 mnc: 10 lac: 49415 cellId: 3568 cellStatus: CELL_FORBIDDEN numArfcn: 2 arfcn: 82 117 numChannels: 17 array: 76 77 78 79 80 83 84 85 87 113 114 116 117 120 122 123 124 pbcch: 0 nom: 2 rac: 31 spgc: 0 pat: 6 nco: 0 t3168: 1000 t3192: 500 drxmax: 4 ctrlAck: 1 bsCVmax: 9 alpha: 10 pcMeasCh: 0 
$GPGSA,M,3,24,19,17,25,,,,,,,,,4.4,3.5,2.6*33
arfcn: 90 rxLev: -90
arfcn: 9 rxLev: -90
$GPRMC,152905.000,A,4806.8711,N,00139.4326,W,0.63,14.86,090218,,,A*47
arfcn: 61 rxLev: -90
arfcn: 54 rxLev: -90
arfcn: 983 rxLev: -90
arfcn: 55 rxLev: -90
arfcn: 56 rxLev: -91
arfcn: 1 rxLev: -91
arfcn: 7 rxLev: -91
arfcn: 25 rxLev: -91
$GPGGA,152906.000,4806.8713,N,00139.4326,W,1,04,3.5,33.4,M,48.3,M,,0000*71
arfcn: 1014 rxLev: -91
$GPGSA,M,3,24,19,17,25,,,,,,,,,4.4,3.5,2.6*33
arfcn: 52 rxLev: -91
arfcn: 71 rxLev: -92
$GPRMC,152906.000,A,4806.8713,N,00139.4326,W,0.47,14.86,090218,,,A*40
$GPGGA,152907.000,4806.8716,N,00139.4326,W,1,04,3.5,33.5,M,48.3,M,,0000*74
$GPGSA,M,3,24,19,17,25,,,,,,,,,4.4,3.5,2.6*33
$GPGSV,3,1,12,24,81,332,26,19,36,084,28,17,31,058,24,25,14,228,09*76
$GPGSV,3,2,12,13,19,144,11,15,44,169,04,33,33,198,,12,52,218,*71
$GPGSV,3,3,12,10,25,289,,18,22,256,,32,11,315,,01,00,010,*71
$GPRMC,152907.000,A,4806.8716,N,00139.4326,W,0.35,14.86,090218,,,A*41
$GPGGA,152908.000,4806.8718,N,00139.4326,W,1,04,3.5,33.6,M,48.3,M,,0000*76
$GPGSA,M,3,24,19,17,25,,,,,,,,,4.4,3.5,2.6*33
$GPRMC,152908.000,A,4806.8718,N,00139.4326,W,0.30,14.86,090218,,,A*45
arfcn: 115 bsic: 43 rxLev: -92 ber: 0.00 mcc: 208 mnc: 10 lac: 49415 cellId: 55710 cellStatus: CELL_FORBIDDEN numArfcn: 2 arfcn: 87 115 numChannels: 22 array: 76 77 78 79 80 82 83 84 85 86 113 114 115 116 117 118 119 120 121 122 123 124 pbcch: 0 nom: 2 rac: 31 spgc: 0 pat: 6 nco: 0 t3168: 1000 t3192: 500 drxmax: 4 ctrlAck: 1 bsCVmax: 9 alpha: 10 pcMeasCh: 0 
$GPGGA,152909.000,4806.8719,N,00139.4326,W,1,04,3.5,33.7,M,48.3,M,,0000*77
$GPGSA,M,3,24,19,17,25,,,,,,,,,4.4,3.5,2.6*33
$GPRMC,152909.000,A,4806.8719,N,00139.4326,W,0.18,14.86,090218,,,A*4F
$GPGGA,152910.000,4806.8724,N,00139.4328,W,1,04,3.5,33.7,M,48.3,M,,0000*7F
$GPGSA,M,3,24,19,17,25,,,,,,,,,4.4,3.5,2.6*33
$GPRMC,152910.000,A,4806.8724,N,00139.4328,W,0.35,14.86,090218,,,A*48
$GPGGA,152911.000,4806.8725,N,00139.4327,W,0,00,,33.6,M,48.3,M,,0000*5C
$GPGSA,M,1,,,,,,,,,,,,,,,*12
$GPRMC,152911.000,V,4806.8725,N,00139.4327,W,,,090218,,,N*62
$GPGGA,152912.000,4806.8727,N,00139.4326,W,1,04,3.5,33.4,M,48.3,M,,0000*73
$GPGSA,M,3,24,19,17,25,,,,,,,,,4.4,3.5,2.6*33
arfcn: 987 bsic: 40 rxLev: -92 ber: 2.06 mcc: 208 mnc: 20 lac: 418 cellId: 22381 cellStatus: CELL_SUITABLE numArfcn: 2 arfcn: 987 1018 numChannels: 25 array: 790 792 793 796 878 882 884 976 977 978 979 981 982 983 984 986 1011 1013 1014 1015 1016 1017 1019 1020 1022 pbcch: 0 nom: 2 rac: 6 spgc: 0 pat: 6 nco: 0 t3168: 1500 t3192: 500 drxmax: 0 ctrlAck: 0 bsCVmax: 8 alpha: 6 pcMeasCh: 1 
arfcn: 1016 rxLev: -92
$GPGSV,3,1,12,24,81,332,26,19,36,084,28,17,31,058,23,25,14,228,09*71
$GPGSV,3,2,12,13,19,144,13,15,44,169,04,33,33,198,,12,52,218,*73
$GPGSV,3,3,12,10,25,289,,18,22,256,,32,11,315,,01,00,010,*71
$GPRMC,152912.000,A,4806.8727,N,00139.4326,W,0.35,14.86,090218,,,A*47
$GPGGA,152913.021,4806.8728,N,00139.4324,W,1,04,3.5,33.1,M,48.3,M,,0000*79
$GPGSA,M,3,24,19,17,25,,,,,,,,,4.4,3.5,2.6*33
$GPRMC,152913.021,A,4806.8728,N,00139.4324,W,0.39,14.86,090218,,,A*44
$GPGGA,152914.000,4806.8725,N,00139.4322,W,1,05,1.7,33.0,M,48.3,M,,0000*76
$GPGSA,M,3,24,19,17,13,25,,,,,,,,2.9,1.7,2.4*38
$GPRMC,152914.000,A,4806.8725,N,00139.4322,W,0.13,14.86,090218,,,A*43
$GPGGA,152915.000,4806.8724,N,00139.4319,W,1,04,4.1,32.7,M,48.3,M,,0000*7A
$GPGSA,M,3,24,19,17,13,,,,,,,,,7.3,4.1,6.0*33
$GPRMC,152915.000,A,4806.8724,N,00139.4319,W,0.11,14.86,090218,,,A*49
arfcn: 1021 bsic: 35 rxLev: -92 ber: 0.06 mcc: 208 mnc: 20 lac: 418 cellId: 20102 cellStatus: CELL_SUITABLE numArfcn: 3 arfcn: 975 982 1021 numChannels: 21 array: 788 790 880 885 975 976 977 978 980 981 982 986 987 1011 1012 1015 1017 1019 1020 1021 1022 pbcch: 0 nom: 2 rac: 7 spgc: 0 pat: 6 nco: 0 t3168: 1500 t3192: 500 drxmax: 4 ctrlAck: 1 bsCVmax: 8 alpha: 6 pcMeasCh: 1 
arfcn: 110 rxLev: -93
arfcn: 6 rxLev: -93
arfcn: 82 rxLev: -93
arfcn: 724 rxLev: -93
$GPGGA,152916.000,4806.8724,N,00139.4318,W,1,05,1.7,32.2,M,48.3,M,,0000*7F
$GPGSA,M,3,24,19,17,13,25,,,,,,,,2.9,1.7,2.4*38
$GPRMC,152916.000,A,4806.8724,N,00139.4318,W,0.20,14.86,090218,,,A*49
$GPGGA,152917.000,4806.8722,N,00139.4315,W,1,04,4.1,31.8,M,48.3,M,,0000*7E
$GPGSA,M,3,24,19,17,13,,,,,,,,,7.3,4.1,6.0*33
$GPGSV,3,1,12,24,81,332,26,19,36,084,28,17,31,058,23,13,19,144,14*7C
$GPGSV,3,2,12,25,14,228,07,33,33,198,,12,52,218,,15,44,169,*73
$GPGSV,3,3,12,10,25,289,,18,22,256,,32,11,315,,01,00,010,*71
arfcn: 608 bsic: 46 rxLev: -94 ber: 1.10 mcc: FFF mnc: FF lac: 65535 cellId: 0 cellStatus: CELL_OTHER numArfcn: 0 arfcn: numChannels: 0 array:
arfcn: 47 rxLev: -94
$GPRMC,152917.000,A,4806.8722,N,00139.4315,W,0.12,14.86,090218,,,A*42
arfcn: 83 rxLev: -95
$GPGGA,152918.000,4806.8721,N,00139.4314,W,1,04,4.1,31.7,M,48.3,M,,0000*7C
arfcn: 725 rxLev: -95
arfcn: 715 rxLev: -95
$GPGSA,M,3,24,19,17,13,,,,,,,,,7.3,4.1,6.0*33
arfcn: 716 rxLev: -95
arfcn: 719 rxLev: -95
$GPRMC,152918.000,A,4806.8721,N,00139.4314,W,0.19,14.86,090218,,,A*44
arfcn: 735 rxLev: -95
arfcn: 746 rxLev: -95
arfcn: 768 rxLev: -95
arfcn: 778 rxLev: -95
arfcn: 15 rxLev: -95
arfcn: 112 rxLev: -96
arfcn: 121 rxLev: -96
$GPGGA,152919.000,4806.8721,N,00139.4312,W,1,04,4.1,31.3,M,48.3,M,,0000*7F
arfcn: 767 rxLev: -96
arfcn: 734 rxLev: -96
$GPGSA,M,3,24,19,17,13,,,,,,,,,7.3,4.1,6.0*33
arfcn: 718 rxLev: -96
arfcn: 729 rxLev: -96
$GPRMC,152919.000,A,4806.8721,N,00139.4312,W,0.34,14.86,090218,,,A*4C
arfcn: 730 rxLev: -96
arfcn: 731 rxLev: -96
arfcn: 726 rxLev: -96
arfcn: 733 rxLev: -96
arfcn: 766 rxLev: -96
arfcn: 773 rxLev: -96
arfcn: 774 rxLev: -96
$GPGGA,152920.000,4806.8720,N,00139.4311,W,1,04,4.1,31.1,M,48.3,M,,0000*75
arfcn: 758 rxLev: -96
arfcn: 89 rxLev: -96
$GPGSA,M,3,24,19,17,13,,,,,,,,,7.3,4.1,6.0*33
arfcn: 609 rxLev: -96
$GPRMC,152920.000,A,4806.8720,N,00139.4311,W,0.17,14.86,090218,,,A*45
arfcn: 1018 rxLev: -97
arfcn: 1019 rxLev: -97
$GPGGA,152921.000,4806.8720,N,00139.4310,W,0,00,,31.0,M,48.3,M,,0000*5A
$GPGSA,M,1,,,,,,,,,,,,,,,*12
$GPRMC,152921.000,V,4806.8720,N,00139.4310,W,,,090218,,,N*60
$GPGGA,152922.000,4806.8719,N,00139.4309,W,0,00,,30.9,M,48.3,M,,0000*53
$GPGSA,M,1,,,,,,,,,,,,,,,*12
$GPGSV,3,1,12,13,19,144,14,17,31,058,23,19,36,084,28,24,81,332,26*7C
$GPGSV,3,2,12,25,14,228,05,33,33,198,,12,52,218,,15,44,169,*71
$GPGSV,3,3,12,10,25,289,,18,22,256,,32,11,315,,01,00,010,*71
$GPRMC,152922.000,V,4806.8719,N,00139.4309,W,,,090218,,,N*61
$GPGGA,152923.020,4806.8719,N,00139.4309,W,0,00,,30.8,M,48.3,M,,0000*51
$GPGSA,M,1,,,,,,,,,,,,,,,*12
$GPRMC,152923.020,V,4806.8719,N,00139.4309,W,,,090218,,,N*62
arfcn: 1013 bsic: 63 rxLev: -97 ber: 4.08 mcc: 208 mnc: 20 lac: 418 cellId: 38979 cellStatus: CELL_SUITABLE numArfcn: 2 arfcn: 988 1013 numChannels: 27 array: 787 788 790 794 879 880 881 882 885 975 976 977 978 979 981 983 984 985 986 1012 1014 1016 1017 1018 1019 1020 1022 pbcch: 0 nom: 2 rac: 6 spgc: 0 pat: 6 nco: 0 t3168: 1500 t3192: 500 drxmax: 0 ctrlAck: 0 bsCVmax: 8 alpha: 6 pcMeasCh: 1 
arfcn: 72 rxLev: -97
$GPGGA,152924.020,4806.8719,N,00139.4308,W,0,00,,30.7,M,48.3,M,,0000*58
arfcn: 759 rxLev: -97
$GPGSA,M,1,,,,,,,,,,,,,,,*12
$GPRMC,152924.020,V,4806.8719,N,00139.4308,W,,,090218,,,N*64
arfcn: 749 rxLev: -97
arfcn: 751 rxLev: -97
arfcn: 753 rxLev: -97
arfcn: 755 rxLev: -97
arfcn: 772 rxLev: -97
arfcn: 779 rxLev: -97
arfcn: 777 rxLev: -97
arfcn: 732 rxLev: -97
arfcn: 744 rxLev: -97
$GPGGA,152925.020,4806.8719,N,00139.4307,W,0,00,,30.6,M,48.3,M,,0000*57
arfcn: 745 rxLev: -97
$GPGSA,M,1,,,,,,,,,,,,,,,*12
arfcn: 720 rxLev: -97
arfcn: 721 rxLev: -97
$GPRMC,152925.020,V,4806.8719,N,00139.4307,W,,,090218,,,N*6A
arfcn: 722 rxLev: -97
arfcn: 723 rxLev: -97
arfcn: 717 rxLev: -97
arfcn: 737 rxLev: -97
arfcn: 739 rxLev: -97
arfcn: 765 rxLev: -97
arfcn: 754 rxLev: -97
arfcn: 752 rxLev: -97
arfcn: 762 rxLev: -97
arfcn: 17 rxLev: -97
$GPGGA,152926.020,4806.8719,N,00139.4306,W,0,00,,30.5,M,48.3,M,,0000*56
arfcn: 513 rxLev: -97
$GPGSA,M,1,,,,,,,,,,,,,,,*12
$GPRMC,152926.020,V,4806.8719,N,00139.4306,W,,,090218,,,N*68
$GPGGA,152927.020,4806.8719,N,00139.4306,W,0,00,,30.4,M,48.3,M,,0000*56
$GPGSA,M,1,,,,,,,,,,,,,,,*12
$GPGSV,3,1,12,13,19,144,14,15,44,169,07,17,31,058,23,19,36,084,28*78
$GPGSV,3,2,12,24,81,332,26,25,14,228,05,33,33,198,,12,52,218,*72
$GPGSV,3,3,12,10,25,289,,18,22,256,,32,11,315,,01,00,010,*71
$GPRMC,152927.020,V,4806.8719,N,00139.4306,W,,,090218,,,N*69
$GPGGA,152928.020,4806.8719,N,00139.4305,W,0,00,,30.3,M,48.3,M,,0000*5D
$GPGSA,M,1,,,,,,,,,,,,,,,*12
$GPRMC,152928.020,V,4806.8719,N,00139.4305,W,,,090218,,,N*65
$GPGGA,152929.020,4806.8722,N,00139.4292,W,1,04,4.1,29.6,M,48.3,M,,0000*78
$GPGSA,M,3,24,19,17,13,,,,,,,,,7.3,4.1,6.0*33
$GPRMC,152929.020,A,4806.8722,N,00139.4292,W,0.88,14.86,090218,,,A*40
arfcn: 1011 bsic: 26 rxLev: -98 ber: 4.05 mcc: 208 mnc: 20 lac: 418 cellId: 17727 cellStatus: CELL_SUITABLE numArfcn: 1 arfcn: 1011 numChannels: 22 array: 790 880 882 976 978 979 980 981 982 984 985 987 1012 1013 1014 1015 1016 1017 1018 1019 1020 1021 pbcch: 0 nom: 2 rac: 6 spgc: 0 pat: 6 nco: 0 t3168: 1500 t3192: 500 drxmax: 0 ctrlAck: 0 bsCVmax: 8 alpha: 6 pcMeasCh: 1 
$GPGGA,152930.020,4806.8719,N,00139.4297,W,1,04,4.1,29.8,M,48.3,M,,0000*73
arfcn: 516 rxLev: -98
arfcn: 2 rxLev: -98
$GPGSA,M,3,24,19,17,13,,,,,,,,,7.3,4.1,6.0*33
arfcn: 51 rxLev: -98
arfcn: 77 rxLev: -98
$GPRMC,152930.020,A,4806.8719,N,00139.4297,W,0.27,14.86,090218,,,A*40
arfcn: 977 rxLev: -98
arfcn: 761 rxLev: -98
arfcn: 756 rxLev: -98
arfcn: 776 rxLev: -98
arfcn: 747 rxLev: -98
arfcn: 740 rxLev: -98
arfcn: 741 rxLev: -98
$GPGGA,152931.000,4806.8719,N,00139.4302,W,1,04,4.1,29.9,M,48.3,M,,0000*7C
arfcn: 743 rxLev: -98
arfcn: 742 rxLev: -98
$GPGSA,M,3,24,19,17,13,,,,,,,,,7.3,4.1,6.0*33
arfcn: 736 rxLev: -98
arfcn: 727 rxLev: -98
$GPRMC,152931.000,A,4806.8719,N,00139.4302,W,0.37,14.86,090218,,,A*4F
arfcn: 728 rxLev: -98
arfcn: 757 rxLev: -98
arfcn: 760 rxLev: -98
arfcn: 750 rxLev: -98
arfcn: 780 rxLev: -98
arfcn: 1012 rxLev: -98
arfcn: 620 rxLev: -99
arfcn: 621 rxLev: -99
$GPGGA,152932.000,4806.8719,N,00139.4301,W,1,04,4.1,30.1,M,48.3,M,,0000*7C
arfcn: 625 rxLev: -99
$GPGSA,M,3,24,19,17,13,,,,,,,,,7.3,4.1,6.0*33
arfcn: 111 rxLev: -99
arfcn: 75 rxLev: -99
$GPGSV,3,1,12,24,81,332,26,19,36,084,28,17,31,058,24,13,19,144,13*7C
arfcn: 770 rxLev: -99
arfcn: 771 rxLev: -99
$GPGSV,3,2,12,15,44,169,04,25,14,228,04,33,33,198,,12,52,218,*74
arfcn: 775 rxLev: -99
arfcn: 748 rxLev: -99
$GPGSV,3,3,12,10,25,289,,18,22,256,,32,11,315,,01,00,010,*71
arfcn: 763 rxLev: -99
$GPRMC,152932.000,A,4806.8719,N,00139.4301,W,0.30,14.86,090218,,,A*48
arfcn: 781 rxLev: -99
arfcn: 738 rxLev: -99
arfcn: 113 rxLev: -99
$GPGGA,152933.000,4806.8719,N,00139.4302,W,1,04,4.1,30.3,M,48.3,M,,0000*7C
arfcn: 627 rxLev: -99
$GPGSA,M,3,24,19,17,13,,,,,,,,,7.3,4.1,6.0*33
arfcn: 617 rxLev: -99
arfcn: 618 rxLev: -100
$GPRMC,152933.000,A,4806.8719,N,00139.4302,W,0.36,14.86,090218,,,A*4C
arfcn: 619 rxLev: -100
arfcn: 624 rxLev: -100
arfcn: 622 rxLev: -100
arfcn: 623 rxLev: -100
arfcn: 633 rxLev: -100
arfcn: 646 rxLev: -100
arfcn: 660 rxLev: -100
arfcn: 661 rxLev: -100
arfcn: 988 rxLev: -100
$GPGGA,152934.000,4806.8718,N,00139.4301,W,1,04,4.1,30.7,M,48.3,M,,0000*7D
arfcn: 975 rxLev: -100
$GPGSA,M,3,24,19,17,13,,,,,,,,,7.3,4.1,6.0*33
arfcn: 699 rxLev: -100
arfcn: 782 rxLev: -100
$GPRMC,152934.000,A,4806.8718,N,00139.4301,W,0.18,14.86,090218,,,A*45
arfcn: 769 rxLev: -100
arfcn: 764 rxLev: -100
arfcn: 631 rxLev: -100
arfcn: 640 rxLev: -100
arfcn: 642 rxLev: -101
arfcn: 643 rxLev: -101
arfcn: 639 rxLev: -101
$GPGGA,152935.000,4806.8715,N,00139.4304,W,1,04,4.1,31.7,M,48.3,M,,0000*75
arfcn: 629 rxLev: -101
arfcn: 632 rxLev: -101
$GPGSA,M,3,24,19,17,13,,,,,,,,,7.2,4.1,6.0*32
arfcn: 626 rxLev: -101
arfcn: 644 rxLev: -101
$GPRMC,152935.000,A,4806.8715,N,00139.4304,W,0.28,14.86,090218,,,A*4F
arfcn: 648 rxLev: -101
arfcn: 654 rxLev: -101
arfcn: 21 rxLev: -101
arfcn: 698 rxLev: -101
arfcn: 704 rxLev: -101
arfcn: 700 rxLev: -101
arfcn: 701 rxLev: -101
arfcn: 705 rxLev: -101
$GPGGA,152936.000,4806.8710,N,00139.4298,W,1,04,4.1,33.0,M,48.3,M,,0000*72
arfcn: 697 rxLev: -101
arfcn: 680 rxLev: -101
$GPGSA,M,3,24,19,17,13,,,,,,,,,7.2,4.1,6.0*32
arfcn: 682 rxLev: -101
arfcn: 691 rxLev: -101
$GPRMC,152936.000,A,4806.8710,N,00139.4298,W,0.37,14.86,090218,,,A*43
arfcn: 976 rxLev: -101
arfcn: 73 rxLev: -101
arfcn: 634 rxLev: -101
arfcn: 628 rxLev: -101
arfcn: 630 rxLev: -101
arfcn: 641 rxLev: -101
arfcn: 635 rxLev: -102
$GPGGA,152937.000,4806.8710,N,00139.4297,W,0,00,,33.2,M,48.3,M,,0000*50
arfcn: 653 rxLev: -102
$GPGSA,M,1,,,,,,,,,,,,,,,*12
arfcn: 656 rxLev: -102
arfcn: 658 rxLev: -102
$GPGSV,3,1,12,13,19,144,13,15,44,169,05,17,31,058,24,19,36,084,27*75
arfcn: 659 rxLev: -102
$GPGSV,3,2,12,24,81,332,26,37,27,150,,12,52,218,,10,25,289,*7D
arfcn: 650 rxLev: -102
arfcn: 662 rxLev: -102
$GPGSV,3,3,12,18,22,256,,25,14,228,,32,11,315,,01,00,010,*7E
arfcn: 665 rxLev: -102
arfcn: 666 rxLev: -102
$GPRMC,152937.000,V,4806.8710,N,00139.4297,W,,,090218,,,N*6A
arfcn: 670 rxLev: -102
arfcn: 672 rxLev: -102
arfcn: 19 rxLev: -102
arfcn: 689 rxLev: -102
$GPGGA,152938.000,4806.8711,N,00139.4296,W,0,00,,33.3,M,48.3,M,,0000*5E
arfcn: 677 rxLev: -102
$GPGSA,M,1,,,,,,,,,,,,,,,*12
arfcn: 696 rxLev: -102
$GPRMC,152938.000,V,4806.8711,N,00139.4296,W,,,090218,,,N*65
arfcn: 693 rxLev: -102
arfcn: 706 rxLev: -102
arfcn: 703 rxLev: -102
arfcn: 702 rxLev: -102
arfcn: 692 rxLev: -102
arfcn: 694 rxLev: -102
arfcn: 676 rxLev: -102
arfcn: 678 rxLev: -102
arfcn: 688 rxLev: -102
$GPGGA,152939.020,4806.8712,N,00139.4295,W,0,00,,33.5,M,48.3,M,,0000*5B
$GPGSA,M,1,,,,,,,,,,,,,,,*12
arfcn: 690 rxLev: -102
arfcn: 49 rxLev: -102
$GPRMC,152939.020,V,4806.8712,N,00139.4295,W,,,090218,,,N*66
arfcn: 116 rxLev: -102
arfcn: 119 rxLev: -102
arfcn: 668 rxLev: -102
arfcn: 669 rxLev: -102
arfcn: 663 rxLev: -102
arfcn: 645 rxLev: -102
arfcn: 647 rxLev: -102
arfcn: 638 rxLev: -102
arfcn: 636 rxLev: -102
$GPGGA,152940.020,4806.8713,N,00139.4294,W,0,00,,33.6,M,48.3,M,,0000*56
arfcn: 1022 rxLev: -102
$GPGSA,M,1,,,,,,,,,,,,,,,*12
arfcn: 637 rxLev: -103
arfcn: 607 rxLev: -103
$GPRMC,152940.020,V,4806.8713,N,00139.4294,W,,,090218,,,N*68
arfcn: 652 rxLev: -103
arfcn: 667 rxLev: -103
arfcn: 664 rxLev: -103
arfcn: 673 rxLev: -103
arfcn: 24 rxLev: -103
arfcn: 685 rxLev: -103
arfcn: 687 rxLev: -103
arfcn: 681 rxLev: -103
arfcn: 695 rxLev: -103
$GPGGA,152941.020,4806.8713,N,00139.4293,W,0,00,,33.8,M,48.3,M,,0000*5E
arfcn: 683 rxLev: -103
$GPGSA,M,1,,,,,,,,,,,,,,,*12
arfcn: 686 rxLev: -103
$GPRMC,152941.020,V,4806.8713,N,00139.4293,W,,,090218,,,N*6E
arfcn: 118 rxLev: -103
arfcn: 87 rxLev: -103
arfcn: 674 rxLev: -103
arfcn: 675 rxLev: -103
arfcn: 671 rxLev: -103
arfcn: 655 rxLev: -103
arfcn: 657 rxLev: -103
arfcn: 1015 rxLev: -103
$GPGGA,152942.020,4806.8714,N,00139.4292,W,0,00,,33.9,M,48.3,M,,0000*5A
arfcn: 523 rxLev: -104
$GPGSA,M,1,,,,,,,,,,,,,,,*12
arfcn: 651 rxLev: -104
arfcn: 16 rxLev: -104
$GPGSV,3,1,12,13,19,144,14,15,44,169,04,17,31,058,24,19,36,084,27*73
arfcn: 50 rxLev: -104
$GPGSV,3,2,12,24,81,332,26,37,27,150,,12,52,218,,10,25,289,*7D
arfcn: 48 rxLev: -104
arfcn: 0 rxLev: -104
$GPGSV,3,3,12,18,22,256,,25,14,228,,32,11,315,,01,00,010,*7E
arfcn: 649 rxLev: -104
arfcn: 610 rxLev: -104
$GPRMC,152942.020,V,4806.8714,N,00139.4292,W,,,090218,,,N*6B
arfcn: 684 rxLev: -104
arfcn: 679 rxLev: -104
arfcn: 790 rxLev: -104
arfcn: 603 rxLev: -105
$GPGGA,152943.020,4806.8715,N,00139.4291,W,0,00,,34.0,M,48.3,M,,0000*57
arfcn: 546 rxLev: -105
$GPGSA,M,1,,,,,,,,,,,,,,,*12
arfcn: 518 rxLev: -105
$GPRMC,152943.020,V,4806.8715,N,00139.4291,W,,,090218,,,N*68
arfcn: 517 rxLev: -105
arfcn: 1023 rxLev: -105
arfcn: 20 rxLev: -105
arfcn: 23 rxLev: -105
arfcn: 788 rxLev: -105
arfcn: 549 rxLev: -106
arfcn: 18 rxLev: -106
arfcn: 789 rxLev: -106
$GPGGA,152944.020,4806.8716,N,00139.4290,W,0,00,,34.2,M,48.3,M,,0000*50
$GPGSA,M,1,,,,,,,,,,,,,,,*12
arfcn: 22 rxLev: -107
arfcn: 88 rxLev: -107
$GPRMC,152944.020,V,4806.8716,N,00139.4290,W,,,090218,,,N*6D
arfcn: 74 rxLev: -107
arfcn: 547 rxLev: -107
arfcn: 534 rxLev: -107
arfcn: 1010 rxLev: -107
arfcn: 540 rxLev: -108
arfcn: 548 rxLev: -108
arfcn: 594 rxLev: -108
Network survey ended
Survey end at #CCLK: "18/02/09,16:29:44+04"
Survey duration: 129 seconds, 33 bases detected over 449 freqs scanned.
$GPGGA,152945.020,4806.8716,N,00139.4288,W,0,00,,34.3,M,48.3,M,,0000*59
$GPGSA,M,1,,,,,,,,,,,,,,,*12
$GPRMC,152945.020,V,4806.8716,N,00139.4288,W,,,090218,,,N*65
$GPGGA,152946.020,4806.8717,N,00139.4287,W,0,00,,34.5,M,48.3,M,,0000*52
$GPGSA,M,1,,,,,,,,,,,,,,,*12
$GPRMC,152946.020,V,4806.8717,N,00139.4287,W,,,090218,,,N*68
Survey start at #CCLK: "18/02/09,16:29:46+04"
$GPGGA,152947.020,4806.8718,N,00139.4286,W,0,00,,34.6,M,48.3,M,,0000*5E
at#csurv
Network survey started ...
$GPGSA,M,1,,,,,,,,,,,,,,,*12
$GPGSV,3,1,12,13,19,144,12,17,31,058,24,19,36,084,27,24,81,332,26*72
$GPGSV,3,2,12,37,27,150,,12,52,218,,15,44,169,,10,25,289,*7E
$GPGSV,3,3,12,18,22,256,,25,14,228,,32,11,315,,01,00,010,*7E
$GPRMC,152947.020,V,4806.8718,N,00139.4286,W,,,090218,,,N*67
$GPGGA,152948.020,4806.8719,N,00139.4285,W,0,00,,34.8,M,48.3,M,,0000*5D
$GPGSA,M,1,,,,,,,,,,,,,,,*12
$GPRMC,152948.020,V,4806.8719,N,00139.4285,W,,,090218,,,N*6A
$GPGGA,152949.020,4806.8719,N,00139.4284,W,0,00,,34.9,M,48.3,M,,0000*5C
$GPGSA,M,1,,,,,,,,,,,,,,,*12
$GPRMC,152949.020,V,4806.8719,N,00139.4284,W,,,090218,,,N*6A
$GPGGA,152950.020,4806.8720,N,00139.4283,W,0,00,,35.0,M,48.3,M,,0000*51
$GPGSA,M,1,,,,,,,,,,,,,,,*12
$GPRMC,152950.020,V,4806.8720,N,00139.4283,W,,,090218,,,N*6F
$GPGGA,152951.020,,,,,0,00,,,M,0.0,M,,0000*5F
$GPGSA,M,1,,,,,,,,,,,,,,,*12
$GPRMC,152951.020,V,,,,,,,090218,,,N*46
$GPGGA,152952.020,,,,,0,00,,,M,0.0,M,,0000*5C
$GPGSA,M,1,,,,,,,,,,,,,,,*12
arfcn: 981 bsic: 46 rxLev: -55 ber: 50.00 mcc: 208 mnc: 20 lac: 418 cellId: 21807 cellStatus: CELL_SUITABLE numArfcn: 1 arfcn: 981 numChannels: 16 array: 979 982 983 985 1012 1014 1017 1019 1020 787 790 791 793 796 882 884 pbcch: 0 nom: 2 rac: 6 spgc: 0 pat: 6 nco: 0 t3168: 1500 t3192: 500 drxmax: 0 ctrlAck: 0 bsCVmax: 8 alpha: 6 pcMeasCh: 1 
arfcn: 992 rxLev: -62
$GPGSV,3,1,12,13,19,144,13,17,31,058,25,19,36,084,27,24,81,332,26*72
arfcn: 995 rxLev: -62
arfcn: 1002 rxLev: -62
$GPGSV,3,2,12,37,27,150,,12,52,218,,15,44,169,,10,25,289,*7E
arfcn: 1005 rxLev: -62
arfcn: 1006 rxLev: -63
$GPGSV,3,3,12,18,22,256,,25,14,228,,32,11,315,,01,00,010,*7E
arfcn: 1004 rxLev: -63
$GPRMC,152952.020,V,,,,,,,090218,,,N*45
arfcn: 1001 rxLev: -63
arfcn: 997 rxLev: -63
arfcn: 998 rxLev: -63
arfcn: 991 rxLev: -63
arfcn: 993 rxLev: -63
$GPGGA,152953.020,,,,,0,04,4.1,,M,0.0,M,,0000*72
$GPGSA,M,1,,,,,,,,,,,,,,,*12
arfcn: 994 rxLev: -63
$GPRMC,152953.020,V,,,,,,,090218,,,N*44
arfcn: 990 rxLev: -63
arfcn: 996 rxLev: -63
arfcn: 999 rxLev: -63
arfcn: 1000 rxLev: -63
arfcn: 1003 rxLev: -63
arfcn: 1007 rxLev: -63
arfcn: 1008 rxLev: -63
$GPGGA,152954.020,,,,,0,04,4.1,,M,0.0,M,,0000*75
$GPGSA,M,1,,,,,,,,,,,,,,,*12
$GPRMC,152954.020,V,,,,,,,090218,,,N*43
$GPGGA,152955.000,,,,,0,04,4.1,,M,0.0,M,,0000*76
$GPGSA,M,1,,,,,,,,,,,,,,,*12
$GPRMC,152955.000,V,,,,,,,090218,,,N*40
$GPGGA,152956.000,,,,,0,04,4.1,,M,0.0,M,,0000*75
$GPGSA,M,1,,,,,,,,,,,,,,,*12
$GPRMC,152956.000,V,,,,,,,090218,,,N*43
arfcn: 985 bsic: 44 rxLev: -67 ber: 0.00 mcc: 208 mnc: 20 lac: 418 cellId: 21808 cellStatus: CELL_SUITABLE numArfcn: 1 arfcn: 985 numChannels: 25 array: 787 788 790 793 795 796 879 884 975 977 978 979 980 981 982 983 1011 1012 1014 1015 1017 1019 1020 1021 1022 pbcch: 0 nom: 2 rac: 6 spgc: 0 pat: 6 nco: 0 t3168: 1500 t3192: 500 drxmax: 0 ctrlAck: 0 bsCVmax: 8 alpha: 6 pcMeasCh: 1 
$GPGGA,152957.000,,,,,0,04,4.1,,M,0.0,M,,0000*74
$GPGSA,M,1,,,,,,,,,,,,,,,*12
$GPGSV,3,1,12,24,81,332,26,19,36,084,27,17,31,058,25,13,19,144,08*78
$GPGSV,3,2,12,37,27,150,,12,52,218,,15,44,169,,10,25,289,*7E
$GPGSV,3,3,12,18,22,256,,25,14,228,,32,11,315,,01,00,010,*7E
$GPRMC,152957.000,V,,,,,,,090218,,,N*42
$GPGGA,152958.000,4806.8686,N,00139.4299,W,1,04,4.1,42.2,M,48.3,M,,0000*71
$GPGSA,M,3,24,19,17,13,,,,,,,,,7.2,4.1,5.9*38
$GPRMC,152958.000,A,4806.8686,N,00139.4299,W,1.07,104.21,090218,,,A*7B
$GPGGA,152959.000,4806.8695,N,00139.4300,W,1,04,4.1,40.3,M,48.3,M,,0000*70
$GPGSA,M,3,24,19,17,13,,,,,,,,,7.2,4.1,5.9*38
$GPRMC,152959.000,A,4806.8695,N,00139.4300,W,0.61,104.21,090218,,,A*78
arfcn: 12 bsic: 0 rxLev: -71 ber: 0.00 mcc: 208 mnc: 01 lac: 10300 cellId: 6467 cellStatus: CELL_FORBIDDEN numArfcn: 13 arfcn: 12 17 18 19 20 21 22 23 24 25 47 48 49 numChannels: 15 array: 1 2 3 8 9 10 14 512 513 514 515 518 605 606 608 pbcch: 0 nom: 2 rac: 1 spgc: 0 pat: 6 nco: 0 t3168: 1000 t3192: 500 drxmax: 2 ctrlAck: 0 bsCVmax: 9 alpha: 5 pcMeasCh: 1 
$GPGGA,153000.000,4806.8694,N,00139.4299,W,0,00,,40.5,M,48.3,M,,0000*5C
$GPGSA,M,1,,,,,,,,,,,,,,,*12
$GPRMC,153000.000,V,4806.8694,N,00139.4299,W,,,090218,,,N*65
$GPGGA,153001.000,4806.8693,N,00139.4297,W,0,00,,40.8,M,48.3,M,,0000*59
$GPGSA,M,1,,,,,,,,,,,,,,,*12
arfcn: 85 bsic: 0 rxLev: -71 ber: 0.00 mcc: 208 mnc: 10 lac: 49415 cellId: 44814 cellStatus: CELL_FORBIDDEN numArfcn: 2 arfcn: 85 119 numChannels: 20 array: 76 77 78 79 80 82 83 85 86 114 115 116 117 118 119 120 121 122 123 124 pbcch: 0 nom: 2 rac: 31 spgc: 0 pat: 6 nco: 0 t3168: 1000 t3192: 500 drxmax: 4 ctrlAck: 1 bsCVmax: 9 alpha: 10 pcMeasCh: 0 
$GPRMC,153001.000,V,4806.8693,N,00139.4297,W,,,090218,,,N*6D
$GPGGA,153002.020,4806.8692,N,00139.4295,W,0,00,,41.0,M,48.3,M,,0000*52
$GPGSA,M,1,,,,,,,,,,,,,,,*12
$GPGSV,3,1,12,13,19,144,08,17,31,058,25,19,36,084,28,24,81,332,26*77
$GPGSV,3,2,12,37,27,150,,12,52,218,,15,44,169,,10,25,289,*7E
$GPGSV,3,3,12,18,22,256,,25,14,228,,32,11,315,,01,00,010,*7E
$GPRMC,153002.020,V,4806.8692,N,00139.4295,W,,,090218,,,N*6F
arfcn: 80 bsic: 47 rxLev: -71 ber: 0.00 mcc: 208 mnc: 10 lac: 49415 cellId: 23568 cellStatus: CELL_FORBIDDEN numArfcn: 2 arfcn: 80 89 numChannels: 19 array: 76 77 78 80 82 83 84 85 113 114 115 116 117 118 119 120 122 123 124 pbcch: 0 nom: 2 rac: 31 spgc: 0 pat: 6 nco: 0 t3168: 1000 t3192: 500 drxmax: 4 ctrlAck: 1 bsCVmax: 9 alpha: 10 pcMeasCh: 0 
arfcn: 989 rxLev: -71
arfcn: 1009 rxLev: -72
$GPGGA,153003.020,,,,,0,04,4.1,,M,0.0,M,,0000*7F
arfcn: 980 rxLev: -73
$GPGSA,M,1,,,,,,,,,,,,,,,*12
arfcn: 982 rxLev: -73
$GPRMC,153003.020,V,,,,,,,090218,,,N*49
$GPGGA,153004.020,4806.8689,N,00139.4281,W,1,04,4.1,43.8,M,48.3,M,,0000*7F
$GPGSA,M,3,24,19,17,13,,,,,,,,,7.2,4.1,5.9*38
$GPRMC,153004.020,A,4806.8689,N,00139.4281,W,0.37,104.21,090218,,,A*7C
$GPGGA,153005.000,4806.8686,N,00139.4279,W,1,04,4.1,44.4,M,48.3,M,,0000*7F
$GPGSA,M,3,24,19,17,13,,,,,,,,,7.2,4.1,5.9*38
arfcn: 8 bsic: 48 rxLev: -73 ber: 0.00 mcc: 208 mnc: 01 lac: 10300 cellId: 6473 cellStatus: CELL_FORBIDDEN numArfcn: 13 arfcn: 8 17 18 19 20 21 22 23 24 25 47 48 49 numChannels: 18 array: 1 2 3 4 5 10 12 13 14 15 512 513 514 515 516 517 605 610 pbcch: 0 nom: 2 rac: 1 spgc: 0 pat: 6 nco: 0 t3168: 1000 t3192: 500 drxmax: 2 ctrlAck: 0 bsCVmax: 9 alpha: 5 pcMeasCh: 1 
$GPRMC,153005.000,A,4806.8686,N,00139.4279,W,0.87,104.21,090218,,,A*7C
$GPGGA,153006.000,4806.8683,N,00139.4288,W,1,04,4.1,44.0,M,48.3,M,,0000*73
$GPGSA,M,3,24,19,17,13,,,,,,,,,7.2,4.1,5.9*38
$GPRMC,153006.000,A,4806.8683,N,00139.4288,W,0.77,104.21,090218,,,A*7B
$GPGGA,153007.000,4806.8681,N,00139.4290,W,1,04,4.1,43.7,M,48.3,M,,0000*79
$GPGSA,M,3,24,19,17,13,,,,,,,,,7.2,4.1,5.9*38
$GPGSV,3,1,12,24,81,332,26,19,36,084,29,17,31,058,25,13,19,144,10*7F
$GPGSV,3,2,12,39,31,144,,12,52,218,,15,44,169,,10,25,289,*72
$GPGSV,3,3,12,18,22,256,,25,14,228,,32,11,315,,01,00,010,*7E
$GPRMC,153007.000,A,4806.8681,N,00139.4290,W,0.88,104.21,090218,,,A*71
$GPGGA,153008.000,4806.8688,N,00139.4300,W,1,04,4.1,40.2,M,48.3,M,,0000*71
$GPGSA,M,3,24,19,17,13,,,,,,,,,7.2,4.1,5.9*38
$GPRMC,153008.000,A,4806.8688,N,00139.4300,W,1.01,104.21,090218,,,A*7F
arfcn: 124 bsic: 2 rxLev: -75 ber: 0.00 mcc: 208 mnc: 10 lac: 49415 cellId: 43517 cellStatus: CELL_FORBIDDEN numArfcn: 2 arfcn: 112 124 numChannels: 14 array: 76 77 78 80 82 85 114 115 117 118 120 121 122 124 pbcch: 0 nom: 2 rac: 31 spgc: 0 pat: 6 nco: 0 t3168: 1000 t3192: 500 drxmax: 4 ctrlAck: 1 bsCVmax: 9 alpha: 10 pcMeasCh: 0 
$GPGGA,153009.000,4806.8694,N,00139.4316,W,1,04,4.1,37.5,M,48.3,M,,0000*7D
$GPGSA,M,3,24,19,17,13,,,,,,,,,7.2,4.1,5.9*38
$GPRMC,153009.000,A,4806.8694,N,00139.4316,W,1.15,104.21,090218,,,A*71
$GPGGA,153010.000,4806.8692,N,00139.4319,W,1,04,4.1,37.4,M,48.3,M,,0000*7D
$GPGSA,M,3,24,19,17,13,,,,,,,,,7.2,4.1,5.9*38
$GPRMC,153010.000,A,4806.8692,N,00139.4319,W,1.04,104.21,090218,,,A*70
arfcn: 605 bsic: 33 rxLev: -78 ber: 0.00 mcc: 208 mnc: 01 lac: 10300 cellId: 27588 cellStatus: CELL_FORBIDDEN numArfcn: 22 arfcn: 525 526 527 528 529 530 531 532 533 534 535 587 588 589 590 591 592 593 594 595 596 597 numChannels: 18 array: 1 3 5 8 12 15 512 513 514 515 516 517 518 604 605 606 607 609 pbcch: 0 nom: 2 rac: 1 spgc: 0 pat: 6 nco: 0 t3168: 1000 t3192: 500 drxmax: 2 ctrlAck: 0 bsCVmax: 9 alpha: 5 pcMeasCh: 1 
arfcn: 28 rxLev: -79
arfcn: 29 rxLev: -80
arfcn: 10 rxLev: -80
$GPGGA,153011.000,4806.8687,N,00139.4322,W,1,04,4.1,37.9,M,48.3,M,,0000*7D
$GPGSA,M,3,24,19,17,13,,,,,,,,,7.2,4.1,5.9*38
$GPRMC,153011.000,A,4806.8687,N,00139.4322,W,1.05,104.21,090218,,,A*7C
$GPGGA,153012.000,4806.8684,N,00139.4327,W,1,05,3.9,37.1,M,48.3,M,,0000*7E
