$GPGSA,M,3,09,23,30,16,,,,,,,,,5.8,5.4,2.2*3E
$GPRMC,085951.000,A,4806.9205,N,00139.4693,W,1.58,1.43,060218,,,A*7C
Survey start at #CCLK: "18/02/06,09:59:52+04"
at#csurv
Network survey started ...
$GPGGA,085952.000,4806.9212,N,00139.4699,W,1,04,5.4,-31.6,M,48.3,M,,0000*55
$GPGSA,M,3,09,23,30,16,,,,,,,,,5.8,5.4,2.2*3E
$GPRMC,085952.000,A,4806.9212,N,00139.4699,W,1.16,1.43,060218,,,A*79
$GPGGA,085953.000,4806.9219,N,00139.4705,W,1,05,1.4,-31.8,M,48.3,M,,0000*50
$GPGSA,M,3,09,02,23,30,16,,,,,,,,2.2,1.4,1.7*33
$GPRMC,085953.000,A,4806.9219,N,00139.4705,W,1.02,1.43,060218,,,A*72
$GPGGA,085954.000,4806.9222,N,00139.4712,W,1,05,1.4,-32.0,M,48.3,M,,0000*52
$GPGSA,M,3,09,02,23,30,16,,,,,,,,2.2,1.4,1.7*33
$GPGSV,3,1,12,09,68,058,21,02,48,282,12,23,31,064,31,30,29,174,11*7D
$GPGSV,3,2,12,16,09,053,16,03,02,112,10,05,21,295,06,06,54,214,06*7E
$GPGSV,3,3,12,26,04,025,09,38,00,000,,07,48,150,,04,29,307,*7B
$GPRMC,085954.000,A,4806.9222,N,00139.4712,W,0.77,1.43,060218,,,A*78
$GPGGA,085955.000,4806.9230,N,00139.4720,W,1,05,1.4,-32.2,M,48.3,M,,0000*53
$GPGSA,M,3,09,02,23,30,16,,,,,,,,2.2,1.4,1.7*33
$GPRMC,085955.000,A,4806.9230,N,00139.4720,W,1.21,358.25,060218,,,A*76
$GPGGA,085956.000,4806.9230,N,00139.4712,W,1,06,1.1,-31.9,M,48.3,M,,0000*5F
$GPGSA,M,3,09,06,23,30,05,16,,,,,,,2.0,1.1,1.7*35
$GPRMC,085956.000,A,4806.9230,N,00139.4712,W,0.81,358.25,060218,,,A*7F
$GPGGA,085957.000,4806.9237,N,00139.4717,W,1,05,2.8,-32.0,M,48.3,M,,0000*5F
$GPGSA,M,3,09,06,23,30,16,,,,,,,,3.4,2.8,1.9*31
arfcn: 981 bsic: 46 rxLev: -45 ber: 0.00 mcc: 208 mnc: 20 lac: 418 cellId: 21807 cellStatus: CELL_SUITABLE numArfcn: 1 arfcn: 981 numChannels: 16 array: 979 982 983 985 1012 1014 1017 1019 1020 787 790 791 793 796 882 884 pbcch: 0 nom: 2 rac: 6 spgc: 0 pat: 6 nco: 0 t3168: 1500 t3192: 500 drxmax: 0 ctrlAck: 0 bsCVmax: 8 alpha: 6 pcMeasCh: 1 
$GPRMC,085957.000,A,4806.9237,N,00139.4717,W,1.12,358.25,060218,,,A*77
$GPGGA,085958.000,4806.9245,N,00139.4722,W,1,05,2.8,-32.1,M,48.3,M,,0000*52
$GPGSA,M,3,09,06,23,30,16,,,,,,,,3.4,2.8,1.9*31
$GPRMC,085958.000,A,4806.9245,N,00139.4722,W,1.62,358.02,060218,,,A*79
$GPGGA,085959.000,4806.9251,N,00139.4726,W,1,05,2.8,-32.3,M,48.3,M,,0000*50
$GPGSA,M,3,09,06,23,30,16,,,,,,,,3.4,2.8,1.9*31
$GPGSV,3,1,12,09,68,058,21,06,54,214,09,23,31,064,31,30,29,174,11*71
$GPGSV,3,2,12,16,09,053,16,03,02,112,09,05,21,295,07,26,04,025,09*7F
$GPGSV,3,3,12,38,00,000,,07,48,150,,02,48,282,,04,29,307,*73
arfcn: 985 bsic: 44 rxLev: -50 ber: 0.00 mcc: 208 mnc: 20 lac: 418 cellId: 21808 cellStatus: CELL_SUITABLE numArfcn: 1 arfcn: 985 numChannels: 25 array: 787 788 790 793 795 796 879 884 975 977 978 979 980 981 982 983 1011 1012 1014 1015 1017 1019 1020 1021 1022 pbcch: 0 nom: 2 rac: 6 spgc: 0 pat: 6 nco: 0 t3168: 1500 t3192: 500 drxmax: 0 ctrlAck: 0 bsCVmax: 8 alpha: 6 pcMeasCh: 1 
arfcn: 991 rxLev: -61
$GPRMC,085959.000,A,4806.9251,N,00139.4726,W,1.15,358.02,060218,,,A*79
arfcn: 992 rxLev: -61
arfcn: 997 rxLev: -61
arfcn: 994 rxLev: -62
$GPGGA,090000.000,4806.9257,N,00139.4728,W,1,05,2.8,-32.5,M,48.3,M,,0000*5F
arfcn: 998 rxLev: -62
$GPGSA,M,3,09,06,23,30,16,,,,,,,,3.4,2.8,1.9*31
arfcn: 993 rxLev: -62
arfcn: 990 rxLev: -62
$GPRMC,090000.000,A,4806.9257,N,00139.4728,W,1.19,358.06,060218,,,A*78
arfcn: 999 rxLev: -62
arfcn: 1001 rxLev: -62
arfcn: 996 rxLev: -62
arfcn: 1003 rxLev: -62
arfcn: 1004 rxLev: -62
arfcn: 1002 rxLev: -63
arfcn: 1007 rxLev: -63
arfcn: 1008 rxLev: -63
$GPGGA,090001.000,4806.9262,N,00139.4728,W,1,05,2.8,-32.7,M,48.3,M,,0000*5A
$GPGSA,M,3,09,06,23,30,16,,,,,,,,3.4,2.8,1.9*31
arfcn: 995 rxLev: -63
arfcn: 1000 rxLev: -63
$GPRMC,090001.000,A,4806.9262,N,00139.4728,W,1.38,359.72,060218,,,A*7E
arfcn: 982 rxLev: -63
$GPGGA,090002.000,4806.9267,N,00139.4729,W,1,05,1.2,-32.8,M,48.3,M,,0000*5B
$GPGSA,M,3,09,23,30,05,16,,,,,,,,2.0,1.2,1.6*31
$GPRMC,090002.000,A,4806.9267,N,00139.4729,W,1.54,356.89,060218,,,A*78
$GPGGA,090003.000,4806.9268,N,00139.4723,W,1,05,1.2,-32.9,M,48.3,M,,0000*5E
$GPGSA,M,3,09,23,30,05,16,,,,,,,,2.0,1.2,1.6*31
$GPRMC,090003.000,A,4806.9268,N,00139.4723,W,1.36,357.64,060218,,,A*7A
arfcn: 12 bsic: 0 rxLev: -63 ber: 0.00 mcc: 208 mnc: 01 lac: 10300 cellId: 6467 cellStatus: CELL_FORBIDDEN numArfcn: 13 arfcn: 12 17 18 19 20 21 22 23 24 25 47 48 49 numChannels: 15 array: 1 2 3 8 9 10 14 512 513 514 515 518 605 606 608 pbcch: 0 nom: 2 rac: 1 spgc: 0 pat: 6 nco: 0 t3168: 1000 t3192: 500 drxmax: 2 ctrlAck: 0 bsCVmax: 9 alpha: 5 pcMeasCh: 1 
arfcn: 1006 rxLev: -63
arfcn: 1005 rxLev: -64
arfcn: 980 rxLev: -64
arfcn: 986 rxLev: -67
arfcn: 984 rxLev: -68
arfcn: 989 rxLev: -71
arfcn: 1009 rxLev: -71
$GPGGA,090004.000,4806.9266,N,00139.4716,W,1,05,1.2,-33.0,M,48.3,M,,0000*59
$GPGSA,M,3,09,23,30,05,16,,,,,,,,2.0,1.2,1.6*31
$GPGSV,3,1,12,09,68,058,20,23,31,064,31,30,29,174,11,05,21,295,09*78
$GPGSV,3,2,12,16,09,053,17,03,02,112,09,06,54,214,07,26,04,025,11*7F
$GPGSV,3,3,12,38,00,000,,07,48,150,,02,48,282,,04,29,307,*73
$GPRMC,090004.000,A,4806.9266,N,00139.4716,W,0.92,357.64,060218,,,A*7A
$GPGGA,090005.000,4806.9267,N,00139.4710,W,1,05,1.2,-33.1,M,48.3,M,,0000*5E
$GPGSA,M,3,09,23,30,05,16,,,,,,,,2.0,1.2,1.6*31
$GPRMC,090005.000,A,4806.9267,N,00139.4710,W,0.94,357.64,060218,,,A*7A
$GPGGA,090006.000,4806.9270,N,00139.4704,W,1,05,1.2,-33.2,M,48.3,M,,0000*5D
$GPGSA,M,3,09,23,30,05,16,,,,,,,,2.0,1.2,1.6*31
$GPRMC,090006.000,A,4806.9270,N,00139.4704,W,1.27,1.81,060218,,,A*78
$GPGGA,090007.000,4806.9268,N,00139.4697,W,1,04,7.3,-33.2,M,48.3,M,,0000*58
$GPGSA,M,3,09,23,05,16,,,,,,,,,7.9,7.3,3.1*3C
arfcn: 983 bsic: 21 rxLev: -74 ber: 0.00 mcc: 208 mnc: 20 lac: 418 cellId: 21809 cellStatus: CELL_SUITABLE numArfcn: 1 arfcn: 983 numChannels: 24 array: 788 790 792 793 795 796 878 882 884 976 977 979 981 985 986 987 1012 1013 1014 1016 1017 1019 1020 1022 pbcch: 0 nom: 2 rac: 6 spgc: 0 pat: 6 nco: 0 t3168: 1500 t3192: 500 drxmax: 0 ctrlAck: 0 bsCVmax: 8 alpha: 6 pcMeasCh: 1 
$GPRMC,090007.000,A,4806.9268,N,00139.4697,W,1.19,4.74,060218,,,A*79
$GPGGA,090008.000,4806.9274,N,00139.4691,W,1,05,1.9,-33.3,M,48.3,M,,0000*50
$GPGSA,M,3,09,06,23,05,16,,,,,,,,2.7,1.9,1.9*37
$GPRMC,090008.000,A,4806.9274,N,00139.4691,W,1.73,8.37,060218,,,A*7A
$GPGGA,090009.000,4806.9274,N,00139.4686,W,1,05,1.9,-33.4,M,48.3,M,,0000*50
$GPGSA,M,3,09,06,23,05,16,,,,,,,,2.7,1.9,1.9*37
$GPGSV,3,1,12,09,68,058,16,06,54,214,16,23,31,064,31,05,21,295,12*7A
arfcn: 80 bsic: 47 rxLev: -76 ber: 0.00 mcc: 208 mnc: 10 lac: 49415 cellId: 23568 cellStatus: CELL_FORBIDDEN numArfcn: 2 arfcn: 80 89 numChannels: 19 array: 76 77 78 80 82 83 84 85 113 114 115 116 117 118 119 120 122 123 124 pbcch: 0 nom: 2 rac: 31 spgc: 0 pat: 6 nco: 0 t3168: 1000 t3192: 500 drxmax: 4 ctrlAck: 1 bsCVmax: 9 alpha: 10 pcMeasCh: 0 
$GPGSV,3,2,12,16,09,053,17,03,02,112,10,26,04,025,11,30,29,174,04*7E
$GPGSV,3,3,12,38,00,000,,07,48,150,,02,48,282,,04,29,307,*73
$GPRMC,090009.000,A,4806.9274,N,00139.4686,W,1.68,8.19,060218,,,A*7B
$GPGGA,090010.000,4806.9273,N,00139.4680,W,1,05,1.9,-33.5,M,48.3,M,,0000*58
$GPGSA,M,3,09,06,23,05,16,,,,,,,,2.7,1.9,1.9*37
$GPRMC,090010.000,A,4806.9273,N,00139.4680,W,1.48,6.86,060218,,,A*78
arfcn: 10 bsic: 1 rxLev: -79 ber: 0.00 mcc: 208 mnc: 01 lac: 10300 cellId: 39884 cellStatus: CELL_FORBIDDEN numArfcn: 13 arfcn: 10 17 18 19 20 21 22 23 24 25 47 48 49 numChannels: 16 array: 5 6 7 11 15 16 512 514 516 517 518 604 605 608 609 610 pbcch: 0 nom: 2 rac: 1 spgc: 0 pat: 6 nco: 0 t3168: 1000 t3192: 500 drxmax: 2 ctrlAck: 0 bsCVmax: 9 alpha: 5 pcMeasCh: 1 
arfcn: 13 rxLev: -79
arfcn: 41 rxLev: -79
arfcn: 43 rxLev: -79
$GPGGA,090011.000,4806.9271,N,00139.4675,W,1,05,1.9,-33.6,M,48.3,M,,0000*52
$GPGSA,M,3,09,06,23,05,16,,,,,,,,2.7,1.9,1.9*37
$GPRMC,090011.000,A,4806.9271,N,00139.4675,W,1.26,5.61,060218,,,A*73
$GPGGA,090012.000,4806.9264,N,00139.4670,W,1,05,1.9,-33.7,M,48.3,M,,0000*51
$GPGSA,M,3,09,06,23,05,16,,,,,,,,2.7,1.9,1.9*37
$GPRMC,090012.000,A,4806.9264,N,00139.4670,W,0.59,5.61,060218,,,A*78
arfcn: 78 bsic: 2 rxLev: -79 ber: 0.00 mcc: 208 mnc: 10 lac: 49415 cellId: 45280 cellStatus: CELL_FORBIDDEN numArfcn: 2 arfcn: 78 116 numChannels: 20 array: 76 77 78 79 80 82 83 84 85 86 114 115 116 117 118 120 121 122 123 124 pbcch: 0 nom: 2 rac: 31 spgc: 0 pat: 6 nco: 0 t3168: 1000 t3192: 500 drxmax: 4 ctrlAck: 1 bsCVmax: 9 alpha: 10 pcMeasCh: 0 
arfcn: 42 rxLev: -80
arfcn: 40 rxLev: -80
$GPGGA,090013.000,4806.9256,N,00139.4667,W,1,05,1.9,-33.8,M,48.3,M,,0000*58
arfcn: 44 rxLev: -80
$GPGSA,M,3,09,06,23,05,16,,,,,,,,2.7,1.9,1.9*37
arfcn: 29 rxLev: -80
arfcn: 30 rxLev: -80
$GPRMC,090013.000,A,4806.9256,N,00139.4667,W,0.19,5.61,060218,,,A*7A
arfcn: 31 rxLev: -80
arfcn: 28 rxLev: -80
arfcn: 11 rxLev: -80
arfcn: 3 rxLev: -80
arfcn: 45 rxLev: -80
arfcn: 32 rxLev: -80
arfcn: 38 rxLev: -81
$GPGGA,090014.000,4806.9254,N,00139.4664,W,1,05,1.9,-33.9,M,48.3,M,,0000*5F
arfcn: 39 rxLev: -81
$GPGSA,M,3,09,06,23,05,16,,,,,,,,2.7,1.9,1.9*37
arfcn: 36 rxLev: -81
arfcn: 37 rxLev: -81
$GPGSV,3,1,12,09,68,058,16,06,54,214,17,23,31,064,31,05,21,295,12*7B
arfcn: 33 rxLev: -81
arfcn: 27 rxLev: -81
$GPGSV,3,2,12,16,09,053,18,03,02,112,12,26,04,025,12,30,29,174,04*70
arfcn: 834 rxLev: -81
arfcn: 34 rxLev: -82
$GPGSV,3,3,12,38,00,000,,07,48,150,,02,48,282,,04,29,307,*73
arfcn: 35 rxLev: -82
$GPRMC,090014.000,A,4806.9254,N,00139.4664,W,0.14,5.61,060218,,,A*71
$GPGGA,090015.000,4806.9246,N,00139.4661,W,1,05,1.9,-34.0,M,48.3,M,,0000*56
$GPGSA,M,3,09,06,23,05,16,,,,,,,,2.7,1.9,1.9*37
$GPRMC,090015.000,A,4806.9246,N,00139.4661,W,0.61,5.61,060218,,,A*74
arfcn: 85 bsic: 0 rxLev: -82 ber: 0.00 mcc: 208 mnc: 10 lac: 49415 cellId: 44814 cellStatus: CELL_FORBIDDEN numArfcn: 2 arfcn: 85 119 numChannels: 20 array: 76 77 78 79 80 82 83 85 86 114 115 116 117 118 119 120 121 122 123 124 pbcch: 0 nom: 2 rac: 31 spgc: 0 pat: 6 nco: 0 t3168: 1000 t3192: 500 drxmax: 4 ctrlAck: 1 bsCVmax: 9 alpha: 10 pcMeasCh: 0 
$GPGGA,090016.000,4806.9243,N,00139.4659,W,1,05,1.9,-34.0,M,48.3,M,,0000*5B
$GPGSA,M,3,09,06,23,05,16,,,,,,,,2.7,1.9,1.9*37
$GPRMC,090016.000,A,4806.9243,N,00139.4659,W,0.66,5.61,060218,,,A*7E
$GPGGA,090017.000,4806.9241,N,00139.4660,W,1,05,1.9,-34.1,M,48.3,M,,0000*53
$GPGSA,M,3,09,06,23,05,16,,,,,,,,2.7,1.9,1.9*37
$GPRMC,090017.000,A,4806.9241,N,00139.4660,W,0.84,5.61,060218,,,A*7B
arfcn: 515 bsic: 34 rxLev: -82 ber: 0.00 mcc: 208 mnc: 01 lac: 10300 cellId: 27586 cellStatus: CELL_FORBIDDEN numArfcn: 16 arfcn: 519 520 521 522 523 524 525 526 596 597 598 599 600 601 602 603 numChannels: 9 array: 1 8 12 512 513 516 605 606 607 pbcch: 0 nom: 2 rac: 1 spgc: 0 pat: 6 nco: 0 t3168: 1000 t3192: 500 drxmax: 2 ctrlAck: 0 bsCVmax: 9 alpha: 5 pcMeasCh: 1 
arfcn: 850 rxLev: -82
arfcn: 796 rxLev: -82
arfcn: 792 rxLev: -83
arfcn: 794 rxLev: -83
$GPGGA,090018.000,4806.9239,N,00139.4660,W,1,05,1.9,-34.2,M,48.3,M,,0000*50
$GPGSA,M,3,09,06,23,05,16,,,,,,,,2.7,1.9,1.9*37
arfcn: 872 rxLev: -83
$GPRMC,090018.000,A,4806.9239,N,00139.4660,W,0.91,5.61,060218,,,A*7F
$GPGGA,090019.000,4806.9238,N,00139.4661,W,1,05,1.9,-34.2,M,48.3,M,,0000*51
$GPGSA,M,3,09,06,23,05,16,,,,,,,,2.7,1.9,1.9*37
$GPGSV,3,1,12,09,68,058,16,06,54,214,18,23,31,064,31,05,21,295,12*74
$GPGSV,3,2,12,16,09,053,18,03,02,112,11,26,04,025,13,30,29,174,05*73
$GPGSV,3,3,12,33,33,198,,07,48,150,,02,48,282,,04,29,307,*78
$GPRMC,090019.000,A,4806.9238,N,00139.4661,W,0.98,5.61,060218,,,A*77
$GPGGA,090020.000,4806.9237,N,00139.4660,W,1,05,1.9,-34.3,M,48.3,M,,0000*54
$GPGSA,M,3,09,06,23,05,16,,,,,,,,2.7,1.9,1.9*37
$GPRMC,090020.000,A,4806.9237,N,00139.4660,W,0.80,5.61,060218,,,A*7A
$GPGGA,090021.000,4806.9231,N,00139.4658,W,1,05,1.9,-34.4,M,48.3,M,,0000*5F
$GPGSA,M,3,09,06,23,05,16,,,,,,,,2.7,1.9,1.9*37
$GPRMC,090021.000,A,4806.9231,N,00139.4658,W,0.43,5.61,060218,,,A*79
$GPGGA,090022.000,4806.9224,N,00139.4656,W,1,05,1.9,-34.4,M,48.3,M,,0000*56
$GPGSA,M,3,09,06,23,05,16,,,,,,,,2.7,1.9,1.9*37
arfcn: 605 bsic: 33 rxLev: -83 ber: 0.01 mcc: 208 mnc: 01 lac: 10300 cellId: 27588 cellStatus: CELL_FORBIDDEN numArfcn: 22 arfcn: 525 526 527 528 529 530 531 532 533 534 535 587 588 589 590 591 592 593 594 595 596 597 numChannels: 18 array: 1 3 5 8 12 15 512 513 514 515 516 517 518 604 605 606 607 609 pbcch: 0 nom: 2 rac: 1 spgc: 0 pat: 6 nco: 0 t3168: 1000 t3192: 500 drxmax: 2 ctrlAck: 0 bsCVmax: 9 alpha: 5 pcMeasCh: 1 
$GPRMC,090022.000,A,4806.9224,N,00139.4656,W,0.71,5.61,060218,,,A*71
$GPGGA,090023.000,4806.9223,N,00139.4658,W,1,04,7.7,-34.5,M,48.3,M,,0000*56
$GPGSA,M,3,09,06,23,16,,,,,,,,,7.9,7.7,1.9*31
$GPRMC,090023.000,A,4806.9223,N,00139.4658,W,0.41,5.61,060218,,,A*7A
$GPGGA,090024.000,4806.9222,N,00139.4659,W,1,04,7.7,-34.7,M,48.3,M,,0000*53
$GPGSA,M,3,09,06,23,16,,,,,,,,,7.9,7.7,1.9*31
arfcn: 124 bsic: 2 rxLev: -83 ber: 0.00 mcc: 208 mnc: 10 lac: 49415 cellId: 43517 cellStatus: CELL_FORBIDDEN numArfcn: 2 arfcn: 112 124 numChannels: 14 array: 76 77 78 80 82 85 114 115 117 118 120 121 122 124 pbcch: 0 nom: 2 rac: 31 spgc: 0 pat: 6 nco: 0 t3168: 1000 t3192: 500 drxmax: 4 ctrlAck: 1 bsCVmax: 9 alpha: 10 pcMeasCh: 0 
arfcn: 46 rxLev: -83
$GPGSV,3,1,12,09,68,058,15,06,54,214,18,23,31,064,31,16,09,053,18*7D
$GPGSV,3,2,12,03,02,112,10,05,21,295,04,26,04,025,05,33,33,198,*77
arfcn: 867 rxLev: -83
arfcn: 868 rxLev: -83
$GPGSV,3,3,12,07,48,150,,02,48,282,,04,29,307,,30,29,174,*72
arfcn: 852 rxLev: -83
$GPRMC,090024.000,A,4806.9222,N,00139.4659,W,0.22,5.61,060218,,,A*78
arfcn: 866 rxLev: -83
arfcn: 793 rxLev: -83
arfcn: 795 rxLev: -83
arfcn: 797 rxLev: -83
$GPGGA,090025.000,4806.9220,N,00139.4660,W,1,04,7.7,-34.7,M,48.3,M,,0000*5A
arfcn: 813 rxLev: -84
$GPGSA,M,3,09,06,23,16,,,,,,,,,7.9,7.7,1.9*31
arfcn: 849 rxLev: -84
arfcn: 848 rxLev: -84
$GPRMC,090025.000,A,4806.9220,N,00139.4660,W,0.40,5.61,060218,,,A*75
arfcn: 843 rxLev: -84
arfcn: 844 rxLev: -84
arfcn: 835 rxLev: -84
arfcn: 841 rxLev: -84
$GPGGA,090026.000,4806.9211,N,00139.4655,W,1,05,1.9,-34.8,M,48.3,M,,0000*5B
$GPGSA,M,3,09,06,23,05,16,,,,,,,,2.7,1.9,1.9*37
$GPRMC,090026.000,A,4806.9211,N,00139.4655,W,1.12,5.61,060218,,,A*74
$GPGGA,090027.000,4806.9203,N,00139.4649,W,1,05,1.9,-34.9,M,48.3,M,,0000*55
$GPGSA,M,3,09,06,23,05,16,,,,,,,,2.7,1.9,1.9*37
arfcn: 1 bsic: 44 rxLev: -84 ber: 0.00 mcc: 208 mnc: 01 lac: 10300 cellId: 6468 cellStatus: CELL_FORBIDDEN numArfcn: 13 arfcn: 1 17 18 19 20 21 22 23 24 25 47 48 49 numChannels: 24 array: 2 4 5 6 7 8 9 10 11 12 15 512 513 514 515 516 517 518 605 606 607 608 609 610 pbcch: 0 nom: 2 rac: 1 spgc: 0 pat: 6 nco: 0 t3168: 1000 t3192: 500 drxmax: 2 ctrlAck: 0 bsCVmax: 9 alpha: 5 pcMeasCh: 1 
$GPRMC,090027.000,A,4806.9203,N,00139.4649,W,1.59,94.95,060218,,,A*47
$GPGGA,090028.000,4806.9201,N,00139.4647,W,1,04,7.7,-35.0,M,48.3,M,,0000*57
$GPGSA,M,3,09,06,23,16,,,,,,,,,7.9,7.7,1.9*31
$GPRMC,090028.000,A,4806.9201,N,00139.4647,W,1.30,104.88,060218,,,A*7F
$GPGGA,090029.000,4806.9197,N,00139.4645,W,1,04,7.7,-35.1,M,48.3,M,,0000*59
$GPGSA,M,3,09,06,23,16,,,,,,,,,7.9,7.7,1.9*31
$GPGSV,3,1,12,09,68,058,14,06,54,214,17,23,31,064,32,16,09,053,18*70
$GPGSV,3,2,12,03,02,112,09,05,21,295,07,26,04,025,09,33,33,198,*70
$GPGSV,3,3,12,07,48,150,,02,48,282,,04,29,307,,30,29,174,*72
$GPRMC,090029.000,A,4806.9197,N,00139.4645,W,1.34,110.43,060218,,,A*76
$GPGGA,090030.000,4806.9190,N,00139.4640,W,1,04,7.7,-35.2,M,48.3,M,,0000*50
$GPGSA,M,3,09,06,23,16,,,,,,,,,7.9,7.7,1.9*31
$GPRMC,090030.000,A,4806.9190,N,00139.4640,W,1.73,116.74,060218,,,A*7D
arfcn: 1020 bsic: 39 rxLev: -84 ber: 0.00 mcc: 208 mnc: 20 lac: 418 cellId: 38980 cellStatus: CELL_SUITABLE numArfcn: 1 arfcn: 1020 numChannels: 26 array: 787 788 790 791 793 795 796 879 884 885 978 979 981 982 983 985 986 987 1011 1012 1013 1014 1015 1017 1019 1022 pbcch: 0 nom: 2 rac: 6 spgc: 0 pat: 6 nco: 0 t3168: 1500 t3192: 500 drxmax: 0 ctrlAck: 0 bsCVmax: 8 alpha: 6 pcMeasCh: 1 
$GPGGA,090031.000,4806.9183,N,00139.4640,W,1,04,7.7,-35.3,M,48.3,M,,0000*52
$GPGSA,M,3,09,06,23,16,,,,,,,,,7.9,7.7,1.9*31
$GPRMC,090031.000,A,4806.9183,N,00139.4640,W,1.94,126.71,060218,,,A*71
$GPGGA,090032.000,4806.9175,N,00139.4633,W,1,05,1.9,-35.4,M,48.3,M,,0000*52
$GPGSA,M,3,09,06,23,05,16,,,,,,,,2.7,1.9,1.9*37
$GPRMC,090032.000,A,4806.9175,N,00139.4633,W,1.98,137.66,060218,,,A*75
arfcn: 512 bsic: 25 rxLev: -84 ber: 0.00 mcc: 208 mnc: 01 lac: 10300 cellId: 40155 cellStatus: CELL_FORBIDDEN numArfcn: 16 arfcn: 519 520 521 522 523 524 525 526 596 597 598 599 600 601 602 603 numChannels: 16 array: 2 3 5 8 10 11 12 15 16 517 518 604 605 606 609 610 pbcch: 0 nom: 2 rac: 1 spgc: 0 pat: 6 nco: 0 t3168: 1000 t3192: 500 drxmax: 2 ctrlAck: 0 bsCVmax: 9 alpha: 5 pcMeasCh: 1 
$GPGGA,090033.000,4806.9168,N,00139.4629,W,1,05,1.9,-35.4,M,48.3,M,,0000*54
$GPGSA,M,3,09,06,23,05,16,,,,,,,,2.7,1.9,1.9*37
$GPRMC,090033.000,A,4806.9168,N,00139.4629,W,1.94,146.61,060218,,,A*7E
arfcn: 122 bsic: 3 rxLev: -84 ber: 0.00 mcc: 208 mnc: 10 lac: 49415 cellId: 33517 cellStatus: CELL_FORBIDDEN numArfcn: 3 arfcn: 77 88 122 numChannels: 17 array: 77 78 79 80 82 84 85 86 114 115 117 118 119 120 122 123 124 pbcch: 0 nom: 2 rac: 31 spgc: 0 pat: 6 nco: 0 t3168: 1000 t3192: 500 drxmax: 4 ctrlAck: 1 bsCVmax: 9 alpha: 10 pcMeasCh: 0 
arfcn: 842 rxLev: -84
arfcn: 839 rxLev: -84
$GPGGA,090034.000,4806.9158,N,00139.4625,W,1,05,1.9,-35.5,M,48.3,M,,0000*5D
arfcn: 837 rxLev: -84
$GPGSA,M,3,09,06,23,05,16,,,,,,,,2.7,1.9,1.9*37
arfcn: 838 rxLev: -84
arfcn: 845 rxLev: -84
$GPGSV,3,1,12,09,68,058,15,06,54,214,17,23,31,064,32,05,21,295,10*79
arfcn: 831 rxLev: -84
$GPGSV,3,2,12,16,09,053,18,03,02,112,07,26,04,025,08,33,33,198,*71
arfcn: 823 rxLev: -84
arfcn: 855 rxLev: -84
$GPGSV,3,3,12,07,48,150,,02,48,282,,04,29,307,,30,29,174,*72
arfcn: 857 rxLev: -84
arfcn: 858 rxLev: -84
$GPRMC,090034.000,A,4806.9158,N,00139.4625,W,2.20,158.40,060218,,,A*76
arfcn: 814 rxLev: -84
arfcn: 798 rxLev: -84
$GPGGA,090035.000,4806.9149,N,00139.4622,W,1,05,1.9,-35.5,M,48.3,M,,0000*5B
arfcn: 816 rxLev: -85
$GPGSA,M,3,09,06,23,05,16,,,,,,,,2.7,1.9,1.9*37
arfcn: 817 rxLev: -85
arfcn: 809 rxLev: -85
$GPRMC,090035.000,A,4806.9149,N,00139.4622,W,2.13,165.91,060218,,,A*72
arfcn: 856 rxLev: -85
arfcn: 851 rxLev: -85
arfcn: 853 rxLev: -85
arfcn: 854 rxLev: -85
arfcn: 860 rxLev: -85
arfcn: 862 rxLev: -85
arfcn: 821 rxLev: -85
arfcn: 833 rxLev: -85
$GPGGA,090036.000,4806.9143,N,00139.4619,W,1,05,1.9,-35.5,M,48.3,M,,0000*5A
arfcn: 829 rxLev: -85
$GPGSA,M,3,09,06,23,05,16,,,,,,,,2.7,1.9,1.9*37
arfcn: 846 rxLev: -85
arfcn: 840 rxLev: -85
$GPRMC,090036.000,A,4806.9143,N,00139.4619,W,1.87,169.38,060218,,,A*72
$GPGGA,090037.000,4806.9135,N,00139.4615,W,1,05,1.9,-35.6,M,48.3,M,,0000*55
$GPGSA,M,3,09,06,23,05,16,,,,,,,,2.7,1.9,1.9*37
$GPRMC,090037.000,A,4806.9135,N,00139.4615,W,1.83,170.50,060218,,,A*7C
$GPGGA,090038.000,4806.9135,N,00139.4612,W,1,05,1.9,-35.6,M,48.3,M,,0000*5D
$GPGSA,M,3,09,06,23,05,16,,,,,,,,2.7,1.9,1.9*37
arfcn: 14 bsic: 35 rxLev: -85 ber: 0.00 mcc: 208 mnc: 01 lac: 10300 cellId: 39250 cellStatus: CELL_FORBIDDEN numArfcn: 13 arfcn: 14 17 18 19 20 21 22 23 24 25 47 48 49 numChannels: 14 array: 1 3 4 6 8 10 12 14 512 513 514 517 604 608 pbcch: 0 nom: 2 rac: 1 spgc: 1 pat: 6 nco: 0 t3168: 1000 t3192: 500 drxmax: 4 ctrlAck: 1 bsCVmax: 9 alpha: 7 pcMeasCh: 0 
arfcn: 26 rxLev: -85
$GPRMC,090038.000,A,4806.9135,N,00139.4612,W,1.03,170.50,060218,,,A*7C
$GPGGA,090039.000,4806.9131,N,00139.4608,W,1,05,1.9,-35.6,M,48.3,M,,0000*53
$GPGSA,M,3,09,06,23,05,16,,,,,,,,2.7,1.9,1.9*37
$GPGSV,3,1,12,09,68,058,16,06,54,214,18,23,31,064,32,05,21,295,13*76
$GPGSV,3,2,12,16,09,053,18,03,02,112,04,07,48,150,14,26,04,025,16*77
$GPGSV,3,3,12,33,33,198,,02,48,282,,04,29,307,,30,29,174,*7D
$GPRMC,090039.000,A,4806.9131,N,00139.4608,W,0.75,170.50,060218,,,A*72
arfcn: 5 bsic: 1 rxLev: -85 ber: 0.00 mcc: 208 mnc: 01 lac: 10300 cellId: 40079 cellStatus: CELL_FORBIDDEN numArfcn: 13 arfcn: 5 17 18 19 20 21 22 23 24 25 47 48 49 numChannels: 20 array: 1 2 3 4 5 8 9 10 11 13 14 15 16 512 513 518 604 606 608 610 pbcch: 0 nom: 2 rac: 1 spgc: 0 pat: 6 nco: 0 t3168: 1000 t3192: 500 drxmax: 2 ctrlAck: 0 bsCVmax: 9 alpha: 5 pcMeasCh: 1 
arfcn: 847 rxLev: -85
$GPGGA,090040.000,4806.9120,N,00139.4602,W,1,06,1.5,-35.6,M,48.3,M,,0000*58
arfcn: 827 rxLev: -85
arfcn: 828 rxLev: -85
$GPGSA,M,3,09,06,07,23,05,16,,,,,,,2.6,1.5,2.1*36
arfcn: 822 rxLev: -85
arfcn: 819 rxLev: -85
$GPRMC,090040.000,A,4806.9120,N,00139.4602,W,0.64,170.50,060218,,,A*76
arfcn: 825 rxLev: -85
arfcn: 859 rxLev: -85
arfcn: 863 rxLev: -85
arfcn: 870 rxLev: -85
arfcn: 873 rxLev: -85
arfcn: 877 rxLev: -85
arfcn: 810 rxLev: -85
arfcn: 811 rxLev: -85
$GPGGA,090041.000,4806.9110,N,00139.4596,W,1,06,1.5,-35.5,M,48.3,M,,0000*57
arfcn: 812 rxLev: -86
$GPGSA,M,3,09,06,07,23,05,16,,,,,,,2.6,1.5,2.1*36
arfcn: 815 rxLev: -86
arfcn: 807 rxLev: -86
$GPRMC,090041.000,A,4806.9110,N,00139.4596,W,0.55,170.50,060218,,,A*78
arfcn: 804 rxLev: -86
arfcn: 799 rxLev: -86
arfcn: 800 rxLev: -86
arfcn: 878 rxLev: -86
arfcn: 864 rxLev: -86
arfcn: 861 rxLev: -86
arfcn: 832 rxLev: -86
$GPGGA,090042.000,4806.9098,N,00139.4590,W,1,06,1.5,-35.4,M,48.3,M,,0000*52
$GPGSA,M,3,09,06,07,23,05,16,,,,,,,2.6,1.5,2.1*36
$GPRMC,090042.000,A,4806.9098,N,00139.4590,W,0.70,170.50,060218,,,A*7B
$GPGGA,090043.000,4806.9083,N,00139.4583,W,1,06,1.5,-35.4,M,48.3,M,,0000*5B
$GPGSA,M,3,09,06,07,23,05,16,,,,,,,2.6,1.5,2.1*36
$GPRMC,090043.000,A,4806.9083,N,00139.4583,W,1.20,174.03,060218,,,A*74
arfcn: 4 bsic: 54 rxLev: -86 ber: 0.01 mcc: 208 mnc: 01 lac: 10300 cellId: 43768 cellStatus: CELL_FORBIDDEN numArfcn: 13 arfcn: 4 17 18 19 20 21 22 23 24 25 47 48 49 numChannels: 20 array: 1 3 5 6 7 8 12 13 14 513 514 515 517 518 601 605 606 608 609 610 pbcch: 0 nom: 2 rac: 1 spgc: 0 pat: 6 nco: 0 t3168: 1000 t3192: 500 drxmax: 2 ctrlAck: 0 bsCVmax: 9 alpha: 5 pcMeasCh: 1 
arfcn: 60 rxLev: -86
$GPGGA,090044.000,4806.9067,N,00139.4577,W,1,06,1.5,-35.3,M,48.3,M,,0000*5A
$GPGSA,M,3,09,06,07,23,05,16,,,,,,,2.6,1.5,2.1*36
$GPGSV,3,1,12,09,68,058,16,06,54,214,18,07,48,150,14,23,31,064,32*76
$GPGSV,3,2,12,05,21,295,14,16,09,053,18,03,02,112,11,26,04,025,16*74
$GPGSV,3,3,12,33,33,198,,02,48,282,,04,29,307,,30,29,174,*7D
$GPRMC,090044.000,A,4806.9067,N,00139.4577,W,1.81,176.60,060218,,,A*7E
$GPGGA,090045.000,4806.9050,N,00139.4570,W,1,06,1.5,-35.3,M,48.3,M,,0000*58
$GPGSA,M,3,09,06,07,23,05,16,,,,,,,2.6,1.5,2.1*36
$GPRMC,090045.000,A,4806.9050,N,00139.4570,W,2.54,179.01,060218,,,A*7F
arfcn: 76 bsic: 5 rxLev: -86 ber: 0.00 mcc: 208 mnc: 10 lac: 49415 cellId: 44813 cellStatus: CELL_FORBIDDEN numArfcn: 2 arfcn: 76 121 numChannels: 16 array: 76 77 78 79 80 82 84 85 86 113 114 117 118 121 123 124 pbcch: 0 nom: 2 rac: 31 spgc: 0 pat: 6 nco: 0 t3168: 1000 t3192: 500 drxmax: 4 ctrlAck: 1 bsCVmax: 9 alpha: 10 pcMeasCh: 0 
arfcn: 61 rxLev: -86
arfcn: 62 rxLev: -86
arfcn: 63 rxLev: -86
arfcn: 55 rxLev: -86
arfcn: 2 rxLev: -86
arfcn: 830 rxLev: -86
arfcn: 826 rxLev: -86
$GPGGA,090046.000,4806.9037,N,00139.4564,W,1,06,1.5,-35.3,M,48.3,M,,0000*5F
arfcn: 824 rxLev: -86
$GPGSA,M,3,09,06,07,23,05,16,,,,,,,2.6,1.5,2.1*36
arfcn: 820 rxLev: -86
arfcn: 836 rxLev: -86
$GPRMC,090046.000,A,4806.9037,N,00139.4564,W,2.17,177.72,060218,,,A*75
arfcn: 875 rxLev: -86
arfcn: 874 rxLev: -86
arfcn: 802 rxLev: -86
arfcn: 806 rxLev: -86
arfcn: 808 rxLev: -86
arfcn: 818 rxLev: -86
arfcn: 805 rxLev: -87
arfcn: 869 rxLev: -87
$GPGGA,090047.000,4806.9023,N,00139.4557,W,1,06,1.5,-35.2,M,48.3,M,,0000*5A
arfcn: 876 rxLev: -87
arfcn: 880 rxLev: -87
$GPGSA,M,3,09,06,07,23,05,16,,,,,,,2.6,1.5,2.1*36
arfcn: 865 rxLev: -87
arfcn: 57 rxLev: -87
$GPRMC,090047.000,A,4806.9023,N,00139.4557,W,2.09,176.43,060218,,,A*7D
arfcn: 58 rxLev: -87
arfcn: 59 rxLev: -87
arfcn: 64 rxLev: -87
arfcn: 69 rxLev: -87
arfcn: 54 rxLev: -87
$GPGGA,090048.000,4806.9009,N,00139.4552,W,1,06,1.5,-35.2,M,48.3,M,,0000*58
$GPGSA,M,3,09,06,07,23,05,16,,,,,,,2.6,1.5,2.1*36
$GPRMC,090048.000,A,4806.9009,N,00139.4552,W,2.07,177.77,060218,,,A*77
$GPGGA,090049.000,4806.8996,N,00139.4547,W,1,06,1.5,-35.1,M,48.3,M,,0000*50
$GPGSA,M,3,09,06,07,23,05,16,,,,,,,2.6,1.5,2.1*36
$GPGSV,3,1,12,09,68,058,16,06,54,214,19,07,48,150,14,23,31,064,32*77
$GPGSV,3,2,12,05,21,295,13,16,09,053,19,03,02,112,11,26,04,025,17*73
$GPGSV,3,3,12,37,27,150,,02,48,282,,04,29,307,,30,29,174,*78
$GPRMC,090049.000,A,4806.8996,N,00139.4547,W,1.88,180.22,060218,,,A*70
$GPGGA,090050.000,4806.8984,N,00139.4544,W,1,06,1.5,-35.0,M,48.3,M,,0000*59
$GPGSA,M,3,09,06,07,23,05,16,,,,,,,2.6,1.5,2.1*36
$GPRMC,090050.000,A,4806.8984,N,00139.4544,W,1.85,184.03,060218,,,A*72
$GPGGA,090051.000,4806.8975,N,00139.4541,W,1,06,1.5,-34.9,M,48.3,M,,0000*5B
$GPGSA,M,3,09,06,07,23,05,16,,,,,,,2.6,1.5,2.1*36
$GPRMC,090051.000,A,4806.8975,N,00139.4541,W,1.51,186.13,060218,,,A*72
arfcn: 1016 bsic: 41 rxLev: -87 ber: 0.00 mcc: 208 mnc: 20 lac: 418 cellId: 23623 cellStatus: CELL_SUITABLE numArfcn: 1 arfcn: 1016 numChannels: 28 array: 787 788 791 792 793 794 795 879 880 883 884 975 977 978 979 981 982 983 986 987 1011 1012 1017 1018 1019 1020 1021 1022 pbcch: 0 nom: 2 rac: 6 spgc: 0 pat: 6 nco: 0 t3168: 1500 t3192: 500 drxmax: 4 ctrlAck: 1 bsCVmax: 8 alpha: 6 pcMeasCh: 1 
$GPGGA,090052.000,4806.8966,N,00139.4538,W,1,06,1.5,-34.8,M,48.3,M,,0000*55
$GPGSA,M,3,09,06,07,23,05,16,,,,,,,2.6,1.5,2.1*36
$GPRMC,090052.000,A,4806.8966,N,00139.4538,W,1.43,187.85,060218,,,A*70
$GPGGA,090053.000,4806.8957,N,00139.4534,W,1,06,1.5,-34.7,M,48.3,M,,0000*55
$GPGSA,M,3,09,06,07,23,05,16,,,,,,,2.6,1.5,2.1*36
arfcn: 604 bsic: 20 rxLev: -87 ber: 0.00 mcc: 208 mnc: 01 lac: 10300 cellId: 39915 cellStatus: CELL_FORBIDDEN numArfcn: 16 arfcn: 519 520 521 522 523 524 525 526 596 597 598 599 600 601 602 603 numChannels: 13 array: 5 6 10 15 16 512 514 516 517 518 608 609 610 pbcch: 0 nom: 2 rac: 1 spgc: 0 pat: 6 nco: 0 t3168: 1000 t3192: 500 drxmax: 2 ctrlAck: 0 bsCVmax: 9 alpha: 5 pcMeasCh: 1 
arfcn: 803 rxLev: -87
arfcn: 801 rxLev: -87
arfcn: 879 rxLev: -88
$GPRMC,090053.000,A,4806.8957,N,00139.4534,W,1.23,187.27,060218,,,A*71
arfcn: 871 rxLev: -88
arfcn: 56 rxLev: -88
arfcn: 68 rxLev: -88
arfcn: 70 rxLev: -88
arfcn: 106 rxLev: -88
arfcn: 107 rxLev: -88
$GPGGA,090054.000,4806.8949,N,00139.4528,W,1,05,1.7,-34.8,M,48.3,M,,0000*5E
$GPGSA,M,3,06,07,23,05,16,,,,,,,,3.2,1.7,2.7*3E
$GPGSV,3,1,12,06,54,214,19,07,48,150,10,23,31,064,33,05,21,295,10*76
$GPGSV,3,2,12,16,09,053,20,03,02,112,11,09,68,058,08,26,04,025,17*71
$GPGSV,3,3,12,29,07,334,11,37,27,150,,02,48,282,,04,29,307,*7A
$GPRMC,090054.000,A,4806.8949,N,00139.4528,W,1.13,187.27,060218,,,A*77
$GPGGA,090055.000,4806.8938,N,00139.4523,W,1,05,1.7,-34.9,M,48.3,M,,0000*53
$GPGSA,M,3,06,07,23,05,16,,,,,,,,3.2,1.7,2.7*3E
$GPRMC,090055.000,A,4806.8938,N,00139.4523,W,1.56,184.96,060218,,,A*73
arfcn: 114 bsic: 6 rxLev: -88 ber: 0.00 mcc: 208 mnc: 10 lac: 49415 cellId: 44202 cellStatus: CELL_FORBIDDEN numArfcn: 2 arfcn: 80 114 numChannels: 20 array: 76 77 78 79 80 84 85 86 113 114 115 116 117 118 119 120 121 122 123 124 pbcch: 0 nom: 2 rac: 31 spgc: 0 pat: 6 nco: 0 t3168: 1000 t3192: 500 drxmax: 4 ctrlAck: 1 bsCVmax: 9 alpha: 10 pcMeasCh: 0 
arfcn: 67 rxLev: -88
$GPGGA,090056.000,4806.8928,N,00139.4519,W,1,05,1.7,-35.0,M,48.3,M,,0000*50
$GPGSA,M,3,06,07,23,05,16,,,,,,,,3.2,1.7,2.7*3E
$GPRMC,090056.000,A,4806.8928,N,00139.4519,W,1.56,184.70,060218,,,A*70
$GPGGA,090057.000,4806.8922,N,00139.4514,W,1,05,1.7,-35.1,M,48.3,M,,0000*57
$GPGSA,M,3,06,07,23,05,16,,,,,,,,3.2,1.7,2.7*3E
$GPRMC,090057.000,A,4806.8922,N,00139.4514,W,1.16,184.70,060218,,,A*72
$GPGGA,090058.000,4806.8912,N,00139.4505,W,1,05,1.7,-35.3,M,48.3,M,,0000*59
$GPGSA,M,3,06,07,23,05,16,,,,,,,,3.2,1.7,2.7*3E
arfcn: 82 bsic: 63 rxLev: -88 ber: 0.01 mcc: 208 mnc: 10 lac: 49415 cellId: 53517 cellStatus: CELL_FORBIDDEN numArfcn: 2 arfcn: 82 84 numChannels: 17 array: 76 77 78 79 80 82 85 86 114 115 118 119 120 121 122 123 124 pbcch: 0 nom: 2 rac: 31 spgc: 0 pat: 6 nco: 0 t3168: 1000 t3192: 500 drxmax: 4 ctrlAck: 1 bsCVmax: 9 alpha: 10 pcMeasCh: 0 
$GPRMC,090058.000,A,4806.8912,N,00139.4505,W,1.46,181.56,060218,,,A*7A
$GPGGA,090059.000,4806.8903,N,00139.4498,W,1,05,1.7,-35.4,M,48.3,M,,0000*5A
$GPGSA,M,3,06,07,23,05,16,,,,,,,,3.2,1.7,2.7*3E
$GPGSV,3,1,12,06,54,214,19,07,48,150,11,23,31,064,33,05,21,295,10*77
$GPGSV,3,2,12,16,09,053,20,09,68,058,04,26,04,025,16,37,27,150,*7A
$GPGSV,3,3,12,02,48,282,,04,29,307,,30,29,174,,29,07,334,*75
$GPRMC,090059.000,A,4806.8903,N,00139.4498,W,1.42,178.19,060218,,,A*77
$GPGGA,090100.000,4806.8897,N,00139.4491,W,1,04,2.8,-35.5,M,48.3,M,,0000*5E
$GPGSA,M,3,06,07,23,16,,,,,,,,,3.9,2.8,2.7*3C
$GPRMC,090100.000,A,4806.8897,N,00139.4491,W,1.45,174.49,060218,,,A*71
arfcn: 979 bsic: 19 rxLev: -88 ber: 5.06 mcc: 208 mnc: 20 lac: 418 cellId: 20718 cellStatus: CELL_SUITABLE numArfcn: 1 arfcn: 979 numChannels: 22 array: 788 789 790 792 793 795 878 882 884 977 981 983 984 985 986 987 1012 1013 1014 1017 1019 1020 pbcch: 0 nom: 2 rac: 6 spgc: 0 pat: 6 nco: 0 t3168: 1500 t3192: 500 drxmax: 0 ctrlAck: 0 bsCVmax: 8 alpha: 6 pcMeasCh: 1 
$GPGGA,090101.000,4806.8891,N,00139.4485,W,1,04,2.8,-35.6,M,48.3,M,,0000*5F
$GPGSA,M,3,06,07,23,16,,,,,,,,,3.9,2.8,2.7*3C
$GPRMC,090101.000,A,4806.8891,N,00139.4485,W,1.44,171.11,060218,,,A*7A
$GPGGA,090102.000,4806.8883,N,00139.4477,W,1,04,2.8,-35.7,M,48.3,M,,0000*53
$GPGSA,M,3,06,07,23,16,,,,,,,,,3.9,2.8,2.7*3C
$GPRMC,090102.000,A,4806.8883,N,00139.4477,W,1.73,167.35,060218,,,A*72
$GPGGA,090103.000,4806.8875,N,00139.4470,W,1,04,2.8,-35.8,M,48.3,M,,0000*53
$GPGSA,M,3,06,07,23,16,,,,,,,,,3.9,2.8,2.7*3C
$GPRMC,090103.000,A,4806.8875,N,00139.4470,W,1.78,163.46,060218,,,A*76
$GPGGA,090104.000,4806.8867,N,00139.4466,W,1,05,2.5,-35.9,M,48.3,M,,0000*5D
$GPGSA,M,3,09,06,07,23,16,,,,,,,,3.1,2.5,1.9*3D
$GPGSV,3,1,12,09,68,058,12,06,54,214,19,07,48,150,10,23,31,064,33*76
arfcn: 1014 bsic: 31 rxLev: -89 ber: 7.09 mcc: 208 mnc: 20 lac: 418 cellId: 20649 cellStatus: CELL_SUITABLE numArfcn: 1 arfcn: 1014 numChannels: 25 array: 788 789 790 791 793 795 796 879 884 977 978 979 980 981 982 983 984 985 987 1012 1013 1017 1020 1021 1022 pbcch: 0 nom: 2 rac: 6 spgc: 0 pat: 6 nco: 0 t3168: 1500 t3192: 500 drxmax: 0 ctrlAck: 0 bsCVmax: 8 alpha: 6 pcMeasCh: 1 
arfcn: 95 rxLev: -89
$GPGSV,3,2,12,16,09,053,20,05,21,295,04,26,04,025,16,30,29,174,15*73
arfcn: 120 rxLev: -89
arfcn: 104 rxLev: -89
$GPGSV,3,3,12,37,27,150,,02,48,282,,04,29,307,,29,07,334,*7A
arfcn: 108 rxLev: -89
$GPRMC,090104.000,A,4806.8867,N,00139.4466,W,1.80,161.73,060218,,,A*76
arfcn: 96 rxLev: -89
arfcn: 97 rxLev: -89
arfcn: 99 rxLev: -89
$GPGGA,090105.000,4806.8874,N,00139.4471,W,1,06,2.3,-35.7,M,48.3,M,,0000*53
arfcn: 100 rxLev: -89
$GPGSA,M,3,09,06,07,23,30,16,,,,,,,3.1,2.3,2.0*32
arfcn: 101 rxLev: -89
arfcn: 103 rxLev: -89
$GPRMC,090105.000,A,4806.8874,N,00139.4471,W,0.83,161.73,060218,,,A*71
$GPGGA,090106.000,4806.8880,N,00139.4473,W,1,06,2.3,-35.6,M,48.3,M,,0000*58
$GPGSA,M,3,09,06,07,23,30,16,,,,,,,3.1,2.3,2.0*32
$GPRMC,090106.000,A,4806.8880,N,00139.4473,W,0.91,161.73,060218,,,A*78
$GPGGA,090107.000,4806.8883,N,00139.4466,W,1,06,2.3,-35.5,M,48.3,M,,0000*5D
$GPGSA,M,3,09,06,07,23,30,16,,,,,,,3.1,2.3,2.0*32
$GPRMC,090107.000,A,4806.8883,N,00139.4466,W,1.44,144.07,060218,,,A*73
$GPGGA,090108.000,4806.8885,N,00139.4460,W,1,06,2.3,-35.4,M,48.3,M,,0000*53
$GPGSA,M,3,09,06,07,23,30,16,,,,,,,3.1,2.3,2.0*32
$GPRMC,090108.000,A,4806.8885,N,00139.4460,W,1.36,132.94,060218,,,A*72
arfcn: 8 bsic: 48 rxLev: -89 ber: 0.00 mcc: 208 mnc: 01 lac: 10300 cellId: 6473 cellStatus: CELL_FORBIDDEN numArfcn: 13 arfcn: 8 17 18 19 20 21 22 23 24 25 47 48 49 numChannels: 18 array: 1 2 3 4 5 10 12 13 14 15 512 513 514 515 516 517 605 610 pbcch: 0 nom: 2 rac: 1 spgc: 0 pat: 6 nco: 0 t3168: 1000 t3192: 500 drxmax: 2 ctrlAck: 0 bsCVmax: 9 alpha: 5 pcMeasCh: 1 
arfcn: 53 rxLev: -89
arfcn: 102 rxLev: -89
arfcn: 109 rxLev: -89
arfcn: 105 rxLev: -89
arfcn: 94 rxLev: -89
arfcn: 71 rxLev: -89
$GPGGA,090109.000,4806.8887,N,00139.4455,W,1,06,2.3,-35.2,M,48.3,M,,0000*50
$GPGSA,M,3,09,06,07,23,30,16,,,,,,,3.1,2.3,2.0*32
$GPGSV,3,1,12,09,68,058,13,06,54,214,19,07,48,150,16,23,31,064,33*71
$GPGSV,3,2,12,30,29,174,16,16,09,053,20,05,21,295,04,26,04,025,16*70
$GPGSV,3,3,12,37,27,150,,02,48,282,,04,29,307,,29,07,334,*7A
$GPRMC,090109.000,A,4806.8887,N,00139.4455,W,1.21,126.71,060218,,,A*7F
$GPGGA,090110.000,4806.8894,N,00139.4458,W,1,06,2.3,-35.1,M,48.3,M,,0000*54
$GPGSA,M,3,09,06,07,23,30,16,,,,,,,3.1,2.3,2.0*32
$GPRMC,090110.000,A,4806.8894,N,00139.4458,W,1.03,126.71,060218,,,A*78
$GPGGA,090111.000,4806.8893,N,00139.4449,W,1,07,1.1,-35.0,M,48.3,M,,0000*53
$GPGSA,M,3,09,06,07,23,30,05,16,,,,,,2.0,1.1,1.7*32
$GPRMC,090111.000,A,4806.8893,N,00139.4449,W,1.23,115.41,060218,,,A*7F
$GPGGA,090112.000,4806.8894,N,00139.4443,W,1,07,1.1,-34.9,M,48.3,M,,0000*55
$GPGSA,M,3,09,06,07,23,30,05,16,,,,,,2.0,1.1,1.7*32
$GPRMC,090112.000,A,4806.8894,N,00139.4443,W,1.37,106.21,060218,,,A*70
arfcn: 514 bsic: 1 rxLev: -89 ber: 1.08 mcc: 208 mnc: 01 lac: 10300 cellId: 39259 cellStatus: CELL_FORBIDDEN numArfcn: 17 arfcn: 514 519 520 521 522 523 524 525 526 596 597 598 599 600 601 602 603 numChannels: 14 array: 1 6 8 10 12 14 512 513 514 517 604 605 606 608 pbcch: 0 nom: 2 rac: 1 spgc: 1 pat: 6 nco: 0 t3168: 1000 t3192: 500 drxmax: 4 ctrlAck: 1 bsCVmax: 9 alpha: 7 pcMeasCh: 0 
arfcn: 791 rxLev: -89
arfcn: 606 rxLev: -90
arfcn: 66 rxLev: -90
$GPGGA,090113.000,4806.8895,N,00139.4438,W,1,07,1.1,-34.8,M,48.3,M,,0000*58
arfcn: 92 rxLev: -90
$GPGSA,M,3,09,06,07,23,30,05,16,,,,,,2.0,1.1,1.7*32
arfcn: 98 rxLev: -90
arfcn: 65 rxLev: -90
$GPRMC,090113.000,A,4806.8895,N,00139.4438,W,1.07,106.21,060218,,,A*7F
$GPGGA,090114.000,4806.8895,N,00139.4434,W,1,07,1.1,-34.8,M,48.3,M,,0000*53
$GPGSA,M,3,09,06,07,23,30,05,16,,,,,,2.0,1.1,1.7*32
$GPGSV,3,1,12,09,68,058,14,06,54,214,18,07,48,150,16,23,31,064,32*76
$GPGSV,3,2,12,30,29,174,15,05,21,295,11,16,09,053,20,26,04,025,17*76
$GPGSV,3,3,12,37,27,150,,02,48,282,,04,29,307,,29,07,334,*7A
$GPRMC,090114.000,A,4806.8895,N,00139.4434,W,1.09,106.21,060218,,,A*7A
$GPGGA,090115.000,4806.8893,N,00139.4428,W,1,07,1.1,-34.6,M,48.3,M,,0000*57
$GPGSA,M,3,09,06,07,23,30,05,16,,,,,,2.0,1.1,1.7*32
$GPRMC,090115.000,A,4806.8893,N,00139.4428,W,1.22,107.67,060218,,,A*7A
$GPGGA,090116.000,4806.8891,N,00139.4420,W,1,07,1.1,-34.5,M,48.3,M,,0000*5D
$GPGSA,M,3,09,06,07,23,30,05,16,,,,,,2.0,1.1,1.7*32
$GPRMC,090116.000,A,4806.8891,N,00139.4420,W,1.74,108.34,060218,,,A*79
$GPGGA,090117.000,4806.8889,N,00139.4413,W,1,07,1.1,-34.3,M,48.3,M,,0000*53
$GPGSA,M,3,09,06,07,23,30,05,16,,,,,,2.0,1.1,1.7*32
$GPRMC,090117.000,A,4806.8889,N,00139.4413,W,1.89,110.78,060218,,,A*72
$GPGGA,090118.000,4806.8886,N,00139.4409,W,1,07,1.1,-34.2,M,48.3,M,,0000*59
$GPGSA,M,3,09,06,07,23,30,05,16,,,,,,2.0,1.1,1.7*32
$GPRMC,090118.000,A,4806.8886,N,00139.4409,W,1.52,115.53,060218,,,A*73
$GPGGA,090119.000,4806.8882,N,00139.4403,W,1,07,1.1,-34.2,M,48.3,M,,0000*56
$GPGSA,M,3,09,06,07,23,30,05,16,,,,,,2.0,1.1,1.7*32
$GPGSV,3,1,12,09,68,058,16,06,54,214,17,07,48,150,16,23,31,064,32*7B
$GPGSV,3,2,12,30,29,174,15,05,21,295,11,16,09,053,20,02,48,282,11*71
$GPGSV,3,3,12,26,04,025,17,39,31,144,,04,29,307,,29,07,334,*71
$GPRMC,090119.000,A,4806.8882,N,00139.4403,W,1.79,119.05,060218,,,A*7A
$GPGGA,090120.000,4806.8881,N,00139.4397,W,1,07,1.1,-34.1,M,48.3,M,,0000*56
$GPGSA,M,3,09,06,07,23,30,05,16,,,,,,2.0,1.1,1.7*32
$GPRMC,090120.000,A,4806.8881,N,00139.4397,W,1.68,119.04,060218,,,A*78
arfcn: 1017 bsic: 33 rxLev: -90 ber: 3.10 mcc: 208 mnc: 20 lac: 418 cellId: 20104 cellStatus: CELL_SUITABLE numArfcn: 3 arfcn: 986 987 1017 numChannels: 20 array: 788 790 885 975 976 978 979 980 981 982 986 987 1011 1012 1015 1017 1019 1020 1021 1022 pbcch: 0 nom: 2 rac: 7 spgc: 0 pat: 6 nco: 0 t3168: 1500 t3192: 500 drxmax: 4 ctrlAck: 1 bsCVmax: 8 alpha: 6 pcMeasCh: 1 
arfcn: 881 rxLev: -90
arfcn: 93 rxLev: -91
$GPGGA,090121.000,4806.8879,N,00139.4390,W,1,07,1.1,-34.1,M,48.3,M,,0000*57
arfcn: 91 rxLev: -91
$GPGSA,M,3,09,06,07,23,30,05,16,,,,,,2.0,1.1,1.7*32
arfcn: 47 rxLev: -91
arfcn: 79 rxLev: -91
$GPRMC,090121.000,A,4806.8879,N,00139.4390,W,1.86,118.84,060218,,,A*70
arfcn: 72 rxLev: -91
$GPGGA,090122.000,4806.8875,N,00139.4381,W,1,07,1.1,-34.0,M,48.3,M,,0000*59
$GPGSA,M,3,09,06,07,23,30,05,16,,,,,,2.0,1.1,1.7*32
$GPRMC,090122.000,A,4806.8875,N,00139.4381,W,2.15,120.00,060218,,,A*71
$GPGGA,090123.000,4806.8875,N,00139.4380,W,1,08,1.0,-33.9,M,48.3,M,,0000*59
$GPGSA,M,3,09,06,07,02,23,30,05,16,,,,,1.9,1.0,1.6*3A
$GPRMC,090123.000,A,4806.8875,N,00139.4380,W,1.36,120.06,060218,,,A*75
$GPGGA,090124.000,4806.8871,N,00139.4374,W,1,08,1.0,-33.8,M,48.3,M,,0000*50
$GPGSA,M,3,09,06,07,02,23,30,05,16,,,,,1.9,1.0,1.6*3A
$GPGSV,3,1,12,09,68,058,17,06,54,214,17,07,48,150,16,02,48,282,12*7F
$GPGSV,3,2,12,23,31,064,32,30,29,174,09,05,21,295,11,16,09,053,20*7A
arfcn: 978 bsic: 19 rxLev: -91 ber: 0.09 mcc: 208 mnc: 20 lac: 418 cellId: 18480 cellStatus: CELL_SUITABLE numArfcn: 2 arfcn: 978 1023 numChannels: 24 array: 788 790 794 880 883 975 976 977 979 980 981 982 983 985 986 1011 1012 1014 1016 1017 1018 1019 1020 1021 pbcch: 0 nom: 2 rac: 6 spgc: 0 pat: 6 nco: 0 t3168: 1500 t3192: 500 drxmax: 4 ctrlAck: 1 bsCVmax: 8 alpha: 6 pcMeasCh: 1 
arfcn: 52 rxLev: -92
$GPGSV,3,3,12,26,04,025,17,39,31,144,,04,29,307,,29,07,334,*71
arfcn: 9 rxLev: -92
arfcn: 25 rxLev: -92
$GPRMC,090124.000,A,4806.8871,N,00139.4374,W,1.50,121.51,060218,,,A*7E
arfcn: 774 rxLev: -92
arfcn: 775 rxLev: -92
arfcn: 776 rxLev: -92
$GPGGA,090125.000,4806.8866,N,00139.4366,W,1,08,1.0,-33.8,M,48.3,M,,0000*54
arfcn: 716 rxLev: -92
$GPGSA,M,3,09,06,07,02,23,30,05,16,,,,,1.9,1.0,1.6*3A
arfcn: 720 rxLev: -92
arfcn: 721 rxLev: -92
$GPRMC,090125.000,A,4806.8866,N,00139.4366,W,1.71,122.71,060218,,,A*78
arfcn: 722 rxLev: -92
arfcn: 724 rxLev: -92
arfcn: 725 rxLev: -92
arfcn: 723 rxLev: -92
arfcn: 729 rxLev: -92
arfcn: 749 rxLev: -92
arfcn: 717 rxLev: -92
arfcn: 110 rxLev: -92
$GPGGA,090126.000,4806.8859,N,00139.4356,W,1,08,1.0,-33.8,M,48.3,M,,0000*58
arfcn: 123 rxLev: -92
$GPGSA,M,3,09,06,07,02,23,30,05,16,,,,,1.9,1.0,1.6*3A
$GPRMC,090126.000,A,4806.8859,N,00139.4356,W,2.08,124.83,060218,,,A*72
$GPGGA,090127.000,4806.8854,N,00139.4349,W,1,08,1.0,-33.7,M,48.3,M,,0000*55
$GPGSA,M,3,09,06,07,02,23,30,05,16,,,,,1.9,1.0,1.6*3A
$GPRMC,090127.000,A,4806.8854,N,00139.4349,W,2.05,127.37,060218,,,A*71
$GPGGA,090128.000,4806.8848,N,00139.4341,W,1,07,1.1,-33.7,M,48.3,M,,0000*51
$GPGSA,M,3,09,06,07,23,30,05,16,,,,,,2.0,1.1,1.7*32
arfcn: 117 bsic: 12 rxLev: -92 ber: 0.00 mcc: 208 mnc: 10 lac: 49415 cellId: 3568 cellStatus: CELL_FORBIDDEN numArfcn: 2 arfcn: 82 117 numChannels: 17 array: 76 77 78 79 80 83 84 85 87 113 114 116 117 120 122 123 124 pbcch: 0 nom: 2 rac: 31 spgc: 0 pat: 6 nco: 0 t3168: 1000 t3192: 500 drxmax: 4 ctrlAck: 1 bsCVmax: 9 alpha: 10 pcMeasCh: 0 
$GPRMC,090128.000,A,4806.8848,N,00139.4341,W,2.00,129.37,060218,,,A*70
$GPGGA,090129.000,4806.8840,N,00139.4331,W,1,07,1.1,-33.6,M,48.3,M,,0000*5E
$GPGSA,M,3,09,06,07,23,30,05,16,,,,,,2.0,1.1,1.7*32
$GPGSV,3,1,12,09,68,058,18,06,54,214,17,07,48,150,16,23,31,064,31*76
$GPGSV,3,2,12,30,29,174,08,05,21,295,11,16,09,053,19,02,48,282,06*71
$GPGSV,3,3,12,26,04,025,17,39,31,144,,04,29,307,,29,07,334,*71
$GPRMC,090129.000,A,4806.8840,N,00139.4331,W,2.17,132.75,060218,,,A*74
$GPGGA,090130.000,4806.8831,N,00139.4321,W,1,07,1.1,-33.5,M,48.3,M,,0000*52
$GPGSA,M,3,09,06,07,23,30,05,16,,,,,,2.0,1.1,1.7*32
$GPRMC,090130.000,A,4806.8831,N,00139.4321,W,2.27,135.82,060218,,,A*77
$GPGGA,090131.000,4806.8825,N,00139.4317,W,1,06,2.3,-33.4,M,48.3,M,,0000*52
$GPGSA,M,3,09,06,07,23,30,16,,,,,,,3.1,2.3,2.0*32
$GPRMC,090131.000,A,4806.8825,N,00139.4317,W,2.28,138.35,060218,,,A*78
$GPGGA,090132.000,4806.8820,N,00139.4320,W,1,06,2.3,-33.3,M,48.3,M,,0000*57
arfcn: 513 bsic: 27 rxLev: -92 ber: 0.05 mcc: 208 mnc: 01 lac: 10300 cellId: 27587 cellStatus: CELL_FORBIDDEN numArfcn: 16 arfcn: 519 520 521 522 523 524 525 526 596 597 598 599 600 601 602 603 numChannels: 14 array: 1 4 8 12 512 513 515 516 517 518 605 606 607 609 pbcch: 0 nom: 2 rac: 1 spgc: 0 pat: 6 nco: 0 t3168: 1000 t3192: 500 drxmax: 2 ctrlAck: 0 bsCVmax: 9 alpha: 5 pcMeasCh: 1 
$GPGSA,M,3,09,06,07,23,30,16,,,,,,,3.1,2.3,2.0*32
$GPRMC,090132.000,A,4806.8820,N,00139.4320,W,2.23,143.29,060218,,,A*70
$GPGGA,090133.000,4806.8813,N,00139.4314,W,1,06,2.3,-33.2,M,48.3,M,,0000*50
$GPGSA,M,3,09,06,07,23,30,16,,,,,,,3.1,2.3,2.0*32
$GPRMC,090133.000,A,4806.8813,N,00139.4314,W,2.13,145.11,060218,,,A*78
$GPGGA,090134.000,4806.8806,N,00139.4306,W,1,06,2.3,-33.1,M,48.3,M,,0000*53
$GPGSA,M,3,09,06,07,23,30,16,,,,,,,3.1,2.3,2.0*32
$GPGSV,3,1,12,09,68,058,16,06,54,214,16,07,48,150,15,23,31,064,31*7A
$GPGSV,3,2,12,30,29,174,09,16,09,053,19,02,48,282,07,26,04,025,17*78
$GPGSV,3,3,12,39,31,144,,04,29,307,,05,21,295,,29,07,334,*78
$GPRMC,090134.000,A,4806.8806,N,00139.4306,W,2.36,145.14,060218,,,A*7A
$GPGGA,090135.000,4806.8798,N,00139.4303,W,1,06,2.3,-33.0,M,48.3,M,,0000*5E
$GPGSA,M,3,09,06,07,23,30,16,,,,,,,3.1,2.3,2.0*32
$GPRMC,090135.000,A,4806.8798,N,00139.4303,W,2.54,147.26,060218,,,A*71
arfcn: 1019 bsic: 48 rxLev: -93 ber: 3.04 mcc: 208 mnc: 20 lac: 418 cellId: 20015 cellStatus: CELL_SUITABLE numArfcn: 2 arfcn: 1010 1019 numChannels: 20 array: 787 789 794 882 976 979 981 982 983 985 986 987 1012 1013 1015 1016 1017 1020 1021 1022 pbcch: 0 nom: 2 rac: 6 spgc: 0 pat: 6 nco: 0 t3168: 1500 t3192: 500 drxmax: 0 ctrlAck: 0 bsCVmax: 8 alpha: 4 pcMeasCh: 1 
arfcn: 81 rxLev: -93
arfcn: 715 rxLev: -93
arfcn: 726 rxLev: -93
$GPGGA,090136.000,4806.8792,N,00139.4302,W,1,06,2.3,-32.8,M,48.3,M,,0000*5F
arfcn: 727 rxLev: -93
arfcn: 732 rxLev: -93
$GPGSA,M,3,09,06,07,23,30,16,,,,,,,3.1,2.3,2.0*32
arfcn: 718 rxLev: -93
arfcn: 777 rxLev: -93
$GPRMC,090136.000,A,4806.8792,N,00139.4302,W,2.43,149.47,060218,,,A*76
arfcn: 766 rxLev: -93
arfcn: 767 rxLev: -93
arfcn: 751 rxLev: -93
arfcn: 758 rxLev: -93
arfcn: 750 rxLev: -93
arfcn: 756 rxLev: -93
arfcn: 757 rxLev: -93
$GPGGA,090137.000,4806.8786,N,00139.4299,W,1,07,1.3,-32.7,M,48.3,M,,0000*55
arfcn: 773 rxLev: -93
arfcn: 719 rxLev: -93
$GPGSA,M,3,09,06,07,02,23,30,16,,,,,,2.3,1.3,1.9*3A
arfcn: 733 rxLev: -93
arfcn: 730 rxLev: -93
$GPRMC,090137.000,A,4806.8786,N,00139.4299,W,2.34,150.07,060218,,,A*7D
arfcn: 731 rxLev: -93
arfcn: 728 rxLev: -93
arfcn: 741 rxLev: -93
arfcn: 90 rxLev: -93
$GPGGA,090138.000,4806.8785,N,00139.4299,W,1,07,1.3,-32.6,M,48.3,M,,0000*58
$GPGSA,M,3,09,06,07,02,23,30,16,,,,,,2.3,1.3,1.9*3A
$GPRMC,090138.000,A,4806.8785,N,00139.4299,W,1.84,148.59,060218,,,A*7B
$GPGGA,090139.000,4806.8782,N,00139.4295,W,1,07,1.3,-32.5,M,48.3,M,,0000*51
$GPGSA,M,3,09,06,07,02,23,30,16,,,,,,2.3,1.3,1.9*3A
arfcn: 608 bsic: 46 rxLev: -93 ber: 1.08 mcc: 208 mnc: 01 lac: 10300 cellId: 36733 cellStatus: CELL_FORBIDDEN numArfcn: 16 arfcn: 519 520 521 522 523 524 525 526 596 597 598 599 600 601 602 603 numChannels: 15 array: 1 3 6 7 10 12 14 512 513 514 515 517 604 605 606 pbcch: 0 nom: 2 rac: 1 spgc: 0 pat: 6 nco: 0 t3168: 1000 t3192: 500 drxmax: 2 ctrlAck: 0 bsCVmax: 9 alpha: 5 pcMeasCh: 1 
arfcn: 739 rxLev: -94
arfcn: 734 rxLev: -94
$GPGSV,3,1,12,09,68,058,15,06,54,214,16,07,48,150,14,02,48,282,09*74
arfcn: 737 rxLev: -94
arfcn: 748 rxLev: -94
$GPGSV,3,2,12,23,31,064,31,30,29,174,10,16,09,053,19,26,04,025,17*72
arfcn: 747 rxLev: -94
arfcn: 742 rxLev: -94
$GPGSV,3,3,12,39,31,144,,04,29,307,,05,21,295,,29,07,334,*78
arfcn: 743 rxLev: -94
$GPRMC,090139.000,A,4806.8782,N,00139.4295,W,1.92,144.11,060218,,,A*76
arfcn: 768 rxLev: -94
arfcn: 778 rxLev: -94
arfcn: 753 rxLev: -94
$GPGGA,090140.000,4806.8781,N,00139.4293,W,1,07,1.3,-32.4,M,48.3,M,,0000*5B
arfcn: 759 rxLev: -94
arfcn: 760 rxLev: -94
$GPGSA,M,3,09,06,07,02,23,30,16,,,,,,2.3,1.3,1.9*3A
arfcn: 763 rxLev: -94
arfcn: 764 rxLev: -94
$GPRMC,090140.000,A,4806.8781,N,00139.4293,W,1.56,142.30,060218,,,A*70
arfcn: 765 rxLev: -94
arfcn: 762 rxLev: -94
arfcn: 761 rxLev: -94
arfcn: 752 rxLev: -94
arfcn: 754 rxLev: -94
arfcn: 755 rxLev: -94
arfcn: 769 rxLev: -94
$GPGGA,090141.000,4806.8780,N,00139.4294,W,1,07,1.3,-32.3,M,48.3,M,,0000*5B
arfcn: 744 rxLev: -94
$GPGSA,M,3,09,06,07,02,23,30,16,,,,,,2.3,1.3,1.9*3A
arfcn: 745 rxLev: -94
arfcn: 736 rxLev: -94
$GPRMC,090141.000,A,4806.8780,N,00139.4294,W,0.97,142.30,060218,,,A*7B
arfcn: 735 rxLev: -94
arfcn: 738 rxLev: -94
arfcn: 740 rxLev: -94
arfcn: 746 rxLev: -95
arfcn: 770 rxLev: -95
arfcn: 15 rxLev: -95
$GPGGA,090142.000,4806.8781,N,00139.4296,W,1,07,1.3,-32.2,M,48.3,M,,0000*5A
$GPGSA,M,3,09,06,07,02,23,30,16,,,,,,2.3,1.3,1.9*3A
$GPRMC,090142.000,A,4806.8781,N,00139.4296,W,0.42,142.30,060218,,,A*73
$GPGGA,090143.000,4806.8782,N,00139.4299,W,1,07,1.3,-32.1,M,48.3,M,,0000*54
$GPGSA,M,3,09,06,07,02,23,30,16,,,,,,2.3,1.3,1.9*3A
$GPRMC,090143.000,A,4806.8782,N,00139.4299,W,0.12,142.30,060218,,,A*7B
$GPGGA,090144.000,4806.8782,N,00139.4301,W,1,07,1.3,-32.1,M,48.3,M,,0000*53
$GPGSA,M,3,09,06,07,02,23,30,16,,,,,,2.3,1.3,1.9*3A
$GPGSV,3,1,12,09,67,058,17,06,53,213,16,07,49,149,14,02,48,281,11*7A
$GPGSV,3,2,12,23,30,064,31,30,30,174,11,16,09,052,19,26,04,024,17*7A
$GPGSV,3,3,12,39,31,144,,04,30,307,,05,22,295,,29,07,333,*74
$GPRMC,090144.000,A,4806.8782,N,00139.4301,W,0.29,142.30,060218,,,A*74
arfcn: 7 bsic: 47 rxLev: -95 ber: 5.02 mcc: 208 mnc: 01 lac: 10300 cellId: 2685 cellStatus: CELL_FORBIDDEN numArfcn: 13 arfcn: 7 17 18 19 20 21 22 23 24 25 47 48 49 numChannels: 18 array: 1 2 3 4 5 6 11 12 13 14 15 512 514 515 517 604 606 608 pbcch: 0 nom: 2 rac: 1 spgc: 0 pat: 6 nco: 0 t3168: 1000 t3192: 500 drxmax: 2 ctrlAck: 0 bsCVmax: 9 alpha: 5 pcMeasCh: 1 
arfcn: 48 rxLev: -95
arfcn: 77 rxLev: -95
$GPGGA,090145.000,4806.8783,N,00139.4304,W,1,07,1.3,-31.9,M,48.3,M,,0000*5D
arfcn: 121 rxLev: -95
$GPGSA,M,3,09,06,07,02,23,30,16,,,,,,2.3,1.3,1.9*3A
arfcn: 772 rxLev: -95
arfcn: 781 rxLev: -95
$GPRMC,090145.000,A,4806.8783,N,00139.4304,W,0.54,142.30,060218,,,A*7B
arfcn: 779 rxLev: -96
arfcn: 771 rxLev: -96
arfcn: 782 rxLev: -96
arfcn: 1021 rxLev: -96
arfcn: 1015 rxLev: -96
arfcn: 975 rxLev: -96
$GPGGA,090146.000,4806.8784,N,00139.4309,W,1,07,1.3,-31.8,M,48.3,M,,0000*55
$GPGSA,M,3,09,06,07,02,23,30,16,,,,,,2.3,1.3,1.9*3A
$GPRMC,090146.000,A,4806.8784,N,00139.4309,W,0.92,142.30,060218,,,A*78
$GPGGA,090147.000,4806.8785,N,00139.4316,W,1,07,1.3,-31.7,M,48.3,M,,0000*54
$GPGSA,M,3,09,06,07,02,23,30,16,,,,,,2.3,1.3,1.9*3A
$GPRMC,090147.000,A,4806.8785,N,00139.4316,W,1.27,178.76,060218,,,A*72
arfcn: 115 bsic: 43 rxLev: -96 ber: 10.03 mcc: 208 mnc: 10 lac: 49415 cellId: 55710 cellStatus: CELL_FORBIDDEN numArfcn: 2 arfcn: 87 115 numChannels: 22 array: 76 77 78 79 80 82 83 84 85 86 113 114 115 116 117 118 119 120 121 122 123 124 pbcch: 0 nom: 2 rac: 31 spgc: 0 pat: 6 nco: 0 t3168: 1000 t3192: 500 drxmax: 4 ctrlAck: 1 bsCVmax: 9 alpha: 10 pcMeasCh: 0 
arfcn: 73 rxLev: -96
arfcn: 84 rxLev: -96
arfcn: 780 rxLev: -96
arfcn: 86 rxLev: -97
arfcn: 6 rxLev: -97
arfcn: 20 rxLev: -97
arfcn: 75 rxLev: -97
arfcn: 111 rxLev: -97
$GPGGA,090148.000,4806.8787,N,00139.4324,W,1,07,1.3,-31.6,M,48.3,M,,0000*59
$GPGSA,M,3,09,06,07,02,23,30,16,,,,,,2.3,1.3,1.9*3A
$GPRMC,090148.000,A,4806.8787,N,00139.4324,W,1.68,210.33,060218,,,A*79
$GPGGA,090149.000,4806.8788,N,00139.4331,W,1,07,1.3,-31.4,M,48.3,M,,0000*51
$GPGSA,M,3,09,06,07,02,23,30,16,,,,,,2.3,1.3,1.9*3A
$GPGSV,3,1,12,09,67,058,17,06,53,213,17,07,49,149,12,02,48,281,09*74
$GPGSV,3,2,12,23,30,064,31,30,30,174,11,16,09,052,20,26,04,024,16*71
$GPGSV,3,3,12,43,00,000,,04,30,307,,05,22,295,,29,07,333,*7A
$GPRMC,090149.000,A,4806.8788,N,00139.4331,W,1.57,225.63,060218,,,A*7C
$GPGGA,090150.000,4806.8790,N,00139.4340,W,1,07,1.3,-31.3,M,48.3,M,,0000*51
$GPGSA,M,3,09,06,07,02,23,30,16,,,,,,2.3,1.3,1.9*3A
$GPRMC,090150.000,A,4806.8790,N,00139.4340,W,1.72,237.47,060218,,,A*79
$GPGGA,090151.000,4806.8790,N,00139.4344,W,1,07,1.3,-31.2,M,48.3,M,,0000*55
$GPGSA,M,3,09,06,07,02,23,30,16,,,,,,2.3,1.3,1.9*3A
$GPRMC,090151.000,A,4806.8790,N,00139.4344,W,1.14,237.47,060218,,,A*7C
$GPGGA,090152.000,4806.8791,N,00139.4346,W,1,06,1.4,-31.1,M,48.3,M,,0000*50
$GPGSA,M,3,09,06,02,23,30,16,,,,,,,2.5,1.4,2.0*36
$GPRMC,090152.000,A,4806.8791,N,00139.4346,W,0.60,237.47,060218,,,A*7E
$GPGGA,090153.000,4806.8792,N,00139.4349,W,1,05,2.8,-31.2,M,48.3,M,,0000*52
$GPGSA,M,3,09,06,23,30,16,,,,,,,,3.4,2.8,1.9*31
$GPRMC,090153.000,A,4806.8792,N,00139.4349,W,0.67,237.47,060218,,,A*74
$GPGGA,090154.000,4806.8793,N,00139.4352,W,1,05,2.8,-31.3,M,48.3,M,,0000*5F
$GPGSA,M,3,09,06,23,30,16,,,,,,,,3.4,2.8,1.9*31
$GPGSV,3,1,12,09,67,058,17,06,53,213,17,23,30,064,31,30,30,174,10*7C
$GPGSV,3,2,12,16,09,052,21,02,48,281,08,07,49,149,04,26,04,024,15*7C
$GPGSV,3,3,12,43,00,000,,04,30,307,,05,22,295,,29,07,333,*7A
$GPRMC,090154.000,A,4806.8793,N,00139.4352,W,0.70,237.47,060218,,,A*7E
$GPGGA,090155.000,4806.8790,N,00139.4350,W,1,04,7.3,-31.5,M,48.3,M,,0000*56
$GPGSA,M,3,09,06,23,16,,,,,,,,,7.5,7.3,1.9*39
$GPRMC,090155.000,A,4806.8790,N,00139.4350,W,0.45,237.47,060218,,,A*78
arfcn: 1011 bsic: 26 rxLev: -98 ber: 4.08 mcc: 208 mnc: 20 lac: 418 cellId: 17727 cellStatus: CELL_SUITABLE numArfcn: 1 arfcn: 1011 numChannels: 22 array: 790 880 882 976 978 979 980 981 982 984 985 987 1012 1013 1014 1015 1016 1017 1018 1019 1020 1021 pbcch: 0 nom: 2 rac: 6 spgc: 0 pat: 6 nco: 0 t3168: 1500 t3192: 500 drxmax: 0 ctrlAck: 0 bsCVmax: 8 alpha: 6 pcMeasCh: 1 
$GPGGA,090156.000,4806.8790,N,00139.4349,W,1,04,7.3,-31.6,M,48.3,M,,0000*5E
$GPGSA,M,3,09,06,23,16,,,,,,,,,7.5,7.3,1.9*39
$GPRMC,090156.000,A,4806.8790,N,00139.4349,W,0.38,237.47,060218,,,A*79
$GPGGA,090157.000,4806.8791,N,00139.4350,W,1,04,7.3,-31.8,M,48.3,M,,0000*58
$GPGSA,M,3,09,06,23,16,,,,,,,,,7.5,7.3,1.9*39
$GPRMC,090157.000,A,4806.8791,N,00139.4350,W,0.11,237.47,060218,,,A*7A
arfcn: 517 bsic: 57 rxLev: -98 ber: 5.06 mcc: 208 mnc: 01 lac: 10300 cellId: 26955 cellStatus: CELL_FORBIDDEN numArfcn: 16 arfcn: 519 520 521 522 523 524 525 526 596 597 598 599 600 601 602 603 numChannels: 25 array: 1 2 4 5 6 7 10 12 14 15 16 512 513 514 515 516 517 518 604 605 606 607 608 609 610 pbcch: 0 nom: 2 rac: 1 spgc: 0 pat: 6 nco: 0 t3168: 1000 t3192: 500 drxmax: 2 ctrlAck: 0 bsCVmax: 9 alpha: 5 pcMeasCh: 1 
arfcn: 1023 rxLev: -98
arfcn: 977 rxLev: -98
arfcn: 24 rxLev: -98
arfcn: 703 rxLev: -98
$GPGGA,090158.000,4806.8790,N,00139.4349,W,1,04,7.3,-31.9,M,48.3,M,,0000*5F
arfcn: 704 rxLev: -98
$GPGSA,M,3,09,06,23,16,,,,,,,,,7.5,7.3,1.9*39
arfcn: 695 rxLev: -98
arfcn: 694 rxLev: -99
$GPRMC,090158.000,A,4806.8790,N,00139.4349,W,0.19,237.47,060218,,,A*74
arfcn: 685 rxLev: -99
$GPGGA,090159.000,4806.8789,N,00139.4346,W,1,04,7.3,-32.0,M,48.3,M,,0000*53
$GPGSA,M,3,09,06,23,16,,,,,,,,,7.5,7.3,1.9*39
$GPGSV,3,1,12,09,67,058,16,06,53,213,16,23,30,064,31,16,09,052,20*74
$GPGSV,3,2,12,02,48,281,04,26,04,024,15,30,30,174,08,43,00,000,*75
$GPGSV,3,3,12,07,49,149,,04,30,307,,05,22,295,,29,07,333,*7B
$GPRMC,090159.000,A,4806.8789,N,00139.4346,W,0.50,237.47,060218,,,A*7F
$GPGGA,090200.000,4806.8790,N,00139.4346,W,1,04,7.3,-32.1,M,48.3,M,,0000*55
$GPGSA,M,3,09,06,23,16,,,,,,,,,7.5,7.3,1.9*39
$GPRMC,090200.000,A,4806.8790,N,00139.4346,W,0.32,237.47,060218,,,A*7C
$GPGGA,090201.000,4806.8791,N,00139.4348,W,1,04,7.3,-32.2,M,48.3,M,,0000*58
$GPGSA,M,3,09,06,23,16,,,,,,,,,7.5,7.3,1.9*39
$GPRMC,090201.000,A,4806.8791,N,00139.4348,W,0.12,237.47,060218,,,A*70
$GPGGA,090202.000,4806.8791,N,00139.4349,W,1,04,7.3,-32.3,M,48.3,M,,0000*5B
$GPGSA,M,3,09,06,23,16,,,,,,,,,7.5,7.3,1.9*39
$GPRMC,090202.000,A,4806.8791,N,00139.4349,W,0.19,237.47,060218,,,A*79
$GPGGA,090203.000,4806.8788,N,00139.4348,W,1,04,7.3,-32.4,M,48.3,M,,0000*54
$GPGSA,M,3,09,06,23,16,,,,,,,,,7.5,7.3,1.9*39
$GPRMC,090203.000,A,4806.8788,N,00139.4348,W,0.45,237.47,060218,,,A*78
arfcn: 16 bsic: 1 rxLev: -99 ber: 7.08 mcc: 208 mnc: 01 lac: 10300 cellId: 40090 cellStatus: CELL_FORBIDDEN numArfcn: 13 arfcn: 16 17 18 19 20 21 22 23 24 25 47 48 49 numChannels: 14 array: 2 3 5 7 8 10 12 512 517 601 604 605 608 610 pbcch: 0 nom: 2 rac: 1 spgc: 0 pat: 6 nco: 0 t3168: 1000 t3192: 500 drxmax: 2 ctrlAck: 0 bsCVmax: 9 alpha: 5 pcMeasCh: 1 
arfcn: 49 rxLev: -99
arfcn: 976 rxLev: -99
arfcn: 987 rxLev: -99
arfcn: 1012 rxLev: -99
arfcn: 516 rxLev: -99
$GPGGA,090204.000,4806.8793,N,00139.4357,W,1,04,7.2,-32.5,M,48.3,M,,0000*57
arfcn: 638 rxLev: -99
$GPGSA,M,3,09,06,23,16,,,,,,,,,7.5,7.2,1.9*38
arfcn: 662 rxLev: -99
arfcn: 664 rxLev: -99
$GPGSV,3,1,12,09,67,058,16,06,53,213,15,23,30,064,31,16,09,052,20*77
arfcn: 666 rxLev: -99
arfcn: 676 rxLev: -99
$GPGSV,3,2,12,02,48,281,04,26,04,024,11,30,30,174,05,43,00,000,*7C
arfcn: 116 rxLev: -99
$GPGSV,3,3,12,07,49,149,,04,30,307,,05,22,295,,29,07,333,*7B
arfcn: 83 rxLev: -99
arfcn: 51 rxLev: -99
$GPRMC,090204.000,A,4806.8793,N,00139.4357,W,0.37,237.47,060218,,,A*7E
arfcn: 682 rxLev: -99
arfcn: 689 rxLev: -99
arfcn: 692 rxLev: -99
$GPGGA,090205.000,4806.8787,N,00139.4352,W,1,04,7.2,-32.6,M,48.3,M,,0000*55
arfcn: 699 rxLev: -99
$GPGSA,M,3,09,06,23,16,,,,,,,,,7.5,7.2,1.9*38
arfcn: 702 rxLev: -99
arfcn: 706 rxLev: -99
$GPRMC,090205.000,A,4806.8787,N,00139.4352,W,0.46,237.47,060218,,,A*79
$GPGGA,090206.000,4806.8782,N,00139.4352,W,1,04,7.2,-32.7,M,48.3,M,,0000*52
$GPGSA,M,3,09,06,23,16,,,,,,,,,7.5,7.2,1.9*38
$GPRMC,090206.000,A,4806.8782,N,00139.4352,W,1.05,237.47,060218,,,A*79
$GPGGA,090207.000,4806.8776,N,00139.4350,W,1,04,7.2,-32.7,M,48.3,M,,0000*5A
$GPGSA,M,3,09,06,23,16,,,,,,,,,7.5,7.2,1.9*38
$GPRMC,090207.000,A,4806.8776,N,00139.4350,W,1.08,237.47,060218,,,A*7C
$GPGGA,090208.000,4806.8769,N,00139.4344,W,1,04,7.2,-32.8,M,48.3,M,,0000*51
arfcn: 788 bsic: 63 rxLev: -99 ber: 0.02 mcc: 208 mnc: 20 lac: 418 cellId: 20615 cellStatus: CELL_SUITABLE numArfcn: 1 arfcn: 788 numChannels: 24 array: 787 789 790 792 796 879 883 885 975 978 980 981 982 983 985 986 987 1011 1014 1015 1017 1018 1019 1021 pbcch: 0 nom: 2 rac: 7 spgc: 0 pat: 6 nco: 0 t3168: 1500 t3192: 500 drxmax: 0 ctrlAck: 0 bsCVmax: 8 alpha: 6 pcMeasCh: 1 
arfcn: 700 rxLev: -100
$GPGSA,M,3,09,06,23,16,,,,,,,,,7.5,7.2,1.9*38
arfcn: 696 rxLev: -100
$GPRMC,090208.000,A,4806.8769,N,00139.4344,W,1.30,225.94,060218,,,A*7E
arfcn: 693 rxLev: -100
arfcn: 687 rxLev: -100
arfcn: 678 rxLev: -100
arfcn: 89 rxLev: -100
arfcn: 74 rxLev: -100
arfcn: 118 rxLev: -100
arfcn: 677 rxLev: -100
arfcn: 673 rxLev: -100
$GPGGA,090209.000,4806.8763,N,00139.4343,W,1,04,7.2,-32.9,M,48.3,M,,0000*5C
arfcn: 669 rxLev: -100
$GPGSA,M,3,09,06,23,16,,,,,,,,,7.5,7.2,1.9*38
arfcn: 665 rxLev: -100
arfcn: 660 rxLev: -100
$GPGSV,3,1,12,09,67,058,16,06,53,213,14,23,30,064,30,16,09,052,20*77
arfcn: 639 rxLev: -100
arfcn: 1018 rxLev: -100
$GPGSV,3,2,12,05,22,295,10,26,04,024,12,30,30,174,15,43,00,000,*75
arfcn: 1013 rxLev: -100
arfcn: 633 rxLev: -100
$GPGSV,3,3,12,07,49,149,,02,48,281,,04,30,307,,29,07,333,*75
arfcn: 635 rxLev: -100
arfcn: 636 rxLev: -100
$GPRMC,090209.000,A,4806.8763,N,00139.4343,W,1.56,215.18,060218,,,A*75
$GPGGA,090210.000,4806.8760,N,00139.4348,W,1,04,7.2,-32.9,M,48.3,M,,0000*5C
$GPGSA,M,3,09,06,23,16,,,,,,,,,7.5,7.2,1.9*38
$GPRMC,090210.000,A,4806.8760,N,00139.4348,W,1.68,209.60,060218,,,A*7A
$GPGGA,090211.000,4806.8756,N,00139.4350,W,1,05,1.9,-33.0,M,48.3,M,,0000*55
$GPGSA,M,3,09,06,23,05,16,,,,,,,,2.6,1.9,1.9*36
arfcn: 609 bsic: 46 rxLev: -100 ber: 2.06 mcc: FFF mnc: FF lac: 65535 cellId: 0 cellStatus: CELL_OTHER numArfcn: 0 arfcn: numChannels: 0 array:
$GPRMC,090211.000,A,4806.8756,N,00139.4350,W,1.56,206.53,060218,,,A*75
arfcn: 622 rxLev: -100
arfcn: 661 rxLev: -100
arfcn: 663 rxLev: -100
arfcn: 674 rxLev: -100
arfcn: 675 rxLev: -100
arfcn: 119 rxLev: -100
arfcn: 113 rxLev: -100
arfcn: 680 rxLev: -100
arfcn: 681 rxLev: -100
$GPGGA,090212.000,4806.8755,N,00139.4354,W,1,06,1.1,-32.8,M,48.3,M,,0000*53
arfcn: 683 rxLev: -100
$GPGSA,M,3,09,06,23,30,05,16,,,,,,,2.1,1.1,1.8*3B
arfcn: 688 rxLev: -100
arfcn: 691 rxLev: -100
$GPRMC,090212.000,A,4806.8755,N,00139.4354,W,1.40,204.90,060218,,,A*7B
arfcn: 701 rxLev: -100
arfcn: 698 rxLev: -100
arfcn: 705 rxLev: -100
arfcn: 697 rxLev: -101
arfcn: 690 rxLev: -101
arfcn: 686 rxLev: -101
arfcn: 679 rxLev: -101
$GPGGA,090213.000,4806.8753,N,00139.4354,W,1,05,1.2,-32.8,M,48.3,M,,0000*54
arfcn: 671 rxLev: -101
$GPGSA,M,3,09,23,30,05,16,,,,,,,,2.0,1.2,1.6*31
arfcn: 667 rxLev: -101
arfcn: 658 rxLev: -101
$GPRMC,090213.000,A,4806.8753,N,00139.4354,W,1.15,204.90,060218,,,A*7C
arfcn: 659 rxLev: -101
arfcn: 648 rxLev: -101
arfcn: 624 rxLev: -101
arfcn: 626 rxLev: -101
arfcn: 629 rxLev: -101
arfcn: 634 rxLev: -101
arfcn: 632 rxLev: -101
arfcn: 631 rxLev: -101
arfcn: 640 rxLev: -101
$GPGGA,090214.000,4806.8751,N,00139.4354,W,1,05,1.2,-32.9,M,48.3,M,,0000*50
arfcn: 988 rxLev: -101
$GPGSA,M,3,09,23,30,05,16,,,,,,,,2.0,1.2,1.6*31
arfcn: 642 rxLev: -101
arfcn: 637 rxLev: -101
$GPGSV,3,1,12,09,67,058,17,23,30,064,30,30,30,174,16,05,22,295,11*76
arfcn: 623 rxLev: -101
$GPGSV,3,2,12,16,09,052,20,06,53,213,12,26,04,024,12,43,00,000,*71
$GPGSV,3,3,12,07,49,149,,02,48,281,,04,30,307,,29,07,333,*75
$GPRMC,090214.000,A,4806.8751,N,00139.4354,W,0.98,204.90,060218,,,A*7D
$GPGGA,090215.000,4806.8748,N,00139.4348,W,1,05,1.2,-33.0,M,48.3,M,,0000*5C
$GPGSA,M,3,09,23,30,05,16,,,,,,,,2.0,1.2,1.6*31
$GPRMC,090215.000,A,4806.8748,N,00139.4348,W,0.76,204.90,060218,,,A*79
arfcn: 610 bsic: 1 rxLev: -101 ber: 8.03 mcc: FFF mnc: FF lac: 65535 cellId: 0 cellStatus: CELL_OTHER numArfcn: 0 arfcn: numChannels: 0 array:
arfcn: 617 rxLev: -101
$GPGGA,090216.000,4806.8740,N,00139.4331,W,1,05,1.2,-33.0,M,48.3,M,,0000*59
arfcn: 621 rxLev: -101
arfcn: 646 rxLev: -101
$GPGSA,M,3,09,23,30,05,16,,,,,,,,2.0,1.2,1.6*31
arfcn: 650 rxLev: -101
arfcn: 656 rxLev: -101
$GPRMC,090216.000,A,4806.8740,N,00139.4331,W,1.41,195.30,060218,,,A*78
arfcn: 670 rxLev: -101
arfcn: 672 rxLev: -101
arfcn: 0 rxLev: -101
arfcn: 684 rxLev: -101
arfcn: 668 rxLev: -102
arfcn: 647 rxLev: -102
$GPGGA,090217.000,4806.8740,N,00139.4330,W,1,04,5.3,-33.0,M,48.3,M,,0000*5D
arfcn: 618 rxLev: -102
$GPGSA,M,3,09,23,30,16,,,,,,,,,5.7,5.3,2.1*35
arfcn: 619 rxLev: -102
arfcn: 627 rxLev: -102
$GPRMC,090217.000,A,4806.8740,N,00139.4330,W,1.33,188.66,060218,,,A*72
arfcn: 643 rxLev: -102
arfcn: 644 rxLev: -102
arfcn: 641 rxLev: -102
arfcn: 630 rxLev: -102
arfcn: 625 rxLev: -102
arfcn: 628 rxLev: -103
arfcn: 620 rxLev: -103
arfcn: 649 rxLev: -103
$GPGGA,090218.000,4806.8749,N,00139.4338,W,1,04,5.3,-33.1,M,48.3,M,,0000*52
arfcn: 651 rxLev: -103
$GPGSA,M,3,09,23,30,16,,,,,,,,,5.7,5.3,2.1*35
arfcn: 657 rxLev: -103
arfcn: 654 rxLev: -103
$GPRMC,090218.000,A,4806.8749,N,00139.4338,W,0.64,188.66,060218,,,A*7F
arfcn: 655 rxLev: -103
arfcn: 19 rxLev: -103
arfcn: 21 rxLev: -103
arfcn: 88 rxLev: -103
arfcn: 645 rxLev: -103
arfcn: 652 rxLev: -104
arfcn: 653 rxLev: -104
$GPGGA,090219.000,4806.8755,N,00139.4344,W,1,04,5.3,-33.1,M,48.3,M,,0000*55
arfcn: 1010 rxLev: -104
$GPGSA,M,3,09,23,30,16,,,,,,,,,5.7,5.3,2.1*35
arfcn: 603 rxLev: -104
arfcn: 22 rxLev: -104
$GPGSV,3,1,12,09,67,058,18,23,30,064,30,30,30,174,15,16,09,052,20*7A
arfcn: 50 rxLev: -104
arfcn: 17 rxLev: -104
$GPGSV,3,2,12,05,22,295,04,06,53,213,10,26,04,024,13,45,00,000,*70
arfcn: 790 rxLev: -104
$GPGSV,3,3,12,07,49,149,,02,48,281,,04,30,307,,29,07,333,*75
arfcn: 18 rxLev: -105
arfcn: 547 rxLev: -105
$GPRMC,090219.000,A,4806.8755,N,00139.4344,W,0.28,188.66,060218,,,A*70
arfcn: 1022 rxLev: -105
arfcn: 607 rxLev: -105
arfcn: 23 rxLev: -105
$GPGGA,090220.000,4806.8756,N,00139.4345,W,1,04,5.3,-33.1,M,48.3,M,,0000*5D
arfcn: 112 rxLev: -106
$GPGSA,M,3,09,23,30,16,,,,,,,,,5.7,5.3,2.1*35
arfcn: 518 rxLev: -106
arfcn: 545 rxLev: -106
$GPRMC,090220.000,A,4806.8756,N,00139.4345,W,0.28,188.66,060218,,,A*78
arfcn: 87 rxLev: -106
arfcn: 786 rxLev: -106
arfcn: 549 rxLev: -107
arfcn: 571 rxLev: -108
arfcn: 601 rxLev: -108
arfcn: 546 rxLev: -108
Network survey ended
Survey end at #CCLK: "18/02/06,10:02:21+04"
Survey duration: 149 seconds, 41 bases detected over 447 freqs scanned.
$GPGGA,090221.000,4806.8760,N,00139.4352,W,1,04,5.3,-33.1,M,48.3,M,,0000*5F
$GPGSA,M,3,09,23,30,16,,,,,,,,,5.7,5.3,2.1*35
$GPRMC,090221.000,A,4806.8760,N,00139.4352,W,0.38,188.66,060218,,,A*7B
$GPGGA,090222.000,4806.8763,N,00139.4363,W,1,04,5.3,-33.1,M,48.3,M,,0000*5D
$GPGSA,M,3,09,23,30,16,,,,,,,,,5.7,5.3,2.1*35
$GPRMC,090222.000,A,4806.8763,N,00139.4363,W,0.75,188.66,060218,,,A*70
$GPGGA,090223.000,4806.8764,N,00139.4362,W,1,04,5.3,-33.2,M,48.3,M,,0000*59
$GPGSA,M,3,09,23,30,16,,,,,,,,,5.7,5.3,2.1*35
$GPRMC,090223.000,A,4806.8764,N,00139.4362,W,0.40,188.66,060218,,,A*71
Survey start at #CCLK: "18/02/06,10:02:24+04"
$GPGGA,090224.000,4806.8766,N,00139.4375,W,1,04,5.3,-33.3,M,48.3,M,,0000*5B
at#csurv
Network survey started ...
$GPGSA,M,3,09,23,30,16,,,,,,,,,5.7,5.3,2.1*35
$GPGSV,3,1,12,09,67,058,18,23,30,064,30,30,30,174,15,16,09,052,20*7A
