$GPGGA,101939.000,4806.9021,N,00139.4120,W,1,05,1.6,48.1,M,48.3,M,,0000*71
$GPGSA,M,3,05,02,09,13,16,,,,,,,,2.4,1.6,1.8*3D
$GPRMC,101939.000,A,4806.9021,N,00139.4120,W,1.51,357.52,060218,,,A*7D
Survey start at #CCLK: "18/02/06,11:19:38+04"
at#csurv
Network survey started ...
Survey end at #CCLK: "18/02/06,11:19:39+04"
Survey duration: 0 seconds, 0 bases detected over 0 freqs scanned.
$GPGGA,101940.000,4806.9024,N,00139.4120,W,1,05,1.6,48.2,M,48.3,M,,0000*79
$GPGSA,M,3,05,02,09,13,16,,,,,,,,2.4,1.6,1.8*3D
$GPRMC,101940.000,A,4806.9024,N,00139.4120,W,1.40,353.65,060218,,,A*76
$GPGGA,101941.000,4806.9028,N,00139.4118,W,1,05,1.6,48.0,M,48.3,M,,0000*7D
$GPGSA,M,3,05,02,09,13,16,,,,,,,,2.4,1.6,1.8*3D
$GPRMC,101941.000,A,4806.9028,N,00139.4118,W,1.51,352.43,060218,,,A*75
Survey start at #CCLK: "18/02/06,11:19:40+04"
at#csurv
Network survey started ...
$GPGGA,101942.000,4806.9030,N,00139.4119,W,1,05,1.6,47.7,M,48.3,M,,0000*7E
$GPGSA,M,3,05,02,09,13,16,,,,,,,,2.4,1.6,1.8*3D
$GPRMC,101942.000,A,4806.9030,N,00139.4119,W,1.44,349.79,060218,,,A*79
$GPGGA,101943.000,4806.9036,N,00139.4117,W,1,05,1.6,48.1,M,48.3,M,,0000*7E
$GPGSA,M,3,05,02,09,13,16,,,,,,,,2.4,1.6,1.8*3D
$GPGSV,3,1,12,05,54,299,17,02,36,233,15,09,34,075,25,13,20,259,17*7A
$GPGSV,3,2,12,16,05,021,18,28,03,146,11,33,33,198,,30,65,153,*7E
$GPGSV,3,3,12,07,63,083,,04,41,267,,06,18,194,,29,03,303,*7A
$GPRMC,101943.000,A,4806.9036,N,00139.4117,W,1.75,348.71,060218,,,A*7B
$GPGGA,101944.000,4806.9042,N,00139.4117,W,1,05,1.6,48.4,M,48.3,M,,0000*7F
$GPGSA,M,3,05,02,09,13,16,,,,,,,,2.4,1.6,1.8*3D
$GPRMC,101944.000,A,4806.9042,N,00139.4117,W,2.06,347.97,060218,,,A*7F
$GPGGA,101945.000,4806.9044,N,00139.4116,W,1,05,1.6,48.2,M,48.3,M,,0000*7F
$GPGSA,M,3,05,02,09,13,16,,,,,,,,2.4,1.6,1.8*3D
$GPRMC,101945.000,A,4806.9044,N,00139.4116,W,1.58,347.31,060218,,,A*7D
$GPGGA,101946.000,4806.9046,N,00139.4119,W,1,05,1.6,47.9,M,48.3,M,,0000*75
$GPGSA,M,3,05,02,09,13,16,,,,,,,,2.4,1.6,1.8*3D
$GPRMC,101946.000,A,4806.9046,N,00139.4119,W,1.56,344.22,060218,,,A*7C
$GPGGA,101947.000,4806.9048,N,00139.4118,W,1,05,1.6,47.9,M,48.3,M,,0000*7B
$GPGSA,M,3,05,02,09,13,16,,,,,,,,2.4,1.6,1.8*3D
$GPRMC,101947.000,A,4806.9048,N,00139.4118,W,1.24,344.45,060218,,,A*76
$GPGGA,101948.000,4806.9044,N,00139.4114,W,1,05,1.6,48.0,M,48.3,M,,0000*72
$GPGSA,M,3,05,02,09,13,16,,,,,,,,2.4,1.6,1.8*3D
$GPGSV,3,1,12,05,54,299,17,02,36,233,16,09,34,075,25,13,20,259,17*79
$GPGSV,3,2,12,16,05,021,18,28,03,146,10,33,33,198,,30,65,153,*7F
$GPGSV,3,3,12,07,63,083,,04,41,267,,06,18,194,,29,03,303,*7A
$GPRMC,101948.000,A,4806.9044,N,00139.4114,W,0.47,344.45,060218,,,A*7D
$GPGGA,101949.000,4806.9043,N,00139.4112,W,1,05,1.6,47.5,M,48.3,M,,0000*78
$GPGSA,M,3,05,02,09,13,16,,,,,,,,2.4,1.6,1.8*3D
$GPRMC,101949.000,A,4806.9043,N,00139.4112,W,0.64,344.45,060218,,,A*7C
$GPGGA,101950.000,4806.9044,N,00139.4112,W,1,05,1.6,47.5,M,48.3,M,,0000*77
$GPGSA,M,3,05,02,09,13,16,,,,,,,,2.4,1.6,1.8*3D
$GPRMC,101950.000,A,4806.9044,N,00139.4112,W,0.47,344.45,060218,,,A*72
$GPGGA,101951.000,4806.9046,N,00139.4112,W,1,05,1.6,47.5,M,48.3,M,,0000*74
$GPGSA,M,3,05,02,09,13,16,,,,,,,,2.4,1.6,1.8*3D
$GPRMC,101951.000,A,4806.9046,N,00139.4112,W,0.61,344.45,060218,,,A*75
$GPGGA,101952.000,4806.9044,N,00139.4108,W,1,05,1.6,47.4,M,48.3,M,,0000*7F
$GPGSA,M,3,05,02,09,13,16,,,,,,,,2.4,1.6,1.8*3D
$GPRMC,101952.000,A,4806.9044,N,00139.4108,W,0.64,344.45,060218,,,A*7A
$GPGGA,101953.000,4806.9044,N,00139.4102,W,1,05,1.6,47.4,M,48.3,M,,0000*74
$GPGSA,M,3,05,02,09,13,16,,,,,,,,2.4,1.6,1.8*3D
$GPGSV,3,1,12,05,54,299,15,02,36,233,16,09,34,075,25,13,20,259,17*7B
$GPGSV,3,2,12,16,05,021,17,28,03,146,11,37,27,150,,30,65,153,*74
$GPGSV,3,3,12,07,63,083,,04,41,267,,06,18,194,,29,03,303,*7A
$GPRMC,101953.000,A,4806.9044,N,00139.4102,W,1.01,344.45,060218,,,A*73
$GPGGA,101954.000,4806.9046,N,00139.4098,W,1,05,1.6,47.4,M,48.3,M,,0000*73
$GPGSA,M,3,05,02,09,13,16,,,,,,,,2.4,1.6,1.8*3D
$GPRMC,101954.000,A,4806.9046,N,00139.4098,W,1.19,354.35,060218,,,A*7B
$GPGGA,101955.000,4806.9048,N,00139.4098,W,1,05,1.6,47.3,M,48.3,M,,0000*7B
$GPGSA,M,3,05,02,09,13,16,,,,,,,,2.4,1.6,1.8*3D
$GPRMC,101955.000,A,4806.9048,N,00139.4098,W,0.79,354.35,060218,,,A*73
$GPGGA,101956.000,4806.9050,N,00139.4098,W,1,05,1.6,47.3,M,48.3,M,,0000*71
$GPGSA,M,3,05,02,09,13,16,,,,,,,,2.4,1.6,1.8*3D
$GPRMC,101956.000,A,4806.9050,N,00139.4098,W,0.77,354.35,060218,,,A*77
$GPGGA,101957.000,4806.9050,N,00139.4101,W,1,05,1.6,47.4,M,48.3,M,,0000*76
$GPGSA,M,3,05,02,09,13,16,,,,,,,,2.4,1.6,1.8*3D
$GPRMC,101957.000,A,4806.9050,N,00139.4101,W,0.90,354.35,060218,,,A*7E
$GPGGA,101958.000,4806.9052,N,00139.4105,W,1,05,1.6,47.3,M,48.3,M,,0000*78
$GPGSA,M,3,05,02,09,13,16,,,,,,,,2.4,1.6,1.8*3D
$GPGSV,3,1,12,05,54,299,15,02,36,233,16,09,34,075,25,13,20,259,17*7B
$GPGSV,3,2,12,16,05,021,17,07,63,083,10,28,03,146,11,37,27,150,*7B
$GPGSV,3,3,12,30,65,153,,04,41,267,,06,18,194,,29,03,303,*74
$GPRMC,101958.000,A,4806.9052,N,00139.4105,W,1.23,345.93,060218,,,A*72
$GPGGA,101959.000,4806.9053,N,00139.4107,W,1,05,1.6,47.4,M,48.3,M,,0000*7D
$GPGSA,M,3,05,02,09,13,16,,,,,,,,2.4,1.6,1.8*3D
$GPRMC,101959.000,A,4806.9053,N,00139.4107,W,0.85,345.93,060218,,,A*7D
$GPGGA,102000.000,4806.9053,N,00139.4111,W,1,06,1.6,47.4,M,48.3,M,,0000*7F
$GPGSA,M,3,07,05,02,09,13,16,,,,,,,2.4,1.6,1.8*3A
$GPRMC,102000.000,A,4806.9053,N,00139.4111,W,1.06,345.93,060218,,,A*76
$GPGGA,102001.000,4806.9052,N,00139.4113,W,1,06,1.6,47.4,M,48.3,M,,0000*7D
$GPGSA,M,3,07,05,02,09,13,16,,,,,,,2.4,1.6,1.8*3A
$GPRMC,102001.000,A,4806.9052,N,00139.4113,W,0.76,345.93,060218,,,A*72
$GPGGA,102002.000,4806.9051,N,00139.4114,W,1,05,2.4,47.4,M,48.3,M,,0000*78
$GPGSA,M,3,07,02,09,13,16,,,,,,,,3.4,2.4,2.5*31
$GPRMC,102002.000,A,4806.9051,N,00139.4114,W,0.65,345.93,060218,,,A*77
arfcn: 981 bsic: 46 rxLev: -45 ber: 0.00 mcc: 208 mnc: 20 lac: 418 cellId: 21807 cellStatus: CELL_SUITABLE numArfcn: 1 arfcn: 981 numChannels: 9 array: 979 982 983 985 1012 1014 1017 1019 1020 pbcch: 0 nom: 2 rac: 6 spgc: 0 pat: 6 nco: 0 t3168: 1500 t3192: 500 drxmax: 0 ctrlAck: 0 bsCVmax: 8 alpha: 6 pcMeasCh: 1 
arfcn: 985 bsic: 44 rxLev: -49 ber: 0.00 mcc: 208 mnc: 20 lac: 418 cellId: 21808 cellStatus: CELL_SUITABLE numArfcn: 1 arfcn: 985 numChannels: 25 array: 975 977 978 979 980 981 982 983 1011 1012 1014 1015 1017 1019 1020 1021 1022 787 788 790 793 795 796 879 884 pbcch: 0 nom: 2 rac: 6 spgc: 0 pat: 6 nco: 0 t3168: 1500 t3192: 500 drxmax: 0 ctrlAck: 0 bsCVmax: 8 alpha: 6 pcMeasCh: 1 
arfcn: 995 rxLev: -61
arfcn: 1003 rxLev: -61
arfcn: 991 rxLev: -61
arfcn: 990 rxLev: -62
arfcn: 992 rxLev: -62
$GPGGA,102003.000,4806.9053,N,00139.4113,W,1,05,2.4,47.4,M,48.3,M,,0000*7C
arfcn: 993 rxLev: -62
$GPGSA,M,3,07,02,09,13,16,,,,,,,,3.4,2.4,2.5*31
arfcn: 1002 rxLev: -62
arfcn: 994 rxLev: -62
$GPGSV,3,1,12,07,63,083,15,02,36,233,17,09,34,075,25,13,20,259,16*74
arfcn: 997 rxLev: -62
arfcn: 1000 rxLev: -62
$GPGSV,3,2,12,16,05,021,17,05,54,299,07,28,03,146,11,37,27,150,*72
arfcn: 998 rxLev: -62
arfcn: 999 rxLev: -62
$GPGSV,3,3,12,30,65,153,,04,41,267,,06,18,194,,29,03,303,*74
arfcn: 996 rxLev: -62
$GPRMC,102003.000,A,4806.9053,N,00139.4113,W,0.87,345.93,060218,,,A*7F
arfcn: 1005 rxLev: -62
arfcn: 982 rxLev: -62
arfcn: 1004 rxLev: -63
$GPGGA,102004.000,4806.9053,N,00139.4114,W,1,05,2.4,47.4,M,48.3,M,,0000*7C
arfcn: 1007 rxLev: -63
arfcn: 1001 rxLev: -63
$GPGSA,M,3,07,02,09,13,16,,,,,,,,3.4,2.4,2.5*31
arfcn: 1006 rxLev: -63
$GPRMC,102004.000,A,4806.9053,N,00139.4114,W,0.88,345.93,060218,,,A*70
arfcn: 980 rxLev: -63
arfcn: 1008 rxLev: -64
$GPGGA,102005.000,4806.9053,N,00139.4117,W,1,05,2.4,47.4,M,48.3,M,,0000*7E
$GPGSA,M,3,07,02,09,13,16,,,,,,,,3.4,2.4,2.5*31
$GPRMC,102005.000,A,4806.9053,N,00139.4117,W,1.01,345.93,060218,,,A*72
$GPGGA,102006.000,4806.9051,N,00139.4118,W,1,05,2.4,47.4,M,48.3,M,,0000*70
$GPGSA,M,3,07,02,09,13,16,,,,,,,,3.4,2.4,2.5*31
$GPRMC,102006.000,A,4806.9051,N,00139.4118,W,0.61,345.93,060218,,,A*7B
$GPGGA,102007.000,4806.9048,N,00139.4116,W,1,05,2.4,47.4,M,48.3,M,,0000*77
$GPGSA,M,3,07,02,09,13,16,,,,,,,,3.4,2.4,2.5*31
$GPRMC,102007.000,A,4806.9048,N,00139.4116,W,0.51,345.93,060218,,,A*7F
$GPGGA,102008.000,4806.9043,N,00139.4116,W,1,05,2.4,47.3,M,48.3,M,,0000*74
arfcn: 12 bsic: 0 rxLev: -65 ber: 0.00 mcc: 208 mnc: 01 lac: 10300 cellId: 6467 cellStatus: CELL_FORBIDDEN numArfcn: 13 arfcn: 12 17 18 19 20 21 22 23 24 25 47 48 49 numChannels: 15 array: 1 2 3 8 9 10 14 512 513 514 515 518 605 606 608 pbcch: 0 nom: 2 rac: 1 spgc: 0 pat: 6 nco: 0 t3168: 1000 t3192: 500 drxmax: 2 ctrlAck: 0 bsCVmax: 9 alpha: 5 pcMeasCh: 1 
arfcn: 986 rxLev: -66
$GPGSA,M,3,07,02,09,13,16,,,,,,,,3.4,2.4,2.5*31
arfcn: 984 rxLev: -67
arfcn: 989 rxLev: -71
$GPGSV,3,1,12,07,63,083,15,02,36,233,17,09,34,075,25,13,20,259,16*74
$GPGSV,3,2,12,16,05,021,18,05,54,299,06,06,18,194,10,28,03,146,11*7B
arfcn: 1009 rxLev: -72
$GPGSV,3,3,12,37,27,150,,30,65,153,,04,41,267,,29,03,303,*72
$GPRMC,102008.000,A,4806.9043,N,00139.4116,W,0.28,345.93,060218,,,A*75
$GPGGA,102009.000,4806.9038,N,00139.4115,W,1,05,2.4,47.3,M,48.3,M,,0000*7A
$GPGSA,M,3,07,02,09,13,16,,,,,,,,3.4,2.4,2.5*31
$GPRMC,102009.000,A,4806.9038,N,00139.4115,W,0.31,345.93,060218,,,A*73
$GPGGA,102010.000,4806.9034,N,00139.4120,W,1,06,1.3,47.4,M,48.3,M,,0000*78
$GPGSA,M,3,07,02,09,13,06,16,,,,,,,2.3,1.3,1.8*3B
$GPRMC,102010.000,A,4806.9034,N,00139.4120,W,0.51,345.93,060218,,,A*77
$GPGGA,102011.000,4806.9028,N,00139.4119,W,1,07,1.1,47.4,M,48.3,M,,0000*7D
$GPGSA,M,3,07,05,02,09,13,06,16,,,,,,1.8,1.1,1.5*39
$GPRMC,102011.000,A,4806.9028,N,00139.4119,W,0.66,345.93,060218,,,A*75
$GPGGA,102012.000,4806.9025,N,00139.4121,W,1,07,1.1,47.4,M,48.3,M,,0000*78
$GPGSA,M,3,07,05,02,09,13,06,16,,,,,,1.8,1.1,1.5*39
$GPRMC,102012.000,A,4806.9025,N,00139.4121,W,1.06,345.93,060218,,,A*77
arfcn: 983 bsic: 21 rxLev: -75 ber: 0.00 mcc: 208 mnc: 20 lac: 418 cellId: 21809 cellStatus: CELL_SUITABLE numArfcn: 1 arfcn: 983 numChannels: 24 array: 788 790 792 793 795 796 878 882 884 976 977 979 981 985 986 987 1012 1013 1014 1016 1017 1019 1020 1022 pbcch: 0 nom: 2 rac: 6 spgc: 0 pat: 6 nco: 0 t3168: 1500 t3192: 500 drxmax: 0 ctrlAck: 0 bsCVmax: 8 alpha: 6 pcMeasCh: 1 
arfcn: 813 rxLev: -78
$GPGGA,102013.000,4806.9019,N,00139.4124,W,1,07,1.1,47.4,M,48.3,M,,0000*73
$GPGSA,M,3,07,05,02,09,13,06,16,,,,,,1.8,1.1,1.5*39
$GPGSV,3,1,12,07,63,083,14,05,54,299,13,02,36,233,18,09,34,075,25*77
$GPGSV,3,2,12,13,20,259,16,06,18,194,12,16,05,021,18,28,03,146,11*70
$GPGSV,3,3,12,37,27,150,,30,65,153,,04,41,267,,29,03,303,*72
$GPRMC,102013.000,A,4806.9019,N,00139.4124,W,0.76,345.93,060218,,,A*7A
$GPGGA,102014.000,4806.9013,N,00139.4127,W,1,07,1.1,47.4,M,48.3,M,,0000*7D
$GPGSA,M,3,07,05,02,09,13,06,16,,,,,,1.8,1.1,1.5*39
$GPRMC,102014.000,A,4806.9013,N,00139.4127,W,0.61,345.93,060218,,,A*72
arfcn: 80 bsic: 47 rxLev: -78 ber: 0.00 mcc: 208 mnc: 10 lac: 49415 cellId: 23568 cellStatus: CELL_FORBIDDEN numArfcn: 2 arfcn: 80 89 numChannels: 19 array: 76 77 78 80 82 83 84 85 113 114 115 116 117 118 119 120 122 123 124 pbcch: 0 nom: 2 rac: 31 spgc: 0 pat: 6 nco: 0 t3168: 1000 t3192: 500 drxmax: 4 ctrlAck: 1 bsCVmax: 9 alpha: 10 pcMeasCh: 0 
$GPGGA,102015.000,4806.9008,N,00139.4129,W,1,07,1.1,47.4,M,48.3,M,,0000*78
$GPGSA,M,3,07,05,02,09,13,06,16,,,,,,1.8,1.1,1.5*39
$GPRMC,102015.000,A,4806.9008,N,00139.4129,W,0.73,345.93,060218,,,A*74
$GPGGA,102016.000,4806.9003,N,00139.4128,W,1,07,1.1,47.4,M,48.3,M,,0000*71
$GPGSA,M,3,07,05,02,09,13,06,16,,,,,,1.8,1.1,1.5*39
$GPRMC,102016.000,A,4806.9003,N,00139.4128,W,0.74,345.93,060218,,,A*7A
arfcn: 10 bsic: 1 rxLev: -79 ber: 3.07 mcc: 208 mnc: 01 lac: 10300 cellId: 39884 cellStatus: CELL_FORBIDDEN numArfcn: 13 arfcn: 10 17 18 19 20 21 22 23 24 25 47 48 49 numChannels: 16 array: 5 6 7 11 15 16 512 514 516 517 518 604 605 608 609 610 pbcch: 0 nom: 2 rac: 1 spgc: 0 pat: 6 nco: 0 t3168: 1000 t3192: 500 drxmax: 2 ctrlAck: 0 bsCVmax: 9 alpha: 5 pcMeasCh: 1 
$GPGGA,102017.000,4806.8995,N,00139.4128,W,1,07,1.1,47.5,M,48.3,M,,0000*76
$GPGSA,M,3,07,05,02,09,13,06,16,,,,,,1.8,1.1,1.5*39
$GPRMC,102017.000,A,4806.8995,N,00139.4128,W,0.48,345.93,060218,,,A*73
$GPGGA,102018.000,4806.8988,N,00139.4128,W,1,07,1.1,47.5,M,48.3,M,,0000*75
$GPGSA,M,3,07,05,02,09,13,06,16,,,,,,1.8,1.1,1.5*39
$GPGSV,3,1,12,07,63,083,13,05,54,299,13,02,36,233,17,09,34,075,24*7E
$GPGSV,3,2,12,13,20,259,15,06,18,194,10,16,05,021,18,28,03,146,11*71
$GPGSV,3,3,12,37,27,150,,30,65,153,,04,41,267,,29,03,303,*72
$GPRMC,102018.000,A,4806.8988,N,00139.4128,W,0.62,345.93,060218,,,A*78
arfcn: 3 bsic: 0 rxLev: -79 ber: 0.00 mcc: 208 mnc: 01 lac: 10300 cellId: 2686 cellStatus: CELL_FORBIDDEN numArfcn: 13 arfcn: 3 17 18 19 20 21 22 23 24 25 47 48 49 numChannels: 13 array: 1 5 6 7 10 12 14 512 515 517 604 606 608 pbcch: 0 nom: 2 rac: 1 spgc: 0 pat: 6 nco: 0 t3168: 1000 t3192: 500 drxmax: 2 ctrlAck: 0 bsCVmax: 9 alpha: 5 pcMeasCh: 1 
arfcn: 41 rxLev: -79
arfcn: 43 rxLev: -79
$GPGGA,102019.000,4806.8985,N,00139.4132,W,1,07,1.1,47.5,M,48.3,M,,0000*72
arfcn: 793 rxLev: -79
arfcn: 807 rxLev: -80
$GPGSA,M,3,07,05,02,09,13,06,16,,,,,,1.8,1.1,1.5*39
arfcn: 42 rxLev: -80
arfcn: 40 rxLev: -80
$GPRMC,102019.000,A,4806.8985,N,00139.4132,W,0.37,345.93,060218,,,A*7F
arfcn: 44 rxLev: -80
arfcn: 37 rxLev: -80
arfcn: 38 rxLev: -80
arfcn: 809 rxLev: -80
arfcn: 810 rxLev: -80
arfcn: 811 rxLev: -80
arfcn: 812 rxLev: -80
arfcn: 814 rxLev: -80
$GPGGA,102020.000,4806.8977,N,00139.4134,W,1,07,1.1,47.6,M,48.3,M,,0000*70
arfcn: 815 rxLev: -80
$GPGSA,M,3,07,05,02,09,13,06,16,,,,,,1.8,1.1,1.5*39
arfcn: 794 rxLev: -80
arfcn: 802 rxLev: -80
$GPRMC,102020.000,A,4806.8977,N,00139.4134,W,0.14,345.93,060218,,,A*7F
arfcn: 796 rxLev: -81
arfcn: 792 rxLev: -81
arfcn: 808 rxLev: -81
arfcn: 806 rxLev: -81
arfcn: 837 rxLev: -81
arfcn: 39 rxLev: -81
$GPGGA,102021.000,4806.8974,N,00139.4131,W,1,06,1.1,47.5,M,48.3,M,,0000*75
$GPGSA,M,3,05,02,09,13,06,16,,,,,,,2.1,1.1,1.8*39
$GPRMC,102021.000,A,4806.8974,N,00139.4131,W,0.54,345.93,060218,,,A*7C
$GPGGA,102022.000,4806.8972,N,00139.4130,W,1,06,1.1,47.3,M,48.3,M,,0000*77
$GPGSA,M,3,05,02,09,13,06,16,,,,,,,2.1,1.1,1.8*39
$GPRMC,102022.000,A,4806.8972,N,00139.4130,W,0.50,345.93,060218,,,A*7C
$GPGGA,102023.000,4806.8970,N,00139.4127,W,1,06,1.1,47.3,M,48.3,M,,0000*72
$GPGSA,M,3,05,02,09,13,06,16,,,,,,,2.1,1.1,1.8*39
$GPGSV,3,1,12,05,54,299,13,02,36,233,17,09,34,075,24,13,20,259,15*7F
$GPGSV,3,2,12,06,18,194,11,16,05,021,17,07,63,083,04,28,03,146,10*79
$GPGSV,3,3,12,39,31,144,,30,65,153,,04,41,267,,29,03,303,*7E
$GPRMC,102023.000,A,4806.8970,N,00139.4127,W,0.68,345.93,060218,,,A*72
arfcn: 14 bsic: 35 rxLev: -81 ber: 0.00 mcc: 208 mnc: 01 lac: 10300 cellId: 39250 cellStatus: CELL_FORBIDDEN numArfcn: 13 arfcn: 14 17 18 19 20 21 22 23 24 25 47 48 49 numChannels: 14 array: 1 3 4 6 8 10 12 14 512 513 514 517 604 608 pbcch: 0 nom: 2 rac: 1 spgc: 1 pat: 6 nco: 0 t3168: 1000 t3192: 500 drxmax: 4 ctrlAck: 1 bsCVmax: 9 alpha: 7 pcMeasCh: 0 
arfcn: 28 rxLev: -81
arfcn: 29 rxLev: -81
$GPGGA,102024.000,4806.8970,N,00139.4125,W,1,06,1.1,47.2,M,48.3,M,,0000*76
$GPGSA,M,3,05,02,09,13,06,16,,,,,,,2.1,1.1,1.8*39
$GPRMC,102024.000,A,4806.8970,N,00139.4125,W,0.85,345.93,060218,,,A*74
$GPGGA,102025.000,4806.8970,N,00139.4124,W,1,06,1.1,47.1,M,48.3,M,,0000*75
$GPGSA,M,3,05,02,09,13,06,16,,,,,,,2.1,1.1,1.8*39
$GPRMC,102025.000,A,4806.8970,N,00139.4124,W,1.15,345.93,060218,,,A*7C
arfcn: 85 bsic: 0 rxLev: -81 ber: 0.00 mcc: 208 mnc: 10 lac: 49415 cellId: 44814 cellStatus: CELL_FORBIDDEN numArfcn: 2 arfcn: 85 119 numChannels: 20 array: 76 77 78 79 80 82 83 85 86 114 115 116 117 118 119 120 121 122 123 124 pbcch: 0 nom: 2 rac: 31 spgc: 0 pat: 6 nco: 0 t3168: 1000 t3192: 500 drxmax: 4 ctrlAck: 1 bsCVmax: 9 alpha: 10 pcMeasCh: 0 
arfcn: 30 rxLev: -81
arfcn: 36 rxLev: -81
arfcn: 33 rxLev: -81
$GPGGA,102026.000,4806.8970,N,00139.4122,W,1,06,1.1,47.1,M,48.3,M,,0000*70
$GPGSA,M,3,05,02,09,13,06,16,,,,,,,2.1,1.1,1.8*39
$GPRMC,102026.000,A,4806.8970,N,00139.4122,W,0.94,345.93,060218,,,A*71
$GPGGA,102027.000,4806.8969,N,00139.4122,W,1,06,1.1,47.1,M,48.3,M,,0000*79
$GPGSA,M,3,05,02,09,13,06,16,,,,,,,2.1,1.1,1.8*39
$GPRMC,102027.000,A,4806.8969,N,00139.4122,W,0.87,345.93,060218,,,A*7A
arfcn: 605 bsic: 33 rxLev: -81 ber: 0.00 mcc: 208 mnc: 01 lac: 10300 cellId: 27588 cellStatus: CELL_FORBIDDEN numArfcn: 22 arfcn: 525 526 527 528 529 530 531 532 533 534 535 587 588 589 590 591 592 593 594 595 596 597 numChannels: 18 array: 1 3 5 8 12 15 512 513 514 515 516 517 518 604 605 606 607 609 pbcch: 0 nom: 2 rac: 1 spgc: 0 pat: 6 nco: 0 t3168: 1000 t3192: 500 drxmax: 2 ctrlAck: 0 bsCVmax: 9 alpha: 5 pcMeasCh: 1 
arfcn: 860 rxLev: -81
arfcn: 797 rxLev: -81
arfcn: 798 rxLev: -81
arfcn: 799 rxLev: -82
arfcn: 801 rxLev: -82
arfcn: 804 rxLev: -82
$GPGGA,102028.000,4806.8969,N,00139.4124,W,1,05,1.3,47.0,M,48.3,M,,0000*70
arfcn: 805 rxLev: -82
$GPGSA,M,3,05,02,09,06,16,,,,,,,,2.1,1.3,1.7*36
arfcn: 816 rxLev: -82
arfcn: 818 rxLev: -82
$GPGSV,3,1,12,05,54,299,13,02,36,233,16,09,34,075,23,06,18,194,11*70
arfcn: 820 rxLev: -82
arfcn: 857 rxLev: -82
$GPGSV,3,2,12,16,05,021,17,13,20,259,09,28,03,146,10,30,65,153,15*73
arfcn: 867 rxLev: -82
arfcn: 838 rxLev: -82
$GPGSV,3,3,12,39,31,144,,07,63,083,,04,41,267,,29,03,303,*70
arfcn: 843 rxLev: -82
arfcn: 34 rxLev: -82
$GPRMC,102028.000,A,4806.8969,N,00139.4124,W,0.90,345.93,060218,,,A*75
arfcn: 35 rxLev: -82
arfcn: 45 rxLev: -82
arfcn: 13 rxLev: -82
$GPGGA,102029.000,4806.8966,N,00139.4119,W,1,07,1.1,47.0,M,48.3,M,,0000*70
$GPGSA,M,3,30,05,02,09,13,06,16,,,,,,1.8,1.1,1.5*3D
arfcn: 11 rxLev: -82
arfcn: 31 rxLev: -82
$GPRMC,102029.000,A,4806.8966,N,00139.4119,W,0.73,345.93,060218,,,A*78
arfcn: 27 rxLev: -82
arfcn: 850 rxLev: -82
arfcn: 851 rxLev: -82
arfcn: 858 rxLev: -82
arfcn: 803 rxLev: -82
arfcn: 795 rxLev: -82
arfcn: 791 rxLev: -83
$GPGGA,102030.000,4806.8967,N,00139.4116,W,1,07,1.1,47.0,M,48.3,M,,0000*76
arfcn: 819 rxLev: -83
arfcn: 817 rxLev: -83
$GPGSA,M,3,30,05,02,09,13,06,16,,,,,,1.8,1.1,1.5*3D
arfcn: 868 rxLev: -83
$GPRMC,102030.000,A,4806.8967,N,00139.4116,W,1.08,345.93,060218,,,A*73
arfcn: 865 rxLev: -83
arfcn: 866 rxLev: -83
arfcn: 849 rxLev: -83
arfcn: 848 rxLev: -83
arfcn: 821 rxLev: -83
arfcn: 32 rxLev: -83
arfcn: 58 rxLev: -83
arfcn: 828 rxLev: -83
arfcn: 833 rxLev: -83
$GPGGA,102031.000,4806.8970,N,00139.4112,W,1,07,1.1,47.0,M,48.3,M,,0000*75
arfcn: 861 rxLev: -83
$GPGSA,M,3,30,05,02,09,13,06,16,,,,,,1.8,1.1,1.5*3D
$GPRMC,102031.000,A,4806.8970,N,00139.4112,W,1.74,6.29,060218,,,A*7E
arfcn: 853 rxLev: -83
arfcn: 855 rxLev: -83
arfcn: 800 rxLev: -83
arfcn: 856 rxLev: -84
arfcn: 872 rxLev: -84
arfcn: 823 rxLev: -84
arfcn: 845 rxLev: -84
arfcn: 852 rxLev: -84
arfcn: 56 rxLev: -84
$GPGGA,102032.000,4806.8970,N,00139.4110,W,1,07,1.1,47.0,M,48.3,M,,0000*74
arfcn: 57 rxLev: -84
$GPGSA,M,3,30,05,02,09,13,06,16,,,,,,1.8,1.1,1.5*3D
arfcn: 46 rxLev: -84
$GPRMC,102032.000,A,4806.8970,N,00139.4110,W,1.10,6.29,060218,,,A*7D
$GPGGA,102033.000,4806.8972,N,00139.4110,W,1,07,1.1,47.0,M,48.3,M,,0000*77
$GPGSA,M,3,30,05,02,09,13,06,16,,,,,,1.8,1.1,1.5*3D
$GPGSV,3,1,12,30,65,153,16,05,54,299,11,02,36,233,16,09,34,075,20*72
$GPGSV,3,2,12,13,20,259,11,06,18,194,09,16,05,021,17,28,03,146,11*72
$GPGSV,3,3,12,39,31,144,,07,63,083,,04,41,267,,29,03,303,*70
$GPRMC,102033.000,A,4806.8972,N,00139.4110,W,1.37,0.68,060218,,,A*78
$GPGGA,102034.000,4806.8973,N,00139.4109,W,1,07,1.1,47.0,M,48.3,M,,0000*79
$GPGSA,M,3,30,05,02,09,13,06,16,,,,,,1.8,1.1,1.5*3D
$GPRMC,102034.000,A,4806.8973,N,00139.4109,W,1.16,0.68,060218,,,A*75
arfcn: 1020 bsic: 39 rxLev: -84 ber: 0.00 mcc: 208 mnc: 20 lac: 418 cellId: 38980 cellStatus: CELL_SUITABLE numArfcn: 1 arfcn: 1020 numChannels: 26 array: 787 788 790 791 793 795 796 879 884 885 978 979 981 982 983 985 986 987 1011 1012 1013 1014 1015 1017 1019 1022 pbcch: 0 nom: 2 rac: 6 spgc: 0 pat: 6 nco: 0 t3168: 1500 t3192: 500 drxmax: 0 ctrlAck: 0 bsCVmax: 8 alpha: 6 pcMeasCh: 1 
$GPGGA,102035.000,4806.8975,N,00139.4114,W,1,06,1.3,47.0,M,48.3,M,,0000*71
$GPGSA,M,3,30,02,09,13,06,16,,,,,,,2.4,1.3,1.9*39
$GPRMC,102035.000,A,4806.8975,N,00139.4114,W,1.52,351.51,060218,,,A*73
$GPGGA,102036.000,4806.8977,N,00139.4120,W,1,06,1.3,47.0,M,48.3,M,,0000*77
$GPGSA,M,3,30,02,09,13,06,16,,,,,,,2.4,1.3,1.9*39
$GPRMC,102036.000,A,4806.8977,N,00139.4120,W,1.74,340.62,060218,,,A*71
$GPGGA,102037.000,4806.8978,N,00139.4122,W,1,06,1.3,47.0,M,48.3,M,,0000*7B
$GPGSA,M,3,30,02,09,13,06,16,,,,,,,2.4,1.3,1.9*39
$GPRMC,102037.000,A,4806.8978,N,00139.4122,W,1.37,337.25,060218,,,A*79
arfcn: 515 bsic: 34 rxLev: -84 ber: 0.03 mcc: 208 mnc: 01 lac: 10300 cellId: 27586 cellStatus: CELL_FORBIDDEN numArfcn: 16 arfcn: 519 520 521 522 523 524 525 526 596 597 598 599 600 601 602 603 numChannels: 9 array: 1 8 12 512 513 516 605 606 607 pbcch: 0 nom: 2 rac: 1 spgc: 0 pat: 6 nco: 0 t3168: 1000 t3192: 500 drxmax: 2 ctrlAck: 0 bsCVmax: 9 alpha: 5 pcMeasCh: 1 
arfcn: 55 rxLev: -84
$GPGGA,102038.000,4806.8978,N,00139.4121,W,1,05,2.4,47.0,M,48.3,M,,0000*70
$GPGSA,M,3,30,02,09,13,16,,,,,,,,3.8,2.4,2.9*35
$GPGSV,3,1,12,30,65,153,17,02,36,233,16,09,34,075,19,13,20,259,16*76
$GPGSV,3,2,12,16,05,021,17,05,54,299,04,06,18,194,07,28,03,146,10*71
$GPGSV,3,3,12,39,31,144,,07,63,083,,04,41,267,,29,03,303,*70
$GPRMC,102038.000,A,4806.8978,N,00139.4121,W,0.93,337.25,060218,,,A*7A
$GPGGA,102039.000,4806.8977,N,00139.4121,W,1,06,1.5,47.0,M,48.3,M,,0000*7F
$GPGSA,M,3,30,05,02,09,13,16,,,,,,,2.5,1.5,2.0*37
$GPRMC,102039.000,A,4806.8977,N,00139.4121,W,0.53,337.25,060218,,,A*78
$GPGGA,102040.000,4806.8975,N,00139.4118,W,1,06,1.5,47.0,M,48.3,M,,0000*79
arfcn: 1 bsic: 44 rxLev: -84 ber: 1.08 mcc: 208 mnc: 01 lac: 10300 cellId: 6468 cellStatus: CELL_FORBIDDEN numArfcn: 13 arfcn: 1 17 18 19 20 21 22 23 24 25 47 48 49 numChannels: 24 array: 2 4 5 6 7 8 9 10 11 12 15 512 513 514 515 516 517 518 605 606 607 608 609 610 pbcch: 0 nom: 2 rac: 1 spgc: 0 pat: 6 nco: 0 t3168: 1000 t3192: 500 drxmax: 2 ctrlAck: 0 bsCVmax: 9 alpha: 5 pcMeasCh: 1 
$GPGSA,M,3,30,05,02,09,13,16,,,,,,,2.5,1.5,2.0*37
$GPRMC,102040.000,A,4806.8975,N,00139.4118,W,0.20,337.25,060218,,,A*7A
$GPGGA,102041.000,4806.8974,N,00139.4115,W,1,06,1.5,47.0,M,48.3,M,,0000*74
$GPGSA,M,3,30,05,02,09,13,16,,,,,,,2.5,1.5,2.0*37
$GPRMC,102041.000,A,4806.8974,N,00139.4115,W,0.39,337.25,060218,,,A*7F
arfcn: 122 bsic: 3 rxLev: -84 ber: 0.00 mcc: 208 mnc: 10 lac: 49415 cellId: 33517 cellStatus: CELL_FORBIDDEN numArfcn: 3 arfcn: 77 88 122 numChannels: 17 array: 77 78 79 80 82 84 85 86 114 115 117 118 119 120 122 123 124 pbcch: 0 nom: 2 rac: 31 spgc: 0 pat: 6 nco: 0 t3168: 1000 t3192: 500 drxmax: 4 ctrlAck: 1 bsCVmax: 9 alpha: 10 pcMeasCh: 0 
arfcn: 846 rxLev: -84
arfcn: 841 rxLev: -84
arfcn: 824 rxLev: -84
arfcn: 822 rxLev: -84
arfcn: 834 rxLev: -84
arfcn: 835 rxLev: -84
$GPGGA,102042.000,4806.8970,N,00139.4109,W,1,06,1.5,47.0,M,48.3,M,,0000*7E
arfcn: 829 rxLev: -84
$GPGSA,M,3,30,05,02,09,13,16,,,,,,,2.5,1.5,2.0*37
arfcn: 879 rxLev: -84
arfcn: 854 rxLev: -84
$GPRMC,102042.000,A,4806.8970,N,00139.4109,W,0.86,337.25,060218,,,A*71
arfcn: 862 rxLev: -84
arfcn: 863 rxLev: -85
arfcn: 859 rxLev: -85
arfcn: 873 rxLev: -85
arfcn: 874 rxLev: -85
arfcn: 832 rxLev: -85
arfcn: 827 rxLev: -85
arfcn: 825 rxLev: -85
$GPGGA,102043.000,4806.8967,N,00139.4106,W,1,06,1.5,47.0,M,48.3,M,,0000*76
arfcn: 826 rxLev: -85
$GPGSA,M,3,30,05,02,09,13,16,,,,,,,2.5,1.5,2.0*37
arfcn: 839 rxLev: -85
arfcn: 847 rxLev: -85
$GPGSV,3,1,12,30,65,153,18,05,54,299,14,02,36,233,17,09,34,075,19*72
$GPGSV,3,2,12,13,20,259,17,16,05,021,17,06,18,194,05,28,03,146,07*7F
$GPGSV,3,3,12,39,31,144,,07,63,083,,04,41,267,,29,03,303,*70
$GPRMC,102043.000,A,4806.8967,N,00139.4106,W,0.80,337.25,060218,,,A*7F
$GPGGA,102044.000,4806.8969,N,00139.4103,W,1,06,1.5,47.0,M,48.3,M,,0000*7A
$GPGSA,M,3,30,05,02,09,13,16,,,,,,,2.5,1.5,2.0*37
$GPRMC,102044.000,A,4806.8969,N,00139.4103,W,0.82,337.25,060218,,,A*71
$GPGGA,102045.000,4806.8970,N,00139.4099,W,1,06,1.5,47.0,M,48.3,M,,0000*71
arfcn: 8 bsic: 48 rxLev: -85 ber: 0.00 mcc: 208 mnc: 01 lac: 10300 cellId: 6473 cellStatus: CELL_FORBIDDEN numArfcn: 13 arfcn: 8 17 18 19 20 21 22 23 24 25 47 48 49 numChannels: 18 array: 1 2 3 4 5 10 12 13 14 15 512 513 514 515 516 517 605 610 pbcch: 0 nom: 2 rac: 1 spgc: 0 pat: 6 nco: 0 t3168: 1000 t3192: 500 drxmax: 2 ctrlAck: 0 bsCVmax: 9 alpha: 5 pcMeasCh: 1 
arfcn: 59 rxLev: -85
arfcn: 63 rxLev: -85
$GPGSA,M,3,30,05,02,09,13,16,,,,,,,2.5,1.5,2.0*37
arfcn: 68 rxLev: -85
arfcn: 840 rxLev: -85
$GPRMC,102045.000,A,4806.8970,N,00139.4099,W,1.06,337.25,060218,,,A*77
arfcn: 842 rxLev: -85
arfcn: 831 rxLev: -85
arfcn: 830 rxLev: -85
arfcn: 836 rxLev: -85
arfcn: 876 rxLev: -85
arfcn: 871 rxLev: -85
arfcn: 869 rxLev: -85
arfcn: 870 rxLev: -85
$GPGGA,102046.000,4806.8970,N,00139.4099,W,1,06,1.5,47.0,M,48.3,M,,0000*72
$GPGSA,M,3,30,05,02,09,13,16,,,,,,,2.5,1.5,2.0*37
arfcn: 880 rxLev: -85
arfcn: 864 rxLev: -85
$GPRMC,102046.000,A,4806.8970,N,00139.4099,W,0.38,337.25,060218,,,A*78
arfcn: 875 rxLev: -86
arfcn: 844 rxLev: -86
arfcn: 64 rxLev: -86
arfcn: 67 rxLev: -86
$GPGGA,102047.000,4806.8969,N,00139.4101,W,1,06,1.5,46.9,M,48.3,M,,0000*73
$GPGSA,M,3,30,05,02,09,13,16,,,,,,,2.5,1.5,2.0*37
$GPRMC,102047.000,A,4806.8969,N,00139.4101,W,0.34,337.25,060218,,,A*7D
arfcn: 76 bsic: 5 rxLev: -86 ber: 0.00 mcc: 208 mnc: 10 lac: 49415 cellId: 44813 cellStatus: CELL_FORBIDDEN numArfcn: 2 arfcn: 76 121 numChannels: 16 array: 76 77 78 79 80 82 84 85 86 113 114 117 118 121 123 124 pbcch: 0 nom: 2 rac: 31 spgc: 0 pat: 6 nco: 0 t3168: 1000 t3192: 500 drxmax: 4 ctrlAck: 1 bsCVmax: 9 alpha: 10 pcMeasCh: 0 
arfcn: 62 rxLev: -86
$GPGGA,102048.000,4806.8972,N,00139.4104,W,1,06,1.5,46.9,M,48.3,M,,0000*73
arfcn: 60 rxLev: -86
arfcn: 61 rxLev: -86
$GPGSA,M,3,30,05,02,09,13,16,,,,,,,2.5,1.5,2.0*37
$GPGSV,3,1,12,30,65,153,18,05,54,299,15,02,36,233,17,09,34,075,19*73
$GPGSV,3,2,12,13,20,259,18,16,05,021,17,06,18,194,04,28,03,146,06*70
$GPGSV,3,3,12,39,31,144,,07,63,083,,04,41,267,,29,03,303,*70
$GPRMC,102048.000,A,4806.8972,N,00139.4104,W,0.74,337.25,060218,,,A*79
$GPGGA,102049.000,4806.8974,N,00139.4105,W,1,06,1.5,47.0,M,48.3,M,,0000*7D
$GPGSA,M,3,30,05,02,09,13,16,,,,,,,2.5,1.5,2.0*37
$GPRMC,102049.000,A,4806.8974,N,00139.4105,W,0.81,337.25,060218,,,A*75
arfcn: 78 bsic: 2 rxLev: -86 ber: 3.04 mcc: 208 mnc: 10 lac: 49415 cellId: 45280 cellStatus: CELL_FORBIDDEN numArfcn: 2 arfcn: 78 116 numChannels: 20 array: 76 77 78 79 80 82 83 84 85 86 114 115 116 117 118 120 121 122 123 124 pbcch: 0 nom: 2 rac: 31 spgc: 0 pat: 6 nco: 0 t3168: 1000 t3192: 500 drxmax: 4 ctrlAck: 1 bsCVmax: 9 alpha: 10 pcMeasCh: 0 
arfcn: 69 rxLev: -86
$GPGGA,102050.000,4806.8973,N,00139.4105,W,1,06,1.5,47.0,M,48.3,M,,0000*72
$GPGSA,M,3,30,05,02,09,13,16,,,,,,,2.5,1.5,2.0*37
$GPRMC,102050.000,A,4806.8973,N,00139.4105,W,0.61,337.25,060218,,,A*74
$GPGGA,102051.000,4806.8973,N,00139.4108,W,1,06,1.5,47.0,M,48.3,M,,0000*7E
$GPGSA,M,3,30,05,02,09,13,16,,,,,,,2.5,1.5,2.0*37
$GPRMC,102051.000,A,4806.8973,N,00139.4108,W,0.97,337.25,060218,,,A*71
$GPGGA,102052.000,4806.8972,N,00139.4109,W,1,06,1.5,47.0,M,48.3,M,,0000*7D
$GPGSA,M,3,30,05,02,09,13,16,,,,,,,2.5,1.5,2.0*37
$GPRMC,102052.000,A,4806.8972,N,00139.4109,W,0.63,337.25,060218,,,A*79
$GPGGA,102053.000,4806.8973,N,00139.4109,W,1,06,1.5,47.0,M,48.3,M,,0000*7D
$GPGSA,M,3,30,05,02,09,13,16,,,,,,,2.5,1.5,2.0*37
arfcn: 1016 bsic: 41 rxLev: -86 ber: 0.00 mcc: 208 mnc: 20 lac: 418 cellId: 23623 cellStatus: CELL_SUITABLE numArfcn: 1 arfcn: 1016 numChannels: 28 array: 787 788 791 792 793 794 795 879 880 883 884 975 977 978 979 981 982 983 986 987 1011 1012 1017 1018 1019 1020 1021 1022 pbcch: 0 nom: 2 rac: 6 spgc: 0 pat: 6 nco: 0 t3168: 1500 t3192: 500 drxmax: 4 ctrlAck: 1 bsCVmax: 8 alpha: 6 pcMeasCh: 1 
arfcn: 877 rxLev: -86
$GPGSV,3,1,12,30,65,153,18,05,54,299,15,02,36,233,17,09,34,075,19*73
arfcn: 878 rxLev: -86
$GPGSV,3,2,12,13,20,259,19,16,05,021,17,06,18,194,04,28,03,146,08*7F
$GPGSV,3,3,12,33,33,198,,07,63,083,,04,41,267,,29,03,303,*79
$GPRMC,102053.000,A,4806.8973,N,00139.4109,W,0.48,337.25,060218,,,A*70
$GPGGA,102054.000,4806.8974,N,00139.4111,W,1,06,1.5,47.1,M,48.3,M,,0000*75
$GPGSA,M,3,30,05,02,09,13,16,,,,,,,2.5,1.5,2.0*37
$GPRMC,102054.000,A,4806.8974,N,00139.4111,W,0.67,337.25,060218,,,A*74
$GPGGA,102055.000,4806.8972,N,00139.4111,W,1,06,1.5,47.2,M,48.3,M,,0000*71
arfcn: 512 bsic: 25 rxLev: -87 ber: 0.00 mcc: 208 mnc: 01 lac: 10300 cellId: 40155 cellStatus: CELL_FORBIDDEN numArfcn: 16 arfcn: 519 520 521 522 523 524 525 526 596 597 598 599 600 601 602 603 numChannels: 16 array: 2 3 5 8 10 11 12 15 16 517 518 604 605 606 609 610 pbcch: 0 nom: 2 rac: 1 spgc: 0 pat: 6 nco: 0 t3168: 1000 t3192: 500 drxmax: 2 ctrlAck: 0 bsCVmax: 9 alpha: 5 pcMeasCh: 1 
arfcn: 54 rxLev: -87
$GPGSA,M,3,30,05,02,09,13,16,,,,,,,2.5,1.5,2.0*37
$GPRMC,102055.000,A,4806.8972,N,00139.4111,W,0.22,337.25,060218,,,A*72
$GPGGA,102056.000,4806.8969,N,00139.4110,W,1,06,1.5,47.2,M,48.3,M,,0000*79
$GPGSA,M,3,30,05,02,09,13,16,,,,,,,2.5,1.5,2.0*37
$GPRMC,102056.000,A,4806.8969,N,00139.4110,W,0.39,337.25,060218,,,A*70
arfcn: 5 bsic: 1 rxLev: -87 ber: 0.00 mcc: FFF mnc: FF lac: 65535 cellId: 0 cellStatus: CELL_OTHER numArfcn: 0 arfcn: numChannels: 0 array:
arfcn: 26 rxLev: -87
arfcn: 70 rxLev: -87
$GPGGA,102057.000,4806.8966,N,00139.4106,W,1,06,1.5,47.2,M,48.3,M,,0000*70
$GPGSA,M,3,30,05,02,09,13,16,,,,,,,2.5,1.5,2.0*37
$GPRMC,102057.000,A,4806.8966,N,00139.4106,W,0.90,337.25,060218,,,A*7A
$GPGGA,102058.000,4806.8961,N,00139.4103,W,1,06,1.5,47.2,M,48.3,M,,0000*7D
$GPGSA,M,3,30,05,02,09,13,16,,,,,,,2.5,1.5,2.0*37
$GPGSV,3,1,12,30,65,153,17,05,54,299,15,02,36,233,17,09,34,075,19*7C
$GPGSV,3,2,12,13,20,259,19,16,05,021,17,28,03,146,10,33,33,198,*71
arfcn: 114 bsic: 6 rxLev: -87 ber: 0.00 mcc: 208 mnc: 10 lac: 49415 cellId: 44202 cellStatus: CELL_FORBIDDEN numArfcn: 2 arfcn: 80 114 numChannels: 20 array: 76 77 78 79 80 84 85 86 113 114 115 116 117 118 119 120 121 122 123 124 pbcch: 0 nom: 2 rac: 31 spgc: 0 pat: 6 nco: 0 t3168: 1000 t3192: 500 drxmax: 4 ctrlAck: 1 bsCVmax: 9 alpha: 10 pcMeasCh: 0 
$GPGSV,3,3,12,07,63,083,,04,41,267,,06,18,194,,29,03,303,*7A
$GPRMC,102058.000,A,4806.8961,N,00139.4103,W,1.29,39.76,060218,,,A*4F
$GPGGA,102059.000,4806.8960,N,00139.4101,W,1,06,1.5,47.2,M,48.3,M,,0000*7F
$GPGSA,M,3,30,05,02,09,13,16,,,,,,,2.5,1.5,2.0*37
$GPRMC,102059.000,A,4806.8960,N,00139.4101,W,1.31,59.36,060218,,,A*46
$GPGGA,102100.000,4806.8956,N,00139.4099,W,1,06,1.5,47.2,M,48.3,M,,0000*77
$GPGSA,M,3,30,05,02,09,13,16,,,,,,,2.5,1.5,2.0*37
$GPRMC,102100.000,A,4806.8956,N,00139.4099,W,1.40,79.51,060218,,,A*4B
arfcn: 514 bsic: 1 rxLev: -87 ber: 2.02 mcc: 208 mnc: 01 lac: 10300 cellId: 39259 cellStatus: CELL_FORBIDDEN numArfcn: 17 arfcn: 514 519 520 521 522 523 524 525 526 596 597 598 599 600 601 602 603 numChannels: 14 array: 1 6 8 10 12 14 512 513 514 517 604 605 606 608 pbcch: 0 nom: 2 rac: 1 spgc: 1 pat: 6 nco: 0 t3168: 1000 t3192: 500 drxmax: 4 ctrlAck: 1 bsCVmax: 9 alpha: 7 pcMeasCh: 0 
$GPGGA,102101.000,4806.8950,N,00139.4100,W,1,06,1.5,47.2,M,48.3,M,,0000*71
$GPGSA,M,3,30,05,02,09,13,16,,,,,,,2.5,1.5,2.0*37
$GPRMC,102101.000,A,4806.8950,N,00139.4100,W,1.55,109.28,060218,,,A*71
$GPGGA,102102.000,4806.8946,N,00139.4101,W,1,06,1.5,47.2,M,48.3,M,,0000*74
arfcn: 979 bsic: 19 rxLev: -88 ber: 4.04 mcc: FFF mnc: FF lac: 65535 cellId: 0 cellStatus: CELL_OTHER numArfcn: 0 arfcn: numChannels: 0 array:
arfcn: 71 rxLev: -88
$GPGSA,M,3,30,05,02,09,13,16,,,,,,,2.5,1.5,2.0*37
arfcn: 66 rxLev: -88
arfcn: 65 rxLev: -89
$GPRMC,102102.000,A,4806.8946,N,00139.4101,W,1.53,125.43,060218,,,A*71
arfcn: 107 rxLev: -89
$GPGGA,102103.000,4806.8942,N,00139.4102,W,1,06,1.5,47.2,M,48.3,M,,0000*72
$GPGSA,M,3,30,05,02,09,13,16,,,,,,,2.5,1.5,2.0*37
$GPGSV,3,1,12,30,65,153,17,05,54,299,14,02,36,233,16,09,34,075,19*7C
$GPGSV,3,2,12,13,20,259,18,16,05,021,16,28,03,146,11,33,33,198,*70
$GPGSV,3,3,12,07,63,083,,04,41,267,,06,18,194,,29,03,303,*7A
$GPRMC,102103.000,A,4806.8942,N,00139.4102,W,1.55,135.93,060218,,,A*7D
$GPGGA,102104.000,4806.8939,N,00139.4104,W,1,06,1.5,47.2,M,48.3,M,,0000*7F
$GPGSA,M,3,30,05,02,09,13,16,,,,,,,2.5,1.5,2.0*37
$GPRMC,102104.000,A,4806.8939,N,00139.4104,W,1.53,144.67,060218,,,A*7B
$GPGGA,102105.000,4806.8935,N,00139.4103,W,1,05,2.4,47.2,M,48.3,M,,0000*74
$GPGSA,M,3,30,02,09,13,16,,,,,,,,3.8,2.4,2.9*35
$GPRMC,102105.000,A,4806.8935,N,00139.4103,W,1.34,146.77,060218,,,A*73
$GPGGA,102106.000,4806.8934,N,00139.4106,W,1,05,2.4,47.2,M,48.3,M,,0000*73
$GPGSA,M,3,30,02,09,13,16,,,,,,,,3.8,2.4,2.9*35
$GPRMC,102106.000,A,4806.8934,N,00139.4106,W,1.02,146.77,060218,,,A*71
$GPGGA,102107.000,4806.8928,N,00139.4107,W,1,05,2.4,47.2,M,48.3,M,,0000*7E
$GPGSA,M,3,30,02,09,13,16,,,,,,,,3.8,2.4,2.9*35
$GPRMC,102107.000,A,4806.8928,N,00139.4107,W,1.49,153.19,060218,,,A*7F
arfcn: 4 bsic: 54 rxLev: -89 ber: 0.02 mcc: 208 mnc: 01 lac: 10300 cellId: 43768 cellStatus: CELL_FORBIDDEN numArfcn: 13 arfcn: 4 17 18 19 20 21 22 23 24 25 47 48 49 numChannels: 20 array: 1 3 5 6 7 8 12 13 14 513 514 515 517 518 601 605 606 608 609 610 pbcch: 0 nom: 2 rac: 1 spgc: 0 pat: 6 nco: 0 t3168: 1000 t3192: 500 drxmax: 2 ctrlAck: 0 bsCVmax: 9 alpha: 5 pcMeasCh: 1 
arfcn: 53 rxLev: -89
$GPGGA,102108.000,4806.8922,N,00139.4105,W,1,05,2.4,47.2,M,48.3,M,,0000*79
$GPGSA,M,3,30,02,09,13,16,,,,,,,,3.8,2.4,2.9*35
$GPGSV,3,1,12,30,65,153,18,02,36,233,17,09,34,075,20,13,20,259,18*7C
$GPGSV,3,2,12,16,05,021,16,05,54,299,06,28,03,146,10,33,33,198,*76
$GPGSV,3,3,12,07,63,083,,04,41,267,,06,18,194,,29,03,303,*7A
$GPRMC,102108.000,A,4806.8922,N,00139.4105,W,1.94,157.97,060218,,,A*7A
$GPGGA,102109.000,4806.8914,N,00139.4102,W,1,05,2.4,47.2,M,48.3,M,,0000*7A
$GPGSA,M,3,30,02,09,13,16,,,,,,,,3.8,2.4,2.9*35
$GPRMC,102109.000,A,4806.8914,N,00139.4102,W,2.22,161.01,060218,,,A*7D
$GPGGA,102110.000,4806.8910,N,00139.4099,W,1,05,2.4,47.2,M,48.3,M,,0000*75
arfcn: 1014 bsic: 31 rxLev: -89 ber: 2.02 mcc: 208 mnc: 20 lac: 418 cellId: 20649 cellStatus: CELL_SUITABLE numArfcn: 1 arfcn: 1014 numChannels: 25 array: 788 789 790 791 793 795 796 879 884 977 978 979 980 981 982 983 984 985 987 1012 1013 1017 1020 1021 1022 pbcch: 0 nom: 2 rac: 6 spgc: 0 pat: 6 nco: 0 t3168: 1500 t3192: 500 drxmax: 0 ctrlAck: 0 bsCVmax: 8 alpha: 6 pcMeasCh: 1 
$GPGSA,M,3,30,02,09,13,16,,,,,,,,3.8,2.4,2.9*35
$GPRMC,102110.000,A,4806.8910,N,00139.4099,W,2.00,160.09,060218,,,A*7B
$GPGGA,102111.000,4806.8906,N,00139.4096,W,1,06,1.5,47.2,M,48.3,M,,0000*7D
$GPGSA,M,3,30,05,02,09,13,16,,,,,,,2.5,1.5,2.0*37
$GPRMC,102111.000,A,4806.8906,N,00139.4096,W,1.98,156.68,060218,,,A*72
arfcn: 120 bsic: 59 rxLev: -89 ber: 1.05 mcc: 208 mnc: 10 lac: 49415 cellId: 13571 cellStatus: CELL_FORBIDDEN numArfcn: 2 arfcn: 111 120 numChannels: 14 array: 76 77 79 80 83 84 85 114 115 116 117 120 122 124 pbcch: 0 nom: 2 rac: 31 spgc: 0 pat: 6 nco: 0 t3168: 1000 t3192: 500 drxmax: 4 ctrlAck: 1 bsCVmax: 9 alpha: 10 pcMeasCh: 0 
arfcn: 92 rxLev: -89
$GPGGA,102112.000,4806.8904,N,00139.4093,W,1,06,1.5,47.3,M,48.3,M,,0000*78
arfcn: 881 rxLev: -89
arfcn: 95 rxLev: -90
$GPGSA,M,3,30,05,02,09,13,16,,,,,,,2.5,1.5,2.0*37
arfcn: 72 rxLev: -90
$GPRMC,102112.000,A,4806.8904,N,00139.4093,W,1.84,153.30,060218,,,A*73
$GPGGA,102113.000,4806.8902,N,00139.4091,W,1,06,1.5,47.3,M,48.3,M,,0000*7D
$GPGSA,M,3,30,05,02,09,13,16,,,,,,,2.5,1.5,2.0*37
$GPGSV,3,1,12,30,65,153,18,05,54,299,14,02,36,233,17,09,34,075,20*78
$GPGSV,3,2,12,13,20,259,17,16,05,021,15,28,03,146,09,33,33,198,*75
$GPGSV,3,3,12,07,63,083,,04,41,267,,06,18,194,,29,03,303,*7A
$GPRMC,102113.000,A,4806.8902,N,00139.4091,W,1.78,151.56,060218,,,A*77
$GPGGA,102114.000,4806.8900,N,00139.4089,W,1,06,1.5,47.3,M,48.3,M,,0000*71
$GPGSA,M,3,30,05,02,09,13,16,,,,,,,2.5,1.5,2.0*37
$GPRMC,102114.000,A,4806.8900,N,00139.4089,W,1.67,149.63,060218,,,A*7A
$GPGGA,102115.000,4806.8900,N,00139.4090,W,1,06,1.5,47.2,M,48.3,M,,0000*79
$GPGSA,M,3,30,05,02,09,13,16,,,,,,,2.5,1.5,2.0*37
$GPRMC,102115.000,A,4806.8900,N,00139.4090,W,1.23,148.76,060218,,,A*76
arfcn: 124 bsic: 2 rxLev: -90 ber: 0.09 mcc: 208 mnc: 10 lac: 49415 cellId: 43517 cellStatus: CELL_FORBIDDEN numArfcn: 2 arfcn: 112 124 numChannels: 14 array: 76 77 78 80 82 85 114 115 117 118 120 121 122 124 pbcch: 0 nom: 2 rac: 31 spgc: 0 pat: 6 nco: 0 t3168: 1000 t3192: 500 drxmax: 4 ctrlAck: 1 bsCVmax: 9 alpha: 10 pcMeasCh: 0 
arfcn: 105 rxLev: -90
arfcn: 108 rxLev: -90
arfcn: 96 rxLev: -90
arfcn: 98 rxLev: -90
arfcn: 101 rxLev: -90
arfcn: 52 rxLev: -90
arfcn: 606 rxLev: -90
$GPGGA,102116.000,4806.8900,N,00139.4090,W,1,06,1.5,47.2,M,48.3,M,,0000*7A
$GPGSA,M,3,30,05,02,09,13,16,,,,,,,2.5,1.5,2.0*37
$GPRMC,102116.000,A,4806.8900,N,00139.4090,W,0.96,148.76,060218,,,A*7A
$GPGGA,102117.000,4806.8899,N,00139.4091,W,1,06,1.5,47.2,M,48.3,M,,0000*7B
$GPGSA,M,3,30,05,02,09,13,16,,,,,,,2.5,1.5,2.0*37
$GPRMC,102117.000,A,4806.8899,N,00139.4091,W,0.79,148.76,060218,,,A*7A
arfcn: 604 bsic: 20 rxLev: -90 ber: 0.00 mcc: 208 mnc: 01 lac: 10300 cellId: 39915 cellStatus: CELL_FORBIDDEN numArfcn: 16 arfcn: 519 520 521 522 523 524 525 526 596 597 598 599 600 601 602 603 numChannels: 13 array: 5 6 10 15 16 512 514 516 517 518 608 609 610 pbcch: 0 nom: 2 rac: 1 spgc: 0 pat: 6 nco: 0 t3168: 1000 t3192: 500 drxmax: 2 ctrlAck: 0 bsCVmax: 9 alpha: 5 pcMeasCh: 1 
$GPGGA,102118.000,4806.8898,N,00139.4090,W,1,06,1.5,47.2,M,48.3,M,,0000*74
$GPGSA,M,3,30,05,02,09,13,16,,,,,,,2.5,1.5,2.0*37
$GPGSV,3,1,12,30,65,153,19,05,54,299,14,02,36,233,17,09,34,075,19*73
$GPGSV,3,2,12,13,20,259,17,16,05,021,15,28,03,146,16,33,33,198,*7B
$GPGSV,3,3,12,07,63,083,,04,41,267,,06,18,194,,29,03,303,*7A
$GPRMC,102118.000,A,4806.8898,N,00139.4090,W,0.59,148.76,060218,,,A*77
$GPGGA,102119.000,4806.8897,N,00139.4095,W,1,06,1.5,47.1,M,48.3,M,,0000*7C
$GPGSA,M,3,30,05,02,09,13,16,,,,,,,2.5,1.5,2.0*37
arfcn: 2 bsic: 54 rxLev: -90 ber: 2.04 mcc: FFF mnc: FF lac: 65535 cellId: 0 cellStatus: CELL_OTHER numArfcn: 0 arfcn: numChannels: 0 array:
arfcn: 100 rxLev: -90
$GPRMC,102119.000,A,4806.8897,N,00139.4095,W,0.72,148.76,060218,,,A*75
arfcn: 102 rxLev: -90
arfcn: 103 rxLev: -90
arfcn: 99 rxLev: -90
arfcn: 97 rxLev: -90
arfcn: 109 rxLev: -90
arfcn: 104 rxLev: -90
arfcn: 106 rxLev: -90
$GPGGA,102120.000,4806.8896,N,00139.4096,W,1,05,1.8,47.2,M,48.3,M,,0000*79
arfcn: 93 rxLev: -90
arfcn: 94 rxLev: -91
$GPGSA,M,3,30,05,02,09,13,,,,,,,,2.6,1.8,1.9*34
arfcn: 91 rxLev: -91
$GPRMC,102120.000,A,4806.8896,N,00139.4096,W,0.67,148.76,060218,,,A*79
$GPGGA,102121.000,4806.8891,N,00139.4096,W,1,06,1.5,47.2,M,48.3,M,,0000*71
$GPGSA,M,3,30,05,02,09,13,16,,,,,,,2.5,1.5,2.0*37
$GPRMC,102121.000,A,4806.8891,N,00139.4096,W,1.04,148.76,060218,,,A*7B
arfcn: 1017 bsic: 33 rxLev: -91 ber: 9.06 mcc: FFF mnc: FF lac: 65535 cellId: 0 cellStatus: CELL_OTHER numArfcn: 0 arfcn: numChannels: 0 array:
$GPGGA,102122.000,4806.8882,N,00139.4094,W,1,06,1.5,47.2,M,48.3,M,,0000*72
$GPGSA,M,3,30,05,02,09,13,16,,,,,,,2.5,1.5,2.0*37
$GPRMC,102122.000,A,4806.8882,N,00139.4094,W,1.81,162.01,060218,,,A*7D
$GPGGA,102123.000,4806.8872,N,00139.4097,W,1,06,1.5,47.2,M,48.3,M,,0000*7F
$GPGSA,M,3,30,05,02,09,13,16,,,,,,,2.5,1.5,2.0*37
$GPGSV,3,1,12,30,65,153,20,05,54,299,15,02,36,233,17,09,34,075,19*78
$GPGSV,3,2,12,13,20,259,18,16,05,021,14,28,03,146,17,37,27,150,*71
$GPGSV,3,3,12,07,63,083,,04,41,267,,06,18,194,,29,03,303,*7A
$GPRMC,102123.000,A,4806.8872,N,00139.4097,W,2.59,177.08,060218,,,A*7B
$GPGGA,102124.000,4806.8872,N,00139.4100,W,1,06,1.5,47.2,M,48.3,M,,0000*77
$GPGSA,M,3,30,05,02,09,13,16,,,,,,,2.5,1.5,2.0*37
$GPRMC,102124.000,A,4806.8872,N,00139.4100,W,1.89,181.12,060218,,,A*7F
$GPGGA,102125.000,4806.8868,N,00139.4099,W,1,06,1.5,47.2,M,48.3,M,,0000*7C
$GPGSA,M,3,30,05,02,09,13,16,,,,,,,2.5,1.5,2.0*37
$GPRMC,102125.000,A,4806.8868,N,00139.4099,W,1.77,182.32,060218,,,A*74
$GPGGA,102126.000,4806.8858,N,00139.4098,W,1,07,1.5,47.1,M,48.3,M,,0000*7F
$GPGSA,M,3,30,07,05,02,09,13,16,,,,,,2.3,1.5,1.8*3D
$GPRMC,102126.000,A,4806.8858,N,00139.4098,W,2.48,184.73,060218,,,A*79
arfcn: 978 bsic: 19 rxLev: -92 ber: 4.02 mcc: 208 mnc: 20 lac: 418 cellId: 18480 cellStatus: CELL_SUITABLE numArfcn: 2 arfcn: 978 1023 numChannels: 24 array: 788 790 794 880 883 975 976 977 979 980 981 982 983 985 986 1011 1012 1014 1016 1017 1018 1019 1020 1021 pbcch: 0 nom: 2 rac: 6 spgc: 0 pat: 6 nco: 0 t3168: 1500 t3192: 500 drxmax: 4 ctrlAck: 1 bsCVmax: 8 alpha: 6 pcMeasCh: 1 
$GPGGA,102127.000,4806.8858,N,00139.4098,W,1,07,1.5,47.1,M,48.3,M,,0000*7E
$GPGSA,M,3,30,07,05,02,09,13,16,,,,,,2.3,1.5,1.8*3D
$GPRMC,102127.000,A,4806.8858,N,00139.4098,W,1.71,186.13,060218,,,A*75
$GPGGA,102128.000,4806.8855,N,00139.4099,W,1,07,1.5,47.1,M,48.3,M,,0000*7D
$GPGSA,M,3,30,07,05,02,09,13,16,,,,,,2.3,1.5,1.8*3D
arfcn: 82 bsic: 63 rxLev: -92 ber: 0.00 mcc: 208 mnc: 10 lac: 49415 cellId: 53517 cellStatus: CELL_FORBIDDEN numArfcn: 2 arfcn: 82 84 numChannels: 17 array: 76 77 78 79 80 82 85 86 114 115 118 119 120 121 122 123 124 pbcch: 0 nom: 2 rac: 31 spgc: 0 pat: 6 nco: 0 t3168: 1000 t3192: 500 drxmax: 4 ctrlAck: 1 bsCVmax: 9 alpha: 10 pcMeasCh: 0 
arfcn: 47 rxLev: -92
$GPGSV,3,1,12,30,65,153,20,07,63,083,18,05,54,299,15,02,36,233,17*7C
$GPGSV,3,2,12,09,34,075,18,13,20,259,17,16,05,021,14,28,03,146,17*7E
arfcn: 9 rxLev: -92
arfcn: 123 rxLev: -92
$GPGSV,3,3,12,37,27,150,,04,41,267,,06,18,194,,29,03,303,*76
$GPRMC,102128.000,A,4806.8855,N,00139.4099,W,1.59,188.63,060218,,,A*75
$GPGGA,102129.000,4806.8853,N,00139.4100,W,1,07,1.5,47.0,M,48.3,M,,0000*7A
$GPGSA,M,3,30,07,05,02,09,13,16,,,,,,2.3,1.5,1.8*3D
$GPRMC,102129.000,A,4806.8853,N,00139.4100,W,1.52,191.90,060218,,,A*7C
$GPGGA,102130.000,4806.8846,N,00139.4101,W,1,07,1.5,47.0,M,48.3,M,,0000*77
$GPGSA,M,3,30,07,05,02,09,13,16,,,,,,2.3,1.5,1.8*3D
$GPRMC,102130.000,A,4806.8846,N,00139.4101,W,2.20,195.57,060218,,,A*78
$GPGGA,102131.000,4806.8843,N,00139.4103,W,1,07,1.5,46.9,M,48.3,M,,0000*79
$GPGSA,M,3,30,07,05,02,09,13,16,,,,,,2.3,1.5,1.8*3D
$GPRMC,102131.000,A,4806.8843,N,00139.4103,W,1.75,197.70,060218,,,A*7A
arfcn: 1019 bsic: 48 rxLev: -93 ber: 0.04 mcc: 208 mnc: 20 lac: 418 cellId: 20015 cellStatus: CELL_SUITABLE numArfcn: 2 arfcn: 1010 1019 numChannels: 20 array: 787 789 794 882 976 979 981 982 983 985 986 987 1012 1013 1015 1016 1017 1020 1021 1022 pbcch: 0 nom: 2 rac: 6 spgc: 0 pat: 6 nco: 0 t3168: 1500 t3192: 500 drxmax: 0 ctrlAck: 0 bsCVmax: 8 alpha: 4 pcMeasCh: 1 
$GPGGA,102132.000,4806.8840,N,00139.4103,W,1,07,1.5,46.8,M,48.3,M,,0000*78
$GPGSA,M,3,30,07,05,02,09,13,16,,,,,,2.3,1.5,1.8*3D
$GPRMC,102132.000,A,4806.8840,N,00139.4103,W,1.44,198.35,060218,,,A*76
$GPGGA,102133.000,4806.8839,N,00139.4103,W,1,07,1.5,46.8,M,48.3,M,,0000*77
$GPGSA,M,3,30,07,05,02,09,13,16,,,,,,2.3,1.5,1.8*3D
$GPGSV,3,1,12,30,65,153,20,07,63,083,19,05,54,299,14,02,36,233,16*7D
$GPGSV,3,2,12,09,34,075,16,13,20,259,18,16,05,021,14,28,03,146,17*7F
$GPGSV,3,3,12,37,27,150,,04,41,267,,06,18,194,,29,03,303,*76
$GPRMC,102133.000,A,4806.8839,N,00139.4103,W,0.95,198.35,060218,,,A*74
$GPGGA,102134.000,4806.8839,N,00139.4102,W,1,07,1.5,46.8,M,48.3,M,,0000*71
$GPGSA,M,3,30,07,05,02,09,13,16,,,,,,2.3,1.5,1.8*3D
$GPRMC,102134.000,A,4806.8839,N,00139.4102,W,0.63,198.35,060218,,,A*7B
$GPGGA,102135.000,4806.8840,N,00139.4100,W,1,07,1.5,46.8,M,48.3,M,,0000*7C
$GPGSA,M,3,30,07,05,02,09,13,16,,,,,,2.3,1.5,1.8*3D
$GPRMC,102135.000,A,4806.8840,N,00139.4100,W,0.55,198.35,060218,,,A*73
arfcn: 513 bsic: 27 rxLev: -93 ber: 0.01 mcc: 208 mnc: 01 lac: 10300 cellId: 27587 cellStatus: CELL_FORBIDDEN numArfcn: 16 arfcn: 519 520 521 522 523 524 525 526 596 597 598 599 600 601 602 603 numChannels: 14 array: 1 4 8 12 512 513 515 516 517 518 605 606 607 609 pbcch: 0 nom: 2 rac: 1 spgc: 0 pat: 6 nco: 0 t3168: 1000 t3192: 500 drxmax: 2 ctrlAck: 0 bsCVmax: 9 alpha: 5 pcMeasCh: 1 
arfcn: 110 rxLev: -93
arfcn: 15 rxLev: -93
$GPGGA,102136.000,4806.8842,N,00139.4100,W,1,07,1.5,46.8,M,48.3,M,,0000*7D
$GPGSA,M,3,30,07,05,02,09,13,16,,,,,,2.3,1.5,1.8*3D
$GPRMC,102136.000,A,4806.8842,N,00139.4100,W,0.24,198.35,060218,,,A*74
$GPGGA,102137.000,4806.8843,N,00139.4097,W,1,07,1.5,46.7,M,48.3,M,,0000*7D
$GPGSA,M,3,30,07,05,02,09,13,16,,,,,,2.3,1.5,1.8*3D
$GPRMC,102137.000,A,4806.8843,N,00139.4097,W,0.58,198.35,060218,,,A*70
arfcn: 117 bsic: 12 rxLev: -94 ber: 0.00 mcc: 208 mnc: 10 lac: 49415 cellId: 3568 cellStatus: CELL_FORBIDDEN numArfcn: 2 arfcn: 82 117 numChannels: 17 array: 76 77 78 79 80 83 84 85 87 113 114 116 117 120 122 123 124 pbcch: 0 nom: 2 rac: 31 spgc: 0 pat: 6 nco: 0 t3168: 1000 t3192: 500 drxmax: 4 ctrlAck: 1 bsCVmax: 9 alpha: 10 pcMeasCh: 0 
arfcn: 79 rxLev: -94
arfcn: 81 rxLev: -94
arfcn: 7 rxLev: -94
$GPGGA,102138.000,4806.8845,N,00139.4099,W,1,07,1.5,46.7,M,48.3,M,,0000*7A
arfcn: 25 rxLev: -94
$GPGSA,M,3,30,07,05,02,09,13,16,,,,,,2.3,1.5,1.8*3D
arfcn: 24 rxLev: -95
arfcn: 90 rxLev: -95
$GPGSV,3,1,12,30,65,153,20,07,63,083,19,05,54,299,14,02,36,233,16*7D
arfcn: 73 rxLev: -95
$GPGSV,3,2,12,09,34,075,17,13,20,259,18,16,05,021,14,28,03,146,17*7E
arfcn: 115 rxLev: -95
$GPGSV,3,3,12,37,27,150,,04,41,267,,06,18,194,,29,03,303,*76
$GPRMC,102138.000,A,4806.8845,N,00139.4099,W,0.16,198.35,060218,,,A*7D
$GPGGA,102139.000,4806.8845,N,00139.4099,W,1,07,1.5,46.7,M,48.3,M,,0000*7B
$GPGSA,M,3,30,07,05,02,09,13,16,,,,,,2.3,1.5,1.8*3D
$GPRMC,102139.000,A,4806.8845,N,00139.4099,W,0.09,198.35,060218,,,A*72
$GPGGA,102140.000,4806.8848,N,00139.4100,W,1,07,1.5,46.6,M,48.3,M,,0000*78
$GPGSA,M,3,30,07,05,02,09,13,16,,,,,,2.3,1.5,1.8*3D
arfcn: 608 bsic: 46 rxLev: -95 ber: 4.07 mcc: 208 mnc: 01 lac: 10300 cellId: 36733 cellStatus: CELL_FORBIDDEN numArfcn: 16 arfcn: 519 520 521 522 523 524 525 526 596 597 598 599 600 601 602 603 numChannels: 15 array: 1 3 6 7 10 12 14 512 513 514 515 517 604 605 606 pbcch: 0 nom: 2 rac: 1 spgc: 0 pat: 6 nco: 0 t3168: 1000 t3192: 500 drxmax: 2 ctrlAck: 0 bsCVmax: 9 alpha: 5 pcMeasCh: 1 
arfcn: 1021 rxLev: -95
arfcn: 77 rxLev: -95
arfcn: 6 rxLev: -95
$GPRMC,102140.000,A,4806.8848,N,00139.4100,W,0.39,198.35,060218,,,A*73
arfcn: 84 rxLev: -96
arfcn: 1023 rxLev: -96
$GPGGA,102141.000,4806.8849,N,00139.4104,W,1,05,3.2,46.7,M,48.3,M,,0000*7A
$GPGSA,M,3,30,07,02,09,13,,,,,,,,4.0,3.2,2.4*30
$GPRMC,102141.000,A,4806.8849,N,00139.4104,W,0.72,198.35,060218,,,A*78
$GPGGA,102142.000,4806.8849,N,00139.4105,W,1,05,3.2,46.7,M,48.3,M,,0000*78
$GPGSA,M,3,30,07,02,09,13,,,,,,,,4.0,3.2,2.4*30
$GPRMC,102142.000,A,4806.8849,N,00139.4105,W,0.39,198.35,060218,,,A*75
$GPGGA,102143.000,4806.8847,N,00139.4104,W,1,05,3.2,46.7,M,48.3,M,,0000*76
$GPGSA,M,3,30,07,02,09,13,,,,,,,,4.0,3.2,2.4*30
$GPGSV,3,1,12,30,65,153,20,07,63,083,19,02,36,233,15,09,34,075,18*78
$GPGSV,3,2,12,13,20,259,17,05,54,299,07,16,05,021,06,28,03,146,17*79
$GPGSV,3,3,12,37,27,150,,04,41,267,,06,18,194,,29,03,303,*76
$GPRMC,102143.000,A,4806.8847,N,00139.4104,W,0.03,198.35,060218,,,A*72
$GPGGA,102144.000,4806.8846,N,00139.4101,W,1,05,3.2,46.7,M,48.3,M,,0000*75
$GPGSA,M,3,30,07,02,09,13,,,,,,,,4.0,3.2,2.4*30
$GPRMC,102144.000,A,4806.8846,N,00139.4101,W,0.40,198.35,060218,,,A*76
$GPGGA,102145.000,4806.8850,N,00139.4099,W,1,06,3.1,46.7,M,48.3,M,,0000*73
arfcn: 1012 bsic: 19 rxLev: -96 ber: 0.00 mcc: 208 mnc: 20 lac: 418 cellId: 20011 cellStatus: CELL_SUITABLE numArfcn: 2 arfcn: 988 1012 numChannels: 24 array: 787 789 794 882 976 977 978 979 980 981 982 983 985 986 987 1011 1013 1014 1015 1016 1017 1019 1020 1021 pbcch: 0 nom: 2 rac: 6 spgc: 0 pat: 6 nco: 0 t3168: 1500 t3192: 500 drxmax: 0 ctrlAck: 0 bsCVmax: 8 alpha: 4 pcMeasCh: 1 
arfcn: 721 rxLev: -96
$GPGSA,M,3,30,07,02,09,13,16,,,,,,,4.8,3.1,3.7*3E
$GPRMC,102145.000,A,4806.8850,N,00139.4099,W,0.98,198.35,060218,,,A*75
$GPGGA,102146.000,4806.8852,N,00139.4098,W,1,06,3.1,46.6,M,48.3,M,,0000*72
$GPGSA,M,3,30,07,02,09,13,16,,,,,,,4.8,3.1,3.7*3E
$GPRMC,102146.000,A,4806.8852,N,00139.4098,W,0.48,198.35,060218,,,A*78
$GPGGA,102147.000,4806.8852,N,00139.4098,W,1,06,3.1,46.6,M,48.3,M,,0000*73
$GPGSA,M,3,30,07,02,09,13,16,,,,,,,4.8,3.1,3.7*3E
$GPRMC,102147.000,A,4806.8852,N,00139.4098,W,0.12,198.35,060218,,,A*76
$GPGGA,102148.000,4806.8854,N,00139.4101,W,1,06,3.0,46.6,M,48.3,M,,0000*7A
$GPGSA,M,3,30,07,02,09,13,16,,,,,,,4.8,3.0,3.7*3F
$GPGSV,3,1,12,30,65,153,20,07,63,083,20,02,36,233,15,09,34,075,19*73
$GPGSV,3,2,12,13,20,259,17,16,05,021,10,05,54,299,05,28,03,146,16*7D
$GPGSV,3,3,12,37,27,150,,04,41,267,,06,18,194,,29,03,303,*76
$GPRMC,102148.000,A,4806.8854,N,00139.4101,W,0.56,198.35,060218,,,A*7E
$GPGGA,102149.000,4806.8853,N,00139.4105,W,1,06,3.0,46.5,M,48.3,M,,0000*7B
$GPGSA,M,3,30,07,02,09,13,16,,,,,,,4.8,3.0,3.7*3F
$GPRMC,102149.000,A,4806.8853,N,00139.4105,W,0.86,198.35,060218,,,A*71
$GPGGA,102150.000,4806.8853,N,00139.4109,W,1,06,3.0,46.5,M,48.3,M,,0000*7F
$GPGSA,M,3,30,07,02,09,13,16,,,,,,,4.8,3.0,3.7*3F
$GPRMC,102150.000,A,4806.8853,N,00139.4109,W,0.82,198.35,060218,,,A*71
$GPGGA,102151.000,4806.8854,N,00139.4114,W,1,07,1.5,46.4,M,48.3,M,,0000*72
$GPGSA,M,3,30,07,05,02,09,13,16,,,,,,2.3,1.5,1.8*3D
$GPRMC,102151.000,A,4806.8854,N,00139.4114,W,0.75,198.35,060218,,,A*73
$GPGGA,102152.000,4806.8853,N,00139.4119,W,1,07,1.5,46.4,M,48.3,M,,0000*7B
$GPGSA,M,3,30,07,05,02,09,13,16,,,,,,2.3,1.5,1.8*3D
$GPRMC,102152.000,A,4806.8853,N,00139.4119,W,1.04,198.35,060218,,,A*7D
$GPGGA,102153.000,4806.8853,N,00139.4125,W,1,07,1.5,46.4,M,48.3,M,,0000*75
$GPGSA,M,3,30,07,05,02,09,13,16,,,,,,2.3,1.5,1.8*3D
$GPGSV,3,1,12,30,65,153,19,07,63,083,21,05,54,299,12,02,36,233,15*79
$GPGSV,3,2,12,09,34,075,20,13,20,259,16,16,05,021,11,28,03,146,16*70
$GPGSV,3,3,12,39,31,144,,04,41,267,,06,18,194,,29,03,303,*7A
$GPRMC,102153.000,A,4806.8853,N,00139.4125,W,1.19,218.68,060218,,,A*7C
$GPGGA,102154.000,4806.8854,N,00139.4134,W,1,07,1.5,46.4,M,48.3,M,,0000*75
$GPGSA,M,3,30,07,05,02,09,13,16,,,,,,2.3,1.5,1.8*3D
$GPRMC,102154.000,A,4806.8854,N,00139.4134,W,1.55,239.38,060218,,,A*72
$GPGGA,102155.000,4806.8855,N,00139.4140,W,1,07,1.5,46.4,M,48.3,M,,0000*76
$GPGSA,M,3,30,07,05,02,09,13,16,,,,,,2.3,1.5,1.8*3D
$GPRMC,102155.000,A,4806.8855,N,00139.4140,W,1.49,248.66,060218,,,A*71
$GPGGA,102156.000,4806.8856,N,00139.4148,W,1,07,1.5,46.4,M,48.3,M,,0000*7E
$GPGSA,M,3,30,07,05,02,09,13,16,,,,,,2.3,1.5,1.8*3D
$GPRMC,102156.000,A,4806.8856,N,00139.4148,W,1.61,257.88,060218,,,A*7D
$GPGGA,102157.000,4806.8858,N,00139.4151,W,1,07,1.5,46.4,M,48.3,M,,0000*79
$GPGSA,M,3,30,07,05,02,09,13,16,,,,,,2.3,1.5,1.8*3D
$GPRMC,102157.000,A,4806.8858,N,00139.4151,W,1.32,262.84,060218,,,A*76
$GPGGA,102158.000,4806.8859,N,00139.4155,W,1,07,1.5,46.4,M,48.3,M,,0000*73
arfcn: 1015 bsic: 59 rxLev: -96 ber: 4.06 mcc: 208 mnc: 20 lac: 418 cellId: 22494 cellStatus: CELL_SUITABLE numArfcn: 1 arfcn: 1015 numChannels: 24 array: 788 789 790 792 794 880 883 884 885 976 978 979 980 981 982 986 987 1013 1014 1017 1018 1019 1020 1021 pbcch: 0 nom: 2 rac: 7 spgc: 0 pat: 6 nco: 0 t3168: 1500 t3192: 500 drxmax: 0 ctrlAck: 0 bsCVmax: 8 alpha: 6 pcMeasCh: 1 
$GPGSA,M,3,30,07,05,02,09,13,16,,,,,,2.3,1.5,1.8*3D
arfcn: 86 rxLev: -97
arfcn: 75 rxLev: -97
$GPGSV,3,1,12,30,65,153,19,07,63,083,20,05,54,299,13,02,36,233,15*79
arfcn: 121 rxLev: -97
arfcn: 729 rxLev: -97
$GPGSV,3,2,12,09,34,075,21,13,20,259,16,16,05,021,16,28,03,146,16*76
arfcn: 722 rxLev: -97
$GPGSV,3,3,12,39,31,144,,04,41,267,,06,18,194,,29,03,303,*7A
arfcn: 744 rxLev: -97
arfcn: 748 rxLev: -97
$GPRMC,102158.000,A,4806.8859,N,00139.4155,W,1.30,267.00,060218,,,A*77
arfcn: 750 rxLev: -97
arfcn: 751 rxLev: -97
arfcn: 758 rxLev: -97
$GPGGA,102159.000,4806.8858,N,00139.4158,W,1,07,1.5,46.4,M,48.3,M,,0000*7E
arfcn: 760 rxLev: -97
arfcn: 51 rxLev: -97
$GPGSA,M,3,30,07,05,02,09,13,16,,,,,,2.3,1.5,1.8*3D
arfcn: 111 rxLev: -98
arfcn: 988 rxLev: -98
$GPRMC,102159.000,A,4806.8858,N,00139.4158,W,1.08,267.00,060218,,,A*71
arfcn: 759 rxLev: -98
arfcn: 756 rxLev: -98
arfcn: 776 rxLev: -98
arfcn: 749 rxLev: -98
arfcn: 724 rxLev: -98
arfcn: 725 rxLev: -98
arfcn: 727 rxLev: -98
arfcn: 715 rxLev: -98
$GPGGA,102200.000,4806.8858,N,00139.4162,W,1,07,1.5,46.3,M,48.3,M,,0000*7F
arfcn: 720 rxLev: -98
$GPGSA,M,3,30,07,05,02,09,13,16,,,,,,2.3,1.5,1.8*3D
arfcn: 754 rxLev: -98
$GPRMC,102200.000,A,4806.8858,N,00139.4162,W,0.96,267.00,060218,,,A*71
arfcn: 764 rxLev: -98
arfcn: 768 rxLev: -98
arfcn: 1011 rxLev: -98
arfcn: 976 rxLev: -98
arfcn: 20 rxLev: -98
arfcn: 23 rxLev: -98
arfcn: 977 rxLev: -99
arfcn: 975 rxLev: -99
$GPGGA,102201.000,4806.8859,N,00139.4166,W,1,07,1.5,46.4,M,48.3,M,,0000*7C
arfcn: 763 rxLev: -99
$GPGSA,M,3,30,07,05,02,09,13,16,,,,,,2.3,1.5,1.8*3D
arfcn: 762 rxLev: -99
arfcn: 755 rxLev: -99
$GPRMC,102201.000,A,4806.8859,N,00139.4166,W,1.08,267.00,060218,,,A*73
arfcn: 775 rxLev: -99
arfcn: 769 rxLev: -99
arfcn: 717 rxLev: -99
arfcn: 726 rxLev: -99
arfcn: 730 rxLev: -99
arfcn: 734 rxLev: -99
arfcn: 752 rxLev: -99
arfcn: 747 rxLev: -99
$GPGGA,102202.000,4806.8860,N,00139.4169,W,1,07,1.5,46.4,M,48.3,M,,0000*7A
arfcn: 742 rxLev: -99
$GPGSA,M,3,30,07,05,02,09,13,16,,,,,,2.3,1.5,1.8*3D
arfcn: 740 rxLev: -99
arfcn: 743 rxLev: -99
$GPRMC,102202.000,A,4806.8860,N,00139.4169,W,0.92,267.00,060218,,,A*77
arfcn: 745 rxLev: -99
arfcn: 746 rxLev: -99
arfcn: 733 rxLev: -99
arfcn: 736 rxLev: -99
arfcn: 728 rxLev: -99
arfcn: 723 rxLev: -99
arfcn: 718 rxLev: -99
arfcn: 719 rxLev: -99
$GPGGA,102203.000,4806.8857,N,00139.4169,W,1,07,1.5,46.4,M,48.3,M,,0000*7F
arfcn: 770 rxLev: -99
$GPGSA,M,3,30,07,05,02,09,13,16,,,,,,2.3,1.5,1.8*3D
arfcn: 774 rxLev: -99
arfcn: 778 rxLev: -99
$GPGSV,3,1,12,30,65,153,18,07,63,083,20,05,54,299,13,02,36,233,15*78
arfcn: 753 rxLev: -99
arfcn: 116 rxLev: -99
$GPGSV,3,2,12,09,34,075,21,13,20,259,15,16,05,021,17,28,03,146,16*74
arfcn: 516 rxLev: -99
$GPGSV,3,3,12,39,31,144,,04,41,267,,06,18,194,,29,03,303,*7A
arfcn: 659 rxLev: -99
arfcn: 661 rxLev: -100
$GPRMC,102203.000,A,4806.8857,N,00139.4169,W,0.21,267.00,060218,,,A*7A
arfcn: 663 rxLev: -100
arfcn: 638 rxLev: -100
arfcn: 113 rxLev: -100
$GPGGA,102204.000,4806.8855,N,00139.4169,W,1,07,1.5,46.5,M,48.3,M,,0000*7B
arfcn: 757 rxLev: -100
$GPGSA,M,3,30,07,05,02,09,13,16,,,,,,2.3,1.5,1.8*3D
arfcn: 761 rxLev: -100
arfcn: 767 rxLev: -100
$GPRMC,102204.000,A,4806.8855,N,00139.4169,W,0.10,267.00,060218,,,A*7D
arfcn: 765 rxLev: -100
arfcn: 766 rxLev: -100
arfcn: 777 rxLev: -100
arfcn: 780 rxLev: -100
arfcn: 773 rxLev: -100
arfcn: 716 rxLev: -100
arfcn: 735 rxLev: -100
$GPGGA,102205.000,4806.8854,N,00139.4171,W,1,07,1.5,46.6,M,48.3,M,,0000*71
arfcn: 732 rxLev: -100
arfcn: 741 rxLev: -100
$GPGSA,M,3,30,07,05,02,09,13,16,,,,,,2.3,1.5,1.8*3D
arfcn: 739 rxLev: -100
arfcn: 737 rxLev: -100
$GPRMC,102205.000,A,4806.8854,N,00139.4171,W,0.27,267.00,060218,,,A*70
arfcn: 738 rxLev: -100
arfcn: 731 rxLev: -100
arfcn: 779 rxLev: -100
arfcn: 118 rxLev: -100
arfcn: 119 rxLev: -100
arfcn: 83 rxLev: -100
arfcn: 48 rxLev: -100
$GPGGA,102206.000,4806.8852,N,00139.4174,W,1,07,1.5,46.6,M,48.3,M,,0000*71
arfcn: 49 rxLev: -100
arfcn: 639 rxLev: -100
$GPGSA,M,3,30,07,05,02,09,13,16,,,,,,2.3,1.5,1.8*3D
arfcn: 636 rxLev: -100
arfcn: 647 rxLev: -100
$GPRMC,102206.000,A,4806.8852,N,00139.4174,W,0.68,267.00,060218,,,A*7B
arfcn: 617 rxLev: -100
arfcn: 619 rxLev: -100
arfcn: 662 rxLev: -100
arfcn: 660 rxLev: -100
arfcn: 665 rxLev: -100
arfcn: 673 rxLev: -100
$GPGGA,102207.000,4806.8849,N,00139.4176,W,1,07,1.5,46.7,M,48.3,M,,0000*79
arfcn: 517 rxLev: -100
$GPGSA,M,3,30,07,05,02,09,13,16,,,,,,2.3,1.5,1.8*3D
arfcn: 610 rxLev: -100
arfcn: 1013 rxLev: -100
$GPRMC,102207.000,A,4806.8849,N,00139.4176,W,0.79,267.00,060218,,,A*72
arfcn: 609 rxLev: -101
$GPGGA,102208.000,4806.8846,N,00139.4178,W,1,07,1.5,46.7,M,48.3,M,,0000*77
$GPGSA,M,3,30,07,05,02,09,13,16,,,,,,2.3,1.5,1.8*3D
$GPGSV,3,1,12,30,65,153,18,07,63,083,21,05,54,299,13,02,36,233,14*78
$GPGSV,3,2,12,09,34,075,21,13,20,259,15,16,05,021,17,28,03,146,16*74
$GPGSV,3,3,12,39,31,144,,04,41,267,,06,18,194,,29,03,303,*7A
$GPRMC,102208.000,A,4806.8846,N,00139.4178,W,0.75,267.00,060218,,,A*70
$GPGGA,102209.000,4806.8848,N,00139.4180,W,1,07,1.5,46.6,M,48.3,M,,0000*7E
arfcn: 518 bsic: 15 rxLev: -101 ber: 1.01 mcc: 208 mnc: 01 lac: 10300 cellId: 22957 cellStatus: CELL_FORBIDDEN numArfcn: 16 arfcn: 519 520 521 522 523 524 525 526 596 597 598 599 600 601 602 603 numChannels: 13 array: 1 4 14 513 514 515 518 605 606 607 608 609 610 pbcch: 0 nom: 2 rac: 1 spgc: 0 pat: 6 nco: 0 t3168: 1000 t3192: 500 drxmax: 2 ctrlAck: 0 bsCVmax: 9 alpha: 5 pcMeasCh: 1 
arfcn: 666 rxLev: -101
$GPGSA,M,3,30,07,05,02,09,13,16,,,,,,2.3,1.5,1.8*3D
arfcn: 670 rxLev: -101
arfcn: 664 rxLev: -101
$GPRMC,102209.000,A,4806.8848,N,00139.4180,W,0.49,267.00,060218,,,A*77
arfcn: 651 rxLev: -101
arfcn: 618 rxLev: -101
arfcn: 634 rxLev: -101
arfcn: 771 rxLev: -101
arfcn: 772 rxLev: -101
arfcn: 781 rxLev: -101
arfcn: 685 rxLev: -101
arfcn: 646 rxLev: -101
$GPGGA,102210.000,4806.8850,N,00139.4182,W,1,07,1.5,46.5,M,48.3,M,,0000*7E
arfcn: 621 rxLev: -101
$GPGSA,M,3,30,07,05,02,09,13,16,,,,,,2.3,1.5,1.8*3D
arfcn: 622 rxLev: -101
arfcn: 630 rxLev: -101
$GPRMC,102210.000,A,4806.8850,N,00139.4182,W,0.68,267.00,060218,,,A*77
arfcn: 669 rxLev: -101
arfcn: 674 rxLev: -101
arfcn: 675 rxLev: -101
arfcn: 678 rxLev: -101
arfcn: 1018 rxLev: -101
$GPGGA,102211.000,4806.8855,N,00139.4183,W,1,05,2.3,46.5,M,48.3,M,,0000*7C
$GPGSA,M,3,30,07,09,13,16,,,,,,,,3.4,2.3,2.4*36
$GPRMC,102211.000,A,4806.8855,N,00139.4183,W,1.09,267.00,060218,,,A*74
$GPGGA,102212.000,4806.8856,N,00139.4186,W,1,05,2.3,46.5,M,48.3,M,,0000*79
$GPGSA,M,3,30,07,09,13,16,,,,,,,,3.4,2.3,2.4*36
$GPRMC,102212.000,A,4806.8856,N,00139.4186,W,1.08,267.00,060218,,,A*70
$GPGGA,102213.000,4806.8857,N,00139.4188,W,1,05,2.3,46.5,M,48.3,M,,0000*77
$GPGSA,M,3,30,07,09,13,16,,,,,,,,3.4,2.3,2.4*36
$GPGSV,3,1,12,30,65,153,19,07,63,083,21,09,34,075,21,13,20,259,15*78
$GPGSV,3,2,12,16,05,021,18,02,36,233,05,05,54,299,06,28,03,146,17*7F
arfcn: 987 bsic: 40 rxLev: -101 ber: 10.02 mcc: 208 mnc: 20 lac: 418 cellId: 22381 cellStatus: CELL_SUITABLE numArfcn: 0 arfcn: numChannels: 0 array:
$GPGSV,3,3,12,39,31,144,,04,41,267,,06,18,194,,29,03,303,*7A
arfcn: 0 rxLev: -101
arfcn: 89 rxLev: -101
$GPRMC,102213.000,A,4806.8857,N,00139.4188,W,0.98,267.00,060218,,,A*76
arfcn: 74 rxLev: -102
arfcn: 16 rxLev: -102
arfcn: 677 rxLev: -102
$GPGGA,102214.000,4806.8857,N,00139.4191,W,1,05,2.3,46.5,M,48.3,M,,0000*78
arfcn: 679 rxLev: -102
$GPGSA,M,3,30,07,09,13,16,,,,,,,,3.4,2.3,2.4*36
arfcn: 671 rxLev: -102
arfcn: 667 rxLev: -102
$GPRMC,102214.000,A,4806.8857,N,00139.4191,W,1.03,267.00,060218,,,A*7A
arfcn: 649 rxLev: -102
arfcn: 632 rxLev: -102
arfcn: 625 rxLev: -102
arfcn: 620 rxLev: -102
arfcn: 648 rxLev: -102
arfcn: 633 rxLev: -102
arfcn: 635 rxLev: -102
arfcn: 688 rxLev: -102
$GPGGA,102215.000,4806.8860,N,00139.4189,W,1,05,2.3,46.4,M,48.3,M,,0000*75
arfcn: 782 rxLev: -102
$GPGSA,M,3,30,07,09,13,16,,,,,,,,3.4,2.3,2.4*36
arfcn: 788 rxLev: -102
$GPRMC,102215.000,A,4806.8860,N,00139.4189,W,0.65,267.00,060218,,,A*77
arfcn: 687 rxLev: -102
arfcn: 682 rxLev: -102
arfcn: 705 rxLev: -102
arfcn: 697 rxLev: -102
arfcn: 637 rxLev: -102
arfcn: 642 rxLev: -102
arfcn: 624 rxLev: -102
arfcn: 631 rxLev: -102
$GPGGA,102216.000,4806.8861,N,00139.4188,W,1,05,2.3,46.4,M,48.3,M,,0000*76
arfcn: 629 rxLev: -102
arfcn: 650 rxLev: -102
$GPGSA,M,3,30,07,09,13,16,,,,,,,,3.4,2.3,2.4*36
arfcn: 668 rxLev: -102
$GPRMC,102216.000,A,4806.8861,N,00139.4188,W,0.58,267.00,060218,,,A*7A
arfcn: 676 rxLev: -102
arfcn: 680 rxLev: -103
arfcn: 672 rxLev: -103
arfcn: 652 rxLev: -103
arfcn: 653 rxLev: -103
arfcn: 657 rxLev: -103
arfcn: 658 rxLev: -103
arfcn: 626 rxLev: -103
arfcn: 628 rxLev: -103
$GPGGA,102217.000,4806.8861,N,00139.4185,W,1,05,2.3,46.4,M,48.3,M,,0000*7A
$GPGSA,M,3,30,07,09,13,16,,,,,,,,3.4,2.3,2.4*36
arfcn: 623 rxLev: -103
$GPRMC,102217.000,A,4806.8861,N,00139.4185,W,0.27,267.00,060218,,,A*7E
arfcn: 641 rxLev: -103
arfcn: 643 rxLev: -103
arfcn: 640 rxLev: -103
arfcn: 607 rxLev: -103
arfcn: 704 rxLev: -103
arfcn: 706 rxLev: -103
arfcn: 689 rxLev: -103
arfcn: 690 rxLev: -103
$GPGGA,102218.000,4806.8861,N,00139.4184,W,1,05,2.3,46.3,M,48.3,M,,0000*73
arfcn: 692 rxLev: -103
arfcn: 681 rxLev: -103
$GPGSA,M,3,30,07,09,13,16,,,,,,,,3.4,2.3,2.4*36
arfcn: 684 rxLev: -103
arfcn: 686 rxLev: -103
$GPGSV,3,1,12,30,65,153,19,07,63,083,21,09,34,075,20,13,20,259,16*7A
arfcn: 702 rxLev: -103
arfcn: 698 rxLev: -103
$GPGSV,3,2,12,16,05,021,18,02,36,233,04,05,54,299,06,28,03,146,17*7E
arfcn: 700 rxLev: -103
$GPGSV,3,3,12,39,31,144,,04,41,267,,06,18,194,,29,03,303,*7A
arfcn: 1022 rxLev: -103
arfcn: 644 rxLev: -103
$GPRMC,102218.000,A,4806.8861,N,00139.4184,W,0.50,267.00,060218,,,A*70
arfcn: 654 rxLev: -103
arfcn: 656 rxLev: -103
arfcn: 655 rxLev: -104
$GPGGA,102219.000,4806.8865,N,00139.4183,W,1,05,2.3,46.2,M,48.3,M,,0000*70
