#CCLK: "17/12/22,09:06:59+04"

OK
at#csurv

Network survey started ...


at#cclk?
#CCLK: "17/12/22,09:06:59+04"

OK
$GPGGA,080700.000,4757.6463,N,00124.4990,W,1,11,0.8,44.8,M,48.1,M,,0000*79
at#cclk?
#CCLK: "17/12/22,09:07:00+04"

OK
at#csurv

Network survey started ...


at#cclk?
#CCLK: "17/12/22,09:07:00+04"

OK
$GPGSA,M,3,22,03,01,11,17,14,23,19,32,28,31,,1.3,0.8,1.0*34
$GPRMC,080700.000,A,4757.6463,N,00124.4990,W,12.21,140.91,221217,,,A*4E
at#cclk?
#CCLK: "17/12/22,09:07:01+04"

OK
at#csurv

Network survey started ...


at#cclk?
#CCLK: "17/12/22,09:07:01+04"

OK
$GPGGA,080701.000,4757.6448,N,00124.4935,W,1,11,0.8,44.9,M,48.1,M,,0000*7F
$GPGSA,M,3,22,03,01,11,17,14,23,19,32,28,31,,1.3,0.8,1.0*34
$GPRMC,080701.000,A,4757.6448,N,00124.4935,W,13.52,124.38,221217,,,A*4D
at#cclk?
#CCLK: "17/12/22,09:07:01+04"

OK
at#csurv

Network survey started ...


at#cclk?
#CCLK: "17/12/22,09:07:02+04"

OK
$GPGGA,080702.000,4757.6431,N,00124.4878,W,1,11,0.8,45.1,M,48.1,M,,0000*73
$GPGSA,M,3,22,03,01,11,17,14,23,19,32,28,31,,1.3,0.8,1.0*34
at#cclk?
#CCLK: "17/12/22,09:07:02+04"

OK
at#csurv

Network survey started ...


$GPRMC,080702.000,A,4757.6431,N,00124.4878,W,14.23,115.35,221217,,,A*46
at#cclk?
#CCLK: "17/12/22,09:07:02+04"

OK
at#cclk?
#CCLK: "17/12/22,09:07:03+04"

OK
at#csurv

Network survey started ...

$GPGGA,080703.000,4757.6415,N,00124.4821,W,1,11,0.8,44.9,M,48.1,M,,0000*71
$GPGSA,M,3,22,03,01,11,17,14,23,19,32,28,31,,1.3,0.8,1.0*34
$GPGSV,3,1,12,22,79,058,27,03,76,256,30,01,71,096,40,11,55,144,35*75
$GPGSV,3,2,12,17,41,302,34,14,30,051,24,23,26,181,31,19,23,315,24*7D
$GPGSV,3,3,12,32,13,038,19,28,12,249,23,31,08,084,18,33,33,198,31*70
$GPRMC,080703.000,A,4757.6415,N,00124.4821,W,13.30,111.39,221217,,,A*40
$GPGGA,080704.000,4757.6404,N,00124.4770,W,1,11,0.8,44.7,M,48.1,M,,0000*73
$GPGSA,M,3,22,03,01,11,17,14,23,19,32,28,31,,1.3,0.8,1.0*34
$GPRMC,080704.000,A,4757.6404,N,00124.4770,W,11.11,108.58,221217,,,A*42
$GPGGA,080705.000,4757.6393,N,00124.4724,W,1,11,0.8,44.8,M,48.1,M,,0000*75
$GPGSA,M,3,22,03,01,11,17,14,23,19,32,28,31,,1.3,0.8,1.0*34
$GPRMC,080705.000,A,4757.6393,N,00124.4724,W,11.73,107.04,221217,,,A*49
$GPGGA,080706.000,4757.6379,N,00124.4677,W,1,11,0.8,44.9,M,48.1,M,,0000*74
$GPGSA,M,3,22,03,01,11,17,14,23,19,28,31,08,,1.3,0.8,1.0*3D
$GPRMC,080706.000,A,4757.6379,N,00124.4677,W,11.12,114.39,221217,,,A*42
$GPGGA,080707.000,4757.6365,N,00124.4635,W,1,11,0.8,45.0,M,48.1,M,,0000*76
$GPGSA,M,3,22,03,01,11,17,14,23,19,28,31,08,,1.3,0.8,1.0*3D
$GPRMC,080707.000,A,4757.6365,N,00124.4635,W,10.52,114.52,221217,,,A*40
$GPGGA,080708.000,4757.6351,N,00124.4594,W,1,11,0.8,44.7,M,48.1,M,,0000*70
$GPGSA,M,3,22,03,01,11,17,14,23,19,28,31,08,,1.3,0.8,1.0*3D
$GPGSV,3,1,12,22,79,058,35,03,76,256,34,01,71,096,47,11,55,144,27*76
$GPGSV,3,2,12,17,41,302,29,14,30,051,25,23,26,181,29,19,23,315,22*7F
$GPGSV,3,3,12,28,12,249,23,31,08,084,27,08,08,164,17,33,33,198,*7B
$GPRMC,080708.000,A,4757.6351,N,00124.4594,W,8.28,118.51,221217,,,A*7B
$GPGGA,080709.000,4757.6340,N,00124.4557,W,1,11,0.8,44.6,M,48.1,M,,0000*7F
$GPGSA,M,3,22,03,01,11,17,14,23,19,28,31,08,,1.3,0.8,1.0*3D
$GPRMC,080709.000,A,4757.6340,N,00124.4557,W,7.29,123.36,221217,,,A*72
arfcn: 82 bsic: 4 rxLev: -90 ber: 2.01 mcc: 208 mnc: 10 lac: 6001 cellId: 13590 cellStatus: CELL_FORBIDDEN numArfcn: 3 arfcn: 78 80 82 numChannels: 13 array: 77 79 81 83 85 86 87 113 115 117 118 119 124 pbcch: 0 nom: 2 rac: 61 spgc: 0 pat: 6 nco: 0 t3168: 1000 t3192: 500 drxmax: 2 ctrlAck: 0 bsCVmax: 9 alpha: 7 pcMeasCh: 1 


arfcn: 124 rxLev: -90


$GPGGA,080710.000,4757.6327,N,00124.4533,W,1,10,0.9,44.2,M,48.1,M,,0000*70
$GPGSA,M,3,22,03,01,11,17,14,23,19,28,31,,,1.4,0.9,1.1*32
$GPRMC,080710.000,A,4757.6327,N,00124.4533,W,6.84,137.48,221217,,,A*73
$GPGGA,080711.000,4757.6305,N,00124.4520,W,1,11,0.8,44.2,M,48.1,M,,0000*73
$GPGSA,M,3,22,03,01,11,17,14,23,19,32,28,31,,1.3,0.8,1.0*34
$GPRMC,080711.000,A,4757.6305,N,00124.4520,W,8.12,158.19,221217,,,A*7C
arfcn: 81 bsic: 11 rxLev: -91 ber: 0.00 mcc: 208 mnc: 10 lac: 6001 cellId: 49645 cellStatus: CELL_FORBIDDEN numArfcn: 2 arfcn: 81 83 numChannels: 17 array: 77 78 79 80 82 83 85 86 87 113 114 115 117 118 120 122 124 pbcch: 0 nom: 2 rac: 61 spgc: 0 pat: 6 nco: 0 t3168: 1000 t3192: 500 drxmax: 2 ctrlAck: 0 bsCVmax: 9 alpha: 7 pcMeasCh: 1 


arfcn: 8 rxLev: -92


arfcn: 115 rxLev: -93


arfcn: 94 rxLev: -95


arfcn: 96 rxLev: -95


arfcn: 98 rxLev: -96


arfcn: 609 rxLev: -96


$GPGGA,080712.000,4757.6276,N,00124.4517,W,1,11,0.8,44.3,M,48.1,M,,0000*70
arfcn: 97 rxLev: -96


arfcn: 99 rxLev: -96


$GPGSA,M,3,22,03,01,11,17,14,23,19,32,28,31,,1.3,0.8,1.0*34
arfcn: 95 rxLev: -96


arfcn: 93 rxLev: -96


$GPRMC,080712.000,A,4757.6276,N,00124.4517,W,10.38,172.05,221217,,,A*4A
arfcn: 92 rxLev: -96


arfcn: 68 rxLev: -96


arfcn: 100 rxLev: -97


arfcn: 102 rxLev: -97


arfcn: 103 rxLev: -97


arfcn: 104 rxLev: -97


arfcn: 105 rxLev: -97


arfcn: 1022 bsic: 45 rxLev: -97 ber: 5.03 mcc: 208 mnc: 20 lac: 284 cellId: 38538 cellStatus: CELL_SUITABLE numArfcn: 1 arfcn: 1022 numChannels: 23 array: 975 976 979 980 981 982 984 986 987 1011 1012 1013 1014 1015 1017 1018 1020 1021 1022 788 876 881 884 pbcch: 0 nom: 2 rac: 6 spgc: 0 pat: 6 nco: 0 t3168: 1500 t3192: 500 drxmax: 0 ctrlAck: 0 bsCVmax: 8 alpha: 6 pcMeasCh: 1 


arfcn: 106 rxLev: -97


$GPGGA,080713.000,4757.6244,N,00124.4528,W,1,10,0.9,44.4,M,48.1,M,,0000*7B
arfcn: 108 rxLev: -97


arfcn: 101 rxLev: -97


$GPGSA,M,3,22,03,01,11,17,14,23,19,28,31,,,1.4,0.9,1.1*32
arfcn: 123 rxLev: -97


arfcn: 107 rxLev: -98


$GPGSV,3,1,12,22,79,058,43,03,76,256,32,01,71,096,41,11,55,144,41*77
arfcn: 91 rxLev: -98


$GPGSV,3,2,12,17,41,302,39,14,30,051,34,23,26,181,25,19,23,315,19*7A
$GPGSV,3,3,12,28,12,249,20,31,08,084,27,32,13,038,13,33,33,198,24*71
$GPRMC,080713.000,A,4757.6244,N,00124.4528,W,12.59,197.72,221217,,,A*48
$GPGGA,080714.000,4757.6210,N,00124.4546,W,1,11,0.8,44.4,M,48.1,M,,0000*75
$GPGSA,M,3,22,03,01,11,17,14,23,19,32,28,31,,1.3,0.8,1.0*34
$GPRMC,080714.000,A,4757.6210,N,00124.4546,W,13.34,199.62,221217,,,A*43
$GPGGA,080715.000,4757.6171,N,00124.4561,W,1,11,0.8,44.6,M,48.1,M,,0000*77
$GPGSA,M,3,22,03,01,11,17,14,23,19,32,28,31,,1.3,0.8,1.0*34
$GPRMC,080715.000,A,4757.6171,N,00124.4561,W,13.89,192.75,221217,,,A*48
$GPGGA,080716.000,4757.6131,N,00124.4563,W,1,11,0.8,44.7,M,48.1,M,,0000*73
arfcn: 987 bsic: 46 rxLev: -98 ber: 0.00 mcc: 208 mnc: 20 lac: 284 cellId: 22571 cellStatus: CELL_SUITABLE numArfcn: 2 arfcn: 987 1010 numChannels: 24 array: 787 789 792 794 881 885 975 976 977 978 980 981 982 983 987 1013 1014 1015 1016 1017 1018 1020 1021 1022 pbcch: 0 nom: 2 rac: 6 spgc: 0 pat: 6 nco: 0 t3168: 1500 t3192: 500 drxmax: 0 ctrlAck: 0 bsCVmax: 8 alpha: 6 pcMeasCh: 1 


arfcn: 111 rxLev: -99


$GPGSA,M,3,22,03,01,11,17,14,23,19,32,28,31,,1.3,0.8,1.0*34
arfcn: 109 rxLev: -99


$GPRMC,080716.000,A,4757.6131,N,00124.4563,W,15.43,180.62,221217,,,A*48
$GPGGA,080717.000,4757.6087,N,00124.4556,W,1,11,0.8,44.3,M,48.1,M,,0000*7C
$GPGSA,M,3,22,03,01,11,17,14,23,19,32,28,31,,1.3,0.8,1.0*34
$GPRMC,080717.000,A,4757.6087,N,00124.4556,W,15.81,176.63,221217,,,A*45
$GPGGA,080718.000,4757.6041,N,00124.4547,W,1,11,0.8,44.2,M,48.1,M,,0000*78
$GPGSA,M,3,22,03,01,11,17,14,23,19,32,28,31,,1.3,0.8,1.0*34
$GPGSV,3,1,12,22,79,058,36,03,76,256,32,01,71,096,34,11,55,144,27*77
$GPGSV,3,2,12,17,41,302,35,14,30,051,27,23,26,181,34,19,23,315,30*7F
$GPGSV,3,3,12,32,13,038,22,28,12,249,30,31,08,084,24,33,33,198,35*71
$GPRMC,080718.000,A,4757.6041,N,00124.4547,W,17.17,175.97,221217,,,A*45
$GPGGA,080719.000,4757.5992,N,00124.4541,W,1,11,0.8,44.0,M,48.1,M,,0000*79
$GPGSA,M,3,22,03,01,11,17,14,23,19,32,28,31,,1.3,0.8,1.0*34
$GPRMC,080719.000,A,4757.5992,N,00124.4541,W,17.17,177.15,221217,,,A*4E
arfcn: 977 bsic: 33 rxLev: -99 ber: 2.02 mcc: 208 mnc: 20 lac: 413 cellId: 20368 cellStatus: CELL_OTHER numArfcn: 1 arfcn: 977 numChannels: 20 array: 880 884 975 976 979 980 982 983 984 985 986 987 1011 1013 1014 1015 1018 1019 1021 1022 pbcch: 0 nom: 2 rac: 1 spgc: 0 pat: 6 nco: 0 t3168: 1500 t3192: 500 drxmax: 0 ctrlAck: 0 bsCVmax: 8 alpha: 6 pcMeasCh: 1 


arfcn: 75 rxLev: -99


arfcn: 729 rxLev: -99


arfcn: 849 rxLev: -99


arfcn: 67 rxLev: -100


$GPGGA,080720.000,4757.5945,N,00124.4535,W,1,11,0.8,43.7,M,48.1,M,,0000*7A
$GPGSA,M,3,22,03,01,11,17,14,23,19,32,28,31,,1.3,0.8,1.0*34
$GPRMC,080720.000,A,4757.5945,N,00124.4535,W,17.76,175.89,221217,,,A*4D
$GPGGA,080721.000,4757.5893,N,00124.4527,W,1,11,0.8,43.2,M,48.1,M,,0000*77
$GPGSA,M,3,22,03,01,11,17,14,23,19,32,28,31,,1.3,0.8,1.0*34
$GPRMC,080721.000,A,4757.5893,N,00124.4527,W,19.24,175.91,221217,,,A*45
arfcn: 5 bsic: 43 rxLev: -100 ber: 0.00 mcc: 208 mnc: 01 lac: 10300 cellId: 57179 cellStatus: CELL_FORBIDDEN numArfcn: 13 arfcn: 5 17 18 19 20 21 22 23 24 25 47 48 49 numChannels: 14 array: 1 2 3 4 5 6 7 8 9 11 12 13 14 15 pbcch: 0 nom: 2 rac: 1 spgc: 1 pat: 6 nco: 0 t3168: 1000 t3192: 500 drxmax: 4 ctrlAck: 1 bsCVmax: 9 alpha: 7 pcMeasCh: 0 


$GPGGA,080722.000,4757.5840,N,00124.4520,W,1,11,0.8,42.8,M,48.1,M,,0000*76
$GPGSA,M,3,22,03,01,11,17,14,23,19,32,28,31,,1.3,0.8,1.0*34
$GPRMC,080722.000,A,4757.5840,N,00124.4520,W,19.85,175.37,221217,,,A*48
$GPGGA,080723.000,4757.5784,N,00124.4514,W,1,11,0.8,42.7,M,48.1,M,,0000*78
$GPGSA,M,3,22,03,01,11,17,14,23,19,32,28,31,,1.3,0.8,1.0*34
$GPGSV,3,1,12,22,79,058,38,03,76,256,33,01,71,096,34,11,55,144,27*78
$GPGSV,3,2,12,17,41,302,35,14,30,051,28,23,26,181,29,19,23,315,32*7E
$GPGSV,3,3,12,32,13,038,23,28,12,249,30,31,08,084,28,33,33,198,33*7A
$GPRMC,080723.000,A,4757.5784,N,00124.4514,W,20.67,176.91,221217,,,A*40
$GPGGA,080724.000,4757.5728,N,00124.4508,W,1,11,0.8,42.6,M,48.1,M,,0000*75
$GPGSA,M,3,22,03,01,11,17,14,23,19,32,28,31,,1.3,0.8,1.0*34
$GPRMC,080724.000,A,4757.5728,N,00124.4508,W,20.90,177.89,221217,,,A*4C
$GPGGA,080725.000,4757.5671,N,00124.4503,W,1,11,0.8,42.3,M,48.1,M,,0000*77
$GPGSA,M,3,22,03,01,11,17,14,23,19,32,28,31,,1.3,0.8,1.0*34
arfcn: 11 bsic: 30 rxLev: -100 ber: 0.00 mcc: 208 mnc: 01 lac: 10300 cellId: 12921 cellStatus: CELL_FORBIDDEN numArfcn: 13 arfcn: 11 17 18 19 20 21 22 23 24 25 47 48 49 numChannels: 13 array: 1 2 3 4 5 6 7 9 11 12 13 14 15 pbcch: 0 nom: 2 rac: 1 spgc: 1 pat: 6 nco: 0 t3168: 1000 t3192: 500 drxmax: 4 ctrlAck: 1 bsCVmax: 9 alpha: 7 pcMeasCh: 0 


arfcn: 90 rxLev: -100


$GPRMC,080725.000,A,4757.5671,N,00124.4503,W,20.41,177.17,221217,,,A*40
$GPGGA,080726.000,4757.5616,N,00124.4495,W,1,11,0.8,42.3,M,48.1,M,,0000*7B
$GPGSA,M,3,22,03,01,11,17,14,23,19,32,28,31,,1.3,0.8,1.0*34
$GPRMC,080726.000,A,4757.5616,N,00124.4495,W,19.07,173.26,221217,,,A*42
$GPGGA,080727.000,4757.5561,N,00124.4481,W,1,11,0.8,42.5,M,48.1,M,,0000*7A
$GPGSA,M,3,22,03,01,11,17,14,23,19,32,28,31,,1.3,0.8,1.0*34
$GPRMC,080727.000,A,4757.5561,N,00124.4481,W,19.38,167.57,221217,,,A*4A
$GPGGA,080728.000,4757.5506,N,00124.4452,W,1,11,0.8,42.7,M,48.1,M,,0000*78
$GPGSA,M,3,22,03,01,11,17,14,23,19,32,28,31,,1.3,0.8,1.0*34
$GPGSV,3,1,12,22,79,058,32,03,76,256,32,01,71,096,43,11,55,144,25*71
$GPGSV,3,2,12,17,41,302,34,14,30,051,28,23,26,181,29,19,23,315,40*7A
$GPGSV,3,3,12,32,13,038,30,28,12,249,32,31,08,084,28,33,33,198,27*7F
$GPRMC,080728.000,A,4757.5506,N,00124.4452,W,19.66,161.23,221217,,,A*44
$GPGGA,080729.000,4757.5457,N,00124.4418,W,1,11,0.8,42.5,M,48.1,M,,0000*70
$GPGSA,M,3,22,03,01,11,17,14,23,19,32,28,31,,1.3,0.8,1.0*34
$GPRMC,080729.000,A,4757.5457,N,00124.4418,W,19.34,155.39,221217,,,A*45
$GPGGA,080730.000,4757.5411,N,00124.4369,W,1,10,1.0,42.4,M,48.1,M,,0000*72
$GPGSA,M,3,22,03,01,11,17,14,23,19,32,31,,,1.6,1.0,1.2*30
$GPRMC,080730.000,A,4757.5411,N,00124.4369,W,19.65,144.71,221217,,,A*46
$GPGGA,080731.000,4757.5371,N,00124.4315,W,1,11,0.8,42.8,M,48.1,M,,0000*7D
$GPGSA,M,3,22,03,01,11,17,14,23,19,28,31,08,,1.3,0.8,1.0*3D
$GPRMC,080731.000,A,4757.5371,N,00124.4315,W,20.39,139.23,221217,,,A*43
$GPGGA,080732.000,4757.5336,N,00124.4247,W,1,11,0.8,42.7,M,48.1,M,,0000*74
$GPGSA,M,3,22,03,01,11,17,14,23,19,28,31,08,,1.3,0.8,1.0*3D
$GPRMC,080732.000,A,4757.5336,N,00124.4247,W,20.41,131.46,221217,,,A*41
$GPGGA,080733.000,4757.5303,N,00124.4178,W,1,11,0.8,43.1,M,48.1,M,,0000*7B
$GPGSA,M,3,22,03,01,11,17,14,23,19,28,31,08,,1.3,0.8,1.0*3D
$GPGSV,3,1,12,22,79,058,34,03,76,256,43,01,71,096,44,11,55,144,30*72
$GPGSV,3,2,12,17,41,302,29,14,30,051,27,23,26,181,24,19,23,315,28*7A
$GPGSV,3,3,12,28,12,249,23,31,08,084,20,08,08,164,20,33,33,198,33*78
$GPRMC,080733.000,A,4757.5303,N,00124.4178,W,20.61,129.05,221217,,,A*45
$GPGGA,080734.000,4757.5261,N,00124.4117,W,1,11,0.8,43.0,M,48.1,M,,0000*71
$GPGSA,M,3,22,03,01,11,17,14,23,19,32,28,31,,1.3,0.8,1.0*34
$GPRMC,080734.000,A,4757.5261,N,00124.4117,W,20.61,139.46,221217,,,A*48
$GPGGA,080735.000,4757.5212,N,00124.4072,W,1,11,0.8,43.5,M,48.1,M,,0000*73
$GPGSA,M,3,22,03,01,11,17,14,23,19,32,28,31,,1.3,0.8,1.0*34
$GPRMC,080735.000,A,4757.5212,N,00124.4072,W,20.31,153.97,221217,,,A*4A
$GPGGA,080736.000,4757.5159,N,00124.4043,W,1,11,0.8,43.6,M,48.1,M,,0000*7D
$GPGSA,M,3,22,03,01,11,17,14,23,19,32,28,31,,1.3,0.8,1.0*34
$GPRMC,080736.000,A,4757.5159,N,00124.4043,W,19.72,161.76,221217,,,A*44
$GPGGA,080737.000,4757.5099,N,00124.4036,W,1,10,0.9,43.0,M,48.1,M,,0000*75
$GPGSA,M,3,22,03,01,11,17,23,32,28,31,08,,,1.3,0.9,0.9*38
$GPRMC,080737.000,A,4757.5099,N,00124.4036,W,21.16,172.30,221217,,,A*43
$GPGGA,080738.000,4757.5035,N,00124.4062,W,1,11,0.8,42.3,M,48.1,M,,0000*7F
$GPGSA,M,3,22,03,01,11,17,14,23,19,32,28,31,,1.3,0.8,1.0*34
$GPGSV,3,1,12,22,79,058,42,03,76,256,37,01,71,096,40,11,55,144,42*71
$GPGSV,3,2,12,17,41,302,36,14,30,051,26,23,26,181,32,19,23,315,24*7E
$GPGSV,3,3,12,32,13,038,17,28,12,249,25,31,08,084,20,33,33,198,31*73
$GPRMC,080738.000,A,4757.5035,N,00124.4062,W,22.14,190.48,221217,,,A*49
$GPGGA,080739.000,4757.4970,N,00124.4090,W,1,11,0.8,41.9,M,48.1,M,,0000*73
$GPGSA,M,3,22,03,01,11,17,14,23,19,32,28,31,,1.3,0.8,1.0*34
$GPRMC,080739.000,A,4757.4970,N,00124.4090,W,22.27,191.82,221217,,,A*4B
$GPGGA,080740.000,4757.4905,N,00124.4114,W,1,11,0.8,41.8,M,48.1,M,,0000*73
$GPGSA,M,3,22,03,01,11,17,14,23,19,32,28,31,,1.3,0.8,1.0*34
$GPRMC,080740.000,A,4757.4905,N,00124.4114,W,23.02,191.22,221217,,,A*46
$GPGGA,080741.000,4757.4835,N,00124.4142,W,1,11,0.8,42.0,M,48.1,M,,0000*78
$GPGSA,M,3,22,03,01,11,17,14,23,19,32,28,31,,1.3,0.8,1.0*34
$GPRMC,080741.000,A,4757.4835,N,00124.4142,W,23.79,189.11,221217,,,A*43
$GPGGA,080742.000,4757.4767,N,00124.4160,W,1,11,0.8,41.6,M,48.1,M,,0000*76
$GPGSA,M,3,22,03,01,11,17,14,23,19,32,28,31,,1.3,0.8,1.0*34
$GPRMC,080742.000,A,4757.4767,N,00124.4160,W,24.58,188.51,221217,,,A*49
$GPGGA,080743.000,4757.4693,N,00124.4183,W,1,11,0.8,42.3,M,48.1,M,,0000*76
$GPGSA,M,3,22,03,01,11,17,14,23,19,32,28,31,,1.3,0.8,1.0*34
$GPGSV,3,1,12,22,79,058,43,03,76,256,28,01,71,096,41,11,55,144,43*7E
$GPGSV,3,2,12,17,41,302,38,14,30,051,29,23,26,181,34,19,23,315,37*7B
$GPGSV,3,3,12,32,13,038,29,28,12,249,35,31,08,084,29,33,33,198,30*77
arfcn: 979 bsic: 25 rxLev: -100 ber: 0.05 mcc: 208 mnc: 20 lac: 413 cellId: 20178 cellStatus: CELL_OTHER numArfcn: 1 arfcn: 979 numChannels: 19 array: 975 976 977 978 981 982 983 984 985 987 1011 1013 1014 1015 1017 1019 1020 1021 1022 pbcch: 0 nom: 2 rac: 1 spgc: 0 pat: 6 nco: 0 t3168: 1500 t3192: 500 drxmax: 0 ctrlAck: 0 bsCVmax: 8 alpha: 6 pcMeasCh: 1 


arfcn: 120 rxLev: -100


$GPRMC,080743.000,A,4757.4693,N,00124.4183,W,25.28,188.21,221217,,,A*4E
arfcn: 83 rxLev: -101


arfcn: 78 rxLev: -101


$GPGGA,080744.000,4757.4620,N,00124.4202,W,1,11,0.8,42.7,M,48.1,M,,0000*77
$GPGSA,M,3,22,03,01,11,17,14,23,19,32,28,31,,1.3,0.8,1.0*34
$GPRMC,080744.000,A,4757.4620,N,00124.4202,W,25.72,187.57,221217,,,A*4A
$GPGGA,080745.000,4757.4545,N,00124.4221,W,1,11,0.8,43.1,M,48.1,M,,0000*70
$GPGSA,M,3,22,03,01,11,17,14,23,19,32,28,31,,1.3,0.8,1.0*34
$GPRMC,080745.000,A,4757.4545,N,00124.4221,W,26.18,187.30,221217,,,A*44
$GPGGA,080746.000,4757.4470,N,00124.4239,W,1,11,0.8,43.6,M,48.1,M,,0000*7A
$GPGSA,M,3,22,03,01,11,17,14,23,19,32,28,31,,1.3,0.8,1.0*34
$GPRMC,080746.000,A,4757.4470,N,00124.4239,W,26.69,187.14,221217,,,A*49
$GPGGA,080747.000,4757.4393,N,00124.4256,W,1,11,0.8,43.9,M,48.1,M,,0000*77
$GPGSA,M,3,22,03,01,11,17,14,23,19,32,28,31,,1.3,0.8,1.0*34
$GPRMC,080747.000,A,4757.4393,N,00124.4256,W,27.22,187.50,221217,,,A*45
$GPGGA,080748.000,4757.4316,N,00124.4274,W,1,11,0.8,44.3,M,48.1,M,,0000*78
$GPGSA,M,3,22,03,01,11,17,14,23,19,32,28,31,,1.3,0.8,1.0*34
$GPGSV,3,1,12,22,78,059,43,03,77,260,33,01,70,099,41,11,54,144,43*7F
$GPGSV,3,2,12,17,42,301,38,14,29,050,29,23,27,181,27,19,24,315,37*76
$GPGSV,3,3,12,32,12,038,33,28,11,248,35,31,09,083,19,33,33,198,29*72
$GPRMC,080748.000,A,4757.4316,N,00124.4274,W,27.65,188.27,221217,,,A*4B
$GPGGA,080749.000,4757.4238,N,00124.4293,W,1,11,0.8,44.5,M,48.1,M,,0000*7B
$GPGSA,M,3,22,03,01,11,17,14,23,19,32,28,31,,1.3,0.8,1.0*34
$GPRMC,080749.000,A,4757.4238,N,00124.4293,W,27.83,188.37,221217,,,A*47
arfcn: 79 bsic: 5 rxLev: -101 ber: 8.11 mcc: 208 mnc: 10 lac: 6001 cellId: 13551 cellStatus: CELL_FORBIDDEN numArfcn: 2 arfcn: 79 89 numChannels: 14 array: 76 77 78 79 81 82 83 85 86 87 113 117 119 124 pbcch: 0 nom: 2 rac: 61 spgc: 0 pat: 6 nco: 0 t3168: 1000 t3192: 500 drxmax: 2 ctrlAck: 0 bsCVmax: 9 alpha: 7 pcMeasCh: 1 


arfcn: 80 rxLev: -101


arfcn: 66 rxLev: -101


arfcn: 63 rxLev: -101


$GPGGA,080750.000,4757.4161,N,00124.4311,W,1,11,0.8,44.7,M,48.1,M,,0000*75
arfcn: 13 rxLev: -101


arfcn: 122 rxLev: -101


$GPGSA,M,3,22,03,01,11,17,14,23,19,32,28,31,,1.3,0.8,1.0*34
arfcn: 110 rxLev: -101


$GPRMC,080750.000,A,4757.4161,N,00124.4311,W,27.71,187.80,221217,,,A*45
$GPGGA,080751.000,4757.4084,N,00124.4328,W,1,11,0.8,45.0,M,48.1,M,,0000*72
$GPGSA,M,3,22,03,01,11,17,14,23,19,32,28,31,,1.3,0.8,1.0*34
$GPRMC,080751.000,A,4757.4084,N,00124.4328,W,27.45,187.22,221217,,,A*4B
$GPGGA,080752.000,4757.4007,N,00124.4344,W,1,11,0.8,45.2,M,48.1,M,,0000*72
$GPGSA,M,3,22,03,01,11,17,14,23,19,32,28,31,,1.3,0.8,1.0*34
$GPRMC,080752.000,A,4757.4007,N,00124.4344,W,27.16,187.27,221217,,,A*4A
$GPGGA,080753.000,4757.3931,N,00124.4360,W,1,11,0.8,45.4,M,48.1,M,,0000*78
$GPGSA,M,3,22,03,01,11,17,14,23,19,32,28,31,,1.3,0.8,1.0*34
$GPGSV,3,1,12,22,78,059,44,03,77,260,35,01,70,099,41,11,54,144,42*7F
$GPGSV,3,2,12,17,42,301,37,14,29,050,29,23,27,181,27,19,24,315,38*76
$GPGSV,3,3,12,32,12,038,33,28,11,248,26,31,09,083,26,33,33,198,28*7D
arfcn: 1017 bsic: 9 rxLev: -101 ber: 0.00 mcc: 208 mnc: 20 lac: 284 cellId: 22570 cellStatus: CELL_SUITABLE numArfcn: 1 arfcn: 1017 numChannels: 20 array: 787 789 881 885 975 978 980 981 982 983 985 987 1011 1014 1015 1016 1018 1020 1021 1022 pbcch: 0 nom: 2 rac: 6 spgc: 0 pat: 6 nco: 0 t3168: 1500 t3192: 500 drxmax: 0 ctrlAck: 0 bsCVmax: 8 alpha: 6 pcMeasCh: 1 


arfcn: 549 rxLev: -101


$GPRMC,080753.000,A,4757.3931,N,00124.4360,W,26.91,187.46,221217,,,A*4F
arfcn: 121 rxLev: -102


$GPGGA,080754.000,4757.3856,N,00124.4376,W,1,11,0.8,45.5,M,48.1,M,,0000*79
$GPGSA,M,3,22,03,01,11,17,14,23,19,32,28,31,,1.3,0.8,1.0*34
$GPRMC,080754.000,A,4757.3856,N,00124.4376,W,26.65,187.80,221217,,,A*4E
$GPGGA,080755.000,4757.3783,N,00124.4392,W,1,11,0.8,45.8,M,48.1,M,,0000*78
$GPGSA,M,3,22,03,01,11,17,14,23,19,32,28,31,,1.3,0.8,1.0*34
$GPRMC,080755.000,A,4757.3783,N,00124.4392,W,26.20,188.04,221217,,,A*40
$GPGGA,080756.000,4757.3711,N,00124.4410,W,1,11,0.8,45.8,M,48.1,M,,0000*7D
$GPGSA,M,3,22,03,01,11,17,14,23,19,32,28,31,,1.3,0.8,1.0*34
$GPRMC,080756.000,A,4757.3711,N,00124.4410,W,25.74,189.31,221217,,,A*40
$GPGGA,080757.000,4757.3642,N,00124.4431,W,1,11,0.8,46.1,M,48.1,M,,0000*72
$GPGSA,M,3,22,03,01,11,17,14,23,19,32,28,31,,1.3,0.8,1.0*34
$GPRMC,080757.000,A,4757.3642,N,00124.4431,W,25.44,193.37,221217,,,A*4B
arfcn: 87 bsic: 34 rxLev: -102 ber: 0.03 mcc: 208 mnc: 10 lac: 30514 cellId: 20354 cellStatus: CELL_FORBIDDEN numArfcn: 3 arfcn: 84 85 87 numChannels: 15 array: 77 78 79 80 81 82 83 86 113 114 115 117 120 123 124 pbcch: 0 nom: 2 rac: 1 spgc: 0 pat: 6 nco: 0 t3168: 1500 t3192: 500 drxmax: 0 ctrlAck: 0 bsCVmax: 8 alpha: 6 pcMeasCh: 1 


arfcn: 64 rxLev: -102


arfcn: 62 rxLev: -102


arfcn: 65 rxLev: -102


arfcn: 982 rxLev: -102


arfcn: 993 rxLev: -102


arfcn: 994 rxLev: -102


arfcn: 995 rxLev: -102


arfcn: 996 rxLev: -102


$GPGGA,080758.000,4757.3575,N,00124.4463,W,1,11,0.8,46.4,M,48.1,M,,0000*78
arfcn: 997 rxLev: -102


arfcn: 999 rxLev: -102
$GPGSA,M,3,22,03,01,11,17,14,23,19,32,28,31,,1.3,0.8,1.0*34


arfcn: 1010 rxLev: -102


$GPGSV,3,1,12,22,78,059,43,03,77,260,39,01,70,099,41,11,54,144,42*74
arfcn: 998 rxLev: -103


$GPGSV,3,2,12,17,42,301,45,14,29,050,30,23,27,181,30,19,24,315,36*73
arfcn: 992 rxLev: -103


arfcn: 607 rxLev: -103


$GPGSV,3,3,12,32,12,038,25,28,11,248,31,31,09,083,35,33,33,198,24*72
arfcn: 978 rxLev: -103


arfcn: 975 rxLev: -103


$GPRMC,080758.000,A,4757.3575,N,00124.4463,W,25.03,199.07,221217,,,A*4E
arfcn: 60 rxLev: -103


arfcn: 59 rxLev: -103


arfcn: 61 rxLev: -103


$GPGGA,080759.000,4757.3511,N,00124.4499,W,1,11,0.8,46.5,M,48.1,M,,0000*7F
arfcn: 981 rxLev: -103


$GPGSA,M,3,22,03,01,11,17,14,23,19,32,28,31,,1.3,0.8,1.0*34
arfcn: 89 rxLev: -103


arfcn: 76 rxLev: -103


$GPRMC,080759.000,A,4757.3511,N,00124.4499,W,24.79,201.89,221217,,,A*40
$GPGGA,080800.000,4757.3448,N,00124.4539,W,1,11,0.8,46.6,M,48.1,M,,0000*79
$GPGSA,M,3,22,03,01,11,17,14,23,19,32,28,31,,1.3,0.8,1.0*34
$GPRMC,080800.000,A,4757.3448,N,00124.4539,W,24.39,202.52,221217,,,A*44
$GPGGA,080801.000,4757.3387,N,00124.4577,W,1,11,0.8,46.7,M,48.1,M,,0000*77
arfcn: 1019 bsic: 19 rxLev: -103 ber: 11.08 mcc: FFF mnc: FF lac: 65535 cellId: 0 cellStatus: CELL_OTHER numArfcn: 0 arfcn: numChannels: 0 array:


arfcn: 991 rxLev: -103


$GPGSA,M,3,22,03,01,11,17,14,23,19,32,28,31,,1.3,0.8,1.0*34
arfcn: 990 rxLev: -103


arfcn: 1000 rxLev: -103


$GPRMC,080801.000,A,4757.3387,N,00124.4577,W,24.21,202.37,221217,,,A*41
arfcn: 983 rxLev: -104


arfcn: 611 rxLev: -104


arfcn: 669 rxLev: -104


arfcn: 73 rxLev: -104


arfcn: 74 rxLev: -104


arfcn: 86 rxLev: -104


arfcn: 12 rxLev: -104


arfcn: 7 rxLev: -104


$GPGGA,080802.000,4757.3326,N,00124.4615,W,1,11,0.8,46.8,M,48.1,M,,0000*77
arfcn: 58 rxLev: -104


arfcn: 72 rxLev: -104


$GPGSA,M,3,22,03,01,11,17,14,23,19,32,28,31,,1.3,0.8,1.0*34
arfcn: 77 rxLev: -104


arfcn: 84 rxLev: -104


$GPRMC,080802.000,A,4757.3326,N,00124.4615,W,24.20,202.23,221217,,,A*4A
arfcn: 980 rxLev: -105


arfcn: 119 rxLev: -105


arfcn: 53 rxLev: -105


arfcn: 47 rxLev: -105


arfcn: 605 rxLev: -105


arfcn: 1001 rxLev: -105


arfcn: 1003 rxLev: -105


$GPGGA,080803.000,4757.3265,N,00124.4652,W,1,11,0.8,46.8,M,48.1,M,,0000*73
arfcn: 1005 rxLev: -105


arfcn: 1007 rxLev: -105


$GPGSA,M,3,22,03,01,11,17,14,23,19,32,28,31,,1.3,0.8,1.0*34
arfcn: 606 rxLev: -105


arfcn: 545 rxLev: -105


$GPGSV,3,1,12,22,78,059,39,03,77,260,36,01,70,099,44,11,54,144,42*73
arfcn: 547 rxLev: -105


arfcn: 666 rxLev: -105


$GPGSV,3,2,12,17,42,301,45,14,29,050,29,23,27,181,32,19,24,315,38*77
arfcn: 861 rxLev: -105


$GPGSV,3,3,12,32,12,038,29,28,11,248,22,31,09,083,37,33,33,198,31*7A
arfcn: 48 rxLev: -105


$GPRMC,080803.000,A,4757.3265,N,00124.4652,W,23.71,201.68,221217,,,A*41
arfcn: 45 rxLev: -105


arfcn: 49 rxLev: -105


arfcn: 54 rxLev: -105


$GPGGA,080804.000,4757.3207,N,00124.4686,W,1,11,0.8,46.8,M,48.1,M,,0000*79
arfcn: 56 rxLev: -105


$GPGSA,M,3,22,03,01,11,17,14,23,19,32,28,31,,1.3,0.8,1.0*34
arfcn: 57 rxLev: -105


arfcn: 118 rxLev: -105


$GPRMC,080804.000,A,4757.3207,N,00124.4686,W,22.51,201.70,221217,,,A*41
arfcn: 976 rxLev: -105


arfcn: 71 rxLev: -105


arfcn: 69 rxLev: -105


arfcn: 70 rxLev: -105


arfcn: 116 rxLev: -106


arfcn: 55 rxLev: -106


arfcn: 50 rxLev: -106


arfcn: 51 rxLev: -106


$GPGGA,080805.000,4757.3152,N,00124.4720,W,1,11,0.8,46.9,M,48.1,M,,0000*77
arfcn: 52 rxLev: -106


arfcn: 41 rxLev: -106


$GPGSA,M,3,22,03,01,11,17,14,23,19,32,28,31,,1.3,0.8,1.0*34
arfcn: 42 rxLev: -106


arfcn: 25 rxLev: -106


$GPRMC,080805.000,A,4757.3152,N,00124.4720,W,21.13,202.47,221217,,,A*4C
arfcn: 1008 rxLev: -106


arfcn: 1006 rxLev: -106


arfcn: 1004 rxLev: -106


arfcn: 1002 rxLev: -106


arfcn: 984 rxLev: -106


arfcn: 985 rxLev: -106


arfcn: 986 rxLev: -106


arfcn: 989 rxLev: -106


$GPGGA,080806.000,4757.3100,N,00124.4751,W,1,11,0.8,47.0,M,48.1,M,,0000*7D
arfcn: 988 rxLev: -106


arfcn: 33 rxLev: -106


$GPGSA,M,3,22,03,01,11,17,14,23,19,32,28,31,,1.3,0.8,1.0*34
arfcn: 35 rxLev: -106


$GPRMC,080806.000,A,4757.3100,N,00124.4751,W,19.99,202.82,221217,,,A*4E
$GPGGA,080807.000,4757.3054,N,00124.4780,W,1,11,0.8,47.0,M,48.1,M,,0000*70
$GPGSA,M,3,22,03,01,11,17,14,23,19,32,28,31,,1.3,0.8,1.0*34
$GPRMC,080807.000,A,4757.3054,N,00124.4780,W,17.58,202.57,221217,,,A*48
$GPGGA,080808.000,4757.3013,N,00124.4806,W,1,11,0.8,47.2,M,48.1,M,,0000*7F
$GPGSA,M,3,22,03,01,11,17,14,23,19,28,31,08,,1.3,0.8,1.0*3D
$GPGSV,3,1,12,22,77,059,39,03,77,260,36,01,69,099,45,11,53,144,42*72
$GPGSV,3,2,12,17,42,301,45,14,29,050,27,23,27,181,38,19,24,315,38*73
$GPGSV,3,3,12,28,11,248,21,31,09,083,37,08,06,164,39,33,33,198,31*7C
$GPRMC,080808.000,A,4757.3013,N,00124.4806,W,15.28,202.40,221217,,,A*46
$GPGGA,080809.000,4757.2979,N,00124.4829,W,1,11,0.8,47.7,M,48.1,M,,0000*72
$GPGSA,M,3,22,03,01,11,17,14,23,19,28,31,08,,1.3,0.8,1.0*3D
$GPRMC,080809.000,A,4757.2979,N,00124.4829,W,12.04,204.28,221217,,,A*4F
$GPGGA,080810.000,4757.2955,N,00124.4849,W,1,11,0.8,47.8,M,48.1,M,,0000*7D
$GPGSA,M,3,22,03,01,11,17,14,23,19,32,28,31,,1.3,0.8,1.0*34
$GPRMC,080810.000,A,4757.2955,N,00124.4849,W,9.38,213.68,221217,,,A*78
arfcn: 6 bsic: 17 rxLev: -106 ber: 11.05 mcc: 208 mnc: 01 lac: 10300 cellId: 8420 cellStatus: CELL_FORBIDDEN numArfcn: 0 arfcn: numChannels: 15 array: 1 2 3 4 5 6 7 8 9 10 11 12 13 14 15


arfcn: 9 rxLev: -106


arfcn: 44 rxLev: -106


arfcn: 38 rxLev: -106


arfcn: 40 rxLev: -106


arfcn: 46 rxLev: -106


arfcn: 114 rxLev: -106


arfcn: 88 rxLev: -106


$GPGGA,080811.000,4757.2940,N,00124.4872,W,1,11,0.8,47.6,M,48.1,M,,0000*7E
arfcn: 85 rxLev: -107


$GPGSA,M,3,22,03,01,11,17,14,23,19,32,28,31,,1.3,0.8,1.0*34
arfcn: 117 rxLev: -107


arfcn: 43 rxLev: -107


$GPRMC,080811.000,A,4757.2940,N,00124.4872,W,7.80,233.44,221217,,,A*74
arfcn: 4 rxLev: -107


arfcn: 2 rxLev: -107


arfcn: 15 rxLev: -107


arfcn: 17 rxLev: -107


arfcn: 18 rxLev: -107


arfcn: 36 rxLev: -107


arfcn: 34 rxLev: -107


arfcn: 29 rxLev: -107


$GPGGA,080812.000,4757.2933,N,00124.4905,W,1,11,0.8,47.5,M,48.1,M,,0000*7B
arfcn: 30 rxLev: -107


arfcn: 31 rxLev: -107


$GPGSA,M,3,22,03,01,11,17,14,23,19,32,28,31,,1.3,0.8,1.0*34
arfcn: 19 rxLev: -107


arfcn: 21 rxLev: -107


$GPRMC,080812.000,A,4757.2933,N,00124.4905,W,9.89,260.76,221217,,,A*72
arfcn: 546 rxLev: -107


arfcn: 608 rxLev: -107


arfcn: 604 rxLev: -107


arfcn: 601 rxLev: -107


arfcn: 603 rxLev: -107


arfcn: 600 rxLev: -107


arfcn: 786 rxLev: -107


arfcn: 789 rxLev: -107


$GPGGA,080813.000,4757.2937,N,00124.4948,W,1,11,0.8,47.4,M,48.1,M,,0000*76
arfcn: 633 rxLev: -107


$GPGSA,M,3,22,03,01,11,17,14,23,19,32,28,31,,1.3,0.8,1.0*34
arfcn: 638 rxLev: -107


arfcn: 726 rxLev: -107


$GPGSV,3,1,12,22,77,059,38,03,77,260,42,01,69,099,41,11,53,144,41*77
arfcn: 599 rxLev: -107


arfcn: 617 rxLev: -107


$GPGSV,3,2,12,17,42,301,37,14,29,050,34,23,27,181,38,19,24,315,33*7F
arfcn: 514 rxLev: -107


arfcn: 1021 rxLev: -107


$GPGSV,3,3,12,32,12,038,32,28,11,248,31,31,09,083,31,33,33,198,33*76
arfcn: 551 rxLev: -107


arfcn: 568 rxLev: -107


$GPRMC,080813.000,A,4757.2937,N,00124.4948,W,12.07,284.11,221217,,,A*49
arfcn: 577 rxLev: -107


arfcn: 594 rxLev: -107


$GPGGA,080814.000,4757.2950,N,00124.5001,W,1,11,0.8,47.4,M,48.1,M,,0000*75
arfcn: 1009 rxLev: -107


arfcn: 1011 rxLev: -107


$GPGSA,M,3,22,03,01,11,17,14,23,19,32,28,31,,1.3,0.8,1.0*34
arfcn: 1012 rxLev: -107


arfcn: 20 rxLev: -107


$GPRMC,080814.000,A,4757.2950,N,00124.5001,W,14.69,291.46,221217,,,A*42
arfcn: 28 rxLev: -107


arfcn: 32 rxLev: -107


arfcn: 3 rxLev: -107


arfcn: 39 rxLev: -107


arfcn: 37 rxLev: -107


arfcn: 16 rxLev: -108


arfcn: 14 rxLev: -108


arfcn: 27 rxLev: -108


$GPGGA,080815.000,4757.2968,N,00124.5061,W,1,11,0.8,47.4,M,48.1,M,,0000*79
arfcn: 26 rxLev: -108


arfcn: 22 rxLev: -108


$GPGSA,M,3,22,03,01,11,17,14,23,19,32,28,31,,1.3,0.8,1.0*34
$GPRMC,080815.000,A,4757.2968,N,00124.5061,W,16.90,291.28,221217,,,A*42
arfcn: 113 rxLev: -108


arfcn: 112 rxLev: -108


arfcn: 1013 rxLev: -108


arfcn: 1014 rxLev: -108


arfcn: 596 rxLev: -108


arfcn: 550 rxLev: -108


arfcn: 1023 rxLev: -108


arfcn: 612 rxLev: -108


arfcn: 610 rxLev: -108


$GPGGA,080816.000,4757.2986,N,00124.5126,W,1,11,0.8,47.2,M,48.1,M,,0000*7E
arfcn: 597 rxLev: -108


$GPGSA,M,3,22,03,01,11,17,14,23,19,32,28,31,,1.3,0.8,1.0*34
arfcn: 598 rxLev: -108


arfcn: 626 rxLev: -108


$GPRMC,080816.000,A,4757.2986,N,00124.5126,W,17.42,291.06,221217,,,A*41
arfcn: 627 rxLev: -108


arfcn: 640 rxLev: -108


arfcn: 725 rxLev: -108


Network survey ended

at#cclk?
#CCLK: "17/12/22,09:08:16+04"

OK
$GPGGA,080817.000,4757.3005,N,00124.5196,W,1,11,0.8,47.1,M,48.1,M,,0000*74
$GPGSA,M,3,22,03,01,11,17,14,23,19,32,28,31,,1.3,0.8,1.0*34
at#cclk?
#CCLK: "17/12/22,09:08:17+04"

OK
at#csurv

Network survey started ...

$GPRMC,080817.000,A,4757.3005,N,00124.5196,W,19.00,290.45,221217,,,A*46

at#cclk?
#CCLK: "17/12/22,09:08:17+04"

OK
$GPGGA,080818.000,4757.3025,N,00124.5275,W,1,11,0.8,47.0,M,48.1,M,,0000*76
at#cclk?
#CCLK: "17/12/22,09:08:18+04"

OK
at#csurv

Network survey started ...

$GPGSA,M,3,22,03,01,11,17,14,23,19,32,28,31,,1.3,0.8,1.0*34
$GPGSV,3,1,12,22,77,059,40,03,77,260,43,01,69,099,42,11,53,144,39*75
$GPGSV,3,2,12,17,42,301,38,14,29,050,36,23,27,181,37,19,24,315,32*7C
$GPGSV,3,3,12,32,12,038,32,28,11,248,25,31,09,083,26,33,33,198,28*7F
$GPRMC,080818.000,A,4757.3025,N,00124.5275,W,21.11,289.90,221217,,,A*4E
$GPGGA,080819.000,4757.3047,N,00124.5361,W,1,11,0.8,47.0,M,48.1,M,,0000*77
$GPGSA,M,3,22,03,01,11,17,14,23,19,32,28,31,,1.3,0.8,1.0*34
$GPRMC,080819.000,A,4757.3047,N,00124.5361,W,22.94,289.61,221217,,,A*4F
$GPGGA,080820.000,4757.3070,N,00124.5455,W,1,11,0.8,47.0,M,48.1,M,,0000*79
$GPGSA,M,3,22,03,01,11,17,14,23,19,32,28,31,,1.3,0.8,1.0*34
$GPRMC,080820.000,A,4757.3070,N,00124.5455,W,24.60,289.48,221217,,,A*47
$GPGGA,080821.000,4757.3094,N,00124.5555,W,1,11,0.8,46.9,M,48.1,M,,0000*7B
$GPGSA,M,3,22,03,01,11,17,14,23,19,32,28,31,,1.3,0.8,1.0*34
$GPRMC,080821.000,A,4757.3094,N,00124.5555,W,26.06,289.23,221217,,,A*42
$GPGGA,080822.000,4757.3119,N,00124.5661,W,1,11,0.8,46.9,M,48.1,M,,0000*78
$GPGSA,M,3,22,03,01,11,17,14,23,19,32,28,31,,1.3,0.8,1.0*34
$GPRMC,080822.000,A,4757.3119,N,00124.5661,W,27.49,289.10,221217,,,A*4B
$GPGGA,080823.000,4757.3144,N,00124.5771,W,1,11,0.8,46.9,M,48.1,M,,0000*71
$GPGSA,M,3,22,03,01,11,17,14,23,19,32,28,31,,1.3,0.8,1.0*34
$GPGSV,3,1,12,22,77,059,37,03,77,260,42,01,69,099,41,11,53,144,37*79
$GPGSV,3,2,12,17,42,301,39,14,29,050,36,23,27,181,37,19,24,315,32*7D
$GPGSV,3,3,12,32,12,038,31,28,11,248,28,31,09,083,24,33,33,198,23*78
$GPRMC,080823.000,A,4757.3144,N,00124.5771,W,28.42,289.01,221217,,,A*46
$GPGGA,080824.000,4757.3171,N,00124.5884,W,1,11,0.8,46.9,M,48.1,M,,0000*75
$GPGSA,M,3,22,03,01,11,17,14,23,19,32,28,31,,1.3,0.8,1.0*34
$GPRMC,080824.000,A,4757.3171,N,00124.5884,W,28.47,289.12,221217,,,A*45
$GPGGA,080825.000,4757.3198,N,00124.5998,W,1,11,0.8,47.1,M,48.1,M,,0000*76
$GPGSA,M,3,22,03,01,11,17,14,23,19,32,28,31,,1.3,0.8,1.0*34
$GPRMC,080825.000,A,4757.3198,N,00124.5998,W,29.37,289.56,221217,,,A*49
$GPGGA,080826.000,4757.3227,N,00124.6116,W,1,11,0.8,47.4,M,48.1,M,,0000*7A
arfcn: 13 bsic: 59 rxLev: -87 ber: 0.00 mcc: 208 mnc: 01 lac: 10300 cellId: 1558 cellStatus: CELL_FORBIDDEN numArfcn: 13 arfcn: 13 17 18 19 20 21 22 23 24 25 47 48 49 numChannels: 14 array: 1 2 3 4 5 6 7 9 11 12 13 14 15 16 pbcch: 0 nom: 2 rac: 1 spgc: 1 pat: 6 nco: 0 t3168: 1000 t3192: 500 drxmax: 4 ctrlAck: 1 bsCVmax: 9 alpha: 7 pcMeasCh: 0 


$GPGSA,M,3,22,03,01,11,17,14,23,19,32,28,31,,1.3,0.8,1.0*34
arfcn: 124 rxLev: -90


arfcn: 8 rxLev: -90


$GPRMC,080826.000,A,4757.3227,N,00124.6116,W,30.58,289.53,221217,,,A*44
$GPGGA,080827.000,4757.3256,N,00124.6239,W,1,11,0.8,47.6,M,48.1,M,,0000*71
$GPGSA,M,3,22,03,01,11,17,14,23,19,32,28,31,,1.3,0.8,1.0*34
$GPRMC,080827.000,A,4757.3256,N,00124.6239,W,31.59,289.13,221217,,,A*49
arfcn: 81 bsic: 11 rxLev: -91 ber: 0.00 mcc: 208 mnc: 10 lac: 6001 cellId: 49645 cellStatus: CELL_FORBIDDEN numArfcn: 2 arfcn: 81 83 numChannels: 17 array: 77 78 79 80 82 83 85 86 87 113 114 115 117 118 120 122 124 pbcch: 0 nom: 2 rac: 61 spgc: 0 pat: 6 nco: 0 t3168: 1000 t3192: 500 drxmax: 2 ctrlAck: 0 bsCVmax: 9 alpha: 7 pcMeasCh: 1 


$GPGGA,080828.000,4757.3285,N,00124.6365,W,1,11,0.8,48.0,M,48.1,M,,0000*71
$GPGSA,M,3,22,03,01,11,17,14,23,19,32,28,31,,1.3,0.8,1.0*34
$GPGSV,3,1,12,22,77,059,28,03,77,260,41,01,69,099,39,11,53,144,36*7A
$GPGSV,3,2,12,17,42,301,38,14,29,050,37,23,27,181,37,19,24,315,32*7D
$GPGSV,3,3,12,32,12,038,30,28,11,248,35,31,09,083,24,33,33,198,23*75
$GPRMC,080828.000,A,4757.3285,N,00124.6365,W,32.42,288.94,221217,,,A*47
$GPGGA,080829.000,4757.3315,N,00124.6495,W,1,11,0.8,48.6,M,48.1,M,,0000*76
$GPGSA,M,3,22,03,01,11,17,14,23,19,32,28,31,,1.3,0.8,1.0*34
$GPRMC,080829.000,A,4757.3315,N,00124.6495,W,33.03,288.72,221217,,,A*4A
arfcn: 115 bsic: 8 rxLev: -93 ber: 0.03 mcc: 208 mnc: 10 lac: 6001 cellId: 30875 cellStatus: CELL_FORBIDDEN numArfcn: 2 arfcn: 111 115 numChannels: 16 array: 77 78 79 80 81 82 83 85 87 113 114 117 118 120 122 124 pbcch: 0 nom: 2 rac: 61 spgc: 0 pat: 6 nco: 0 t3168: 1000 t3192: 500 drxmax: 2 ctrlAck: 0 bsCVmax: 9 alpha: 7 pcMeasCh: 1 


arfcn: 82 rxLev: -95


arfcn: 78 rxLev: -95


$GPGGA,080830.000,4757.3346,N,00124.6626,W,1,11,0.8,49.3,M,48.1,M,,0000*76
arfcn: 609 rxLev: -96


arfcn: 1022 bsic: 45 rxLev: -97 ber: 1.02 mcc: 208 mnc: 20 lac: 284 cellId: 38538 cellStatus: CELL_SUITABLE numArfcn: 1 arfcn: 1022 numChannels: 23 array: 975 976 979 980 981 982 984 986 987 1011 1012 1013 1014 1015 1017 1018 1020 1021 1022 788 876 881 884 pbcch: 0 nom: 2 rac: 6 spgc: 0 pat: 6 nco: 0 t3168: 1500 t3192: 500 drxmax: 0 ctrlAck: 0 bsCVmax: 8 alpha: 6 pcMeasCh: 1 


$GPGSA,M,3,22,03,01,11,17,14,23,19,32,28,31,,1.3,0.8,1.0*34
arfcn: 68 rxLev: -97


arfcn: 92 rxLev: -97


$GPRMC,080830.000,A,4757.3346,N,00124.6626,W,33.40,289.04,221217,,,A*49
arfcn: 93 rxLev: -97


arfcn: 94 rxLev: -97


arfcn: 977 rxLev: -97


arfcn: 104 rxLev: -98


arfcn: 91 rxLev: -98


arfcn: 80 rxLev: -98


arfcn: 95 rxLev: -98


arfcn: 96 rxLev: -98


$GPGGA,080831.000,4757.3377,N,00124.6759,W,1,11,0.8,50.1,M,48.1,M,,0000*76
arfcn: 97 rxLev: -98


arfcn: 98 rxLev: -98


$GPGSA,M,3,22,03,01,11,17,14,23,19,32,28,31,,1.3,0.8,1.0*34
arfcn: 111 rxLev: -98


arfcn: 123 rxLev: -98


$GPRMC,080831.000,A,4757.3377,N,00124.6759,W,33.70,289.16,221217,,,A*43
$GPGGA,080832.000,4757.3409,N,00124.6892,W,1,11,0.8,51.0,M,48.1,M,,0000*73
$GPGSA,M,3,22,03,01,11,17,14,23,19,32,28,31,,1.3,0.8,1.0*34
$GPRMC,080832.000,A,4757.3409,N,00124.6892,W,33.88,289.26,221217,,,A*42
$GPGGA,080833.000,4757.3440,N,00124.7026,W,1,11,0.8,52.0,M,48.1,M,,0000*7A
$GPGSA,M,3,22,03,01,11,17,14,23,19,32,28,31,,1.3,0.8,1.0*34
$GPGSV,3,1,12,22,77,059,34,03,77,260,43,01,69,099,36,11,53,144,37*7B
$GPGSV,3,2,12,17,42,301,37,14,29,050,38,23,27,181,37,19,24,315,33*7C
$GPGSV,3,3,12,32,12,038,32,28,11,248,27,31,09,083,32,33,33,198,23*73
$GPRMC,080833.000,A,4757.3440,N,00124.7026,W,33.95,289.05,221217,,,A*45
$GPGGA,080834.000,4757.3471,N,00124.7161,W,1,11,0.8,52.9,M,48.1,M,,0000*74
$GPGSA,M,3,22,03,01,11,17,14,23,19,32,28,31,,1.3,0.8,1.0*34
$GPRMC,080834.000,A,4757.3471,N,00124.7161,W,33.94,288.71,221217,,,A*41
arfcn: 975 bsic: 60 rxLev: -99 ber: 0.07 mcc: 208 mnc: 20 lac: 413 cellId: 20247 cellStatus: CELL_OTHER numArfcn: 1 arfcn: 975 numChannels: 20 array: 977 978 979 980 981 982 983 984 985 987 1011 1013 1014 1015 1017 1018 1019 1020 1021 1022 pbcch: 0 nom: 2 rac: 1 spgc: 0 pat: 6 nco: 0 t3168: 1500 t3192: 500 drxmax: 0 ctrlAck: 0 bsCVmax: 8 alpha: 6 pcMeasCh: 1 


arfcn: 105 rxLev: -99


arfcn: 100 rxLev: -99


arfcn: 101 rxLev: -99


arfcn: 102 rxLev: -99


arfcn: 103 rxLev: -99


arfcn: 99 rxLev: -99


$GPGGA,080835.000,4757.3501,N,00124.7293,W,1,11,0.8,53.8,M,48.1,M,,0000*7D
arfcn: 75 rxLev: -99


$GPGSA,M,3,22,03,01,11,17,14,23,19,32,28,31,,1.3,0.8,1.0*34
arfcn: 67 rxLev: -99


arfcn: 729 rxLev: -99


$GPRMC,080835.000,A,4757.3501,N,00124.7293,W,32.99,288.73,221217,,,A*46
arfcn: 14 rxLev: -99


arfcn: 106 rxLev: -99


arfcn: 107 rxLev: -99


arfcn: 979 rxLev: -99


arfcn: 120 rxLev: -100


arfcn: 108 rxLev: -100


arfcn: 79 rxLev: -100


$GPGGA,080836.000,4757.3531,N,00124.7422,W,1,11,0.8,54.6,M,48.1,M,,0000*78
arfcn: 849 rxLev: -100


arfcn: 90 rxLev: -100


$GPGSA,M,3,22,03,01,11,17,14,23,19,32,28,31,,1.3,0.8,1.0*34
arfcn: 66 rxLev: -100


$GPRMC,080836.000,A,4757.3531,N,00124.7422,W,32.05,289.11,221217,,,A*4A
$GPGGA,080837.000,4757.3561,N,00124.7548,W,1,11,0.8,55.4,M,48.1,M,,0000*72
$GPGSA,M,3,22,03,01,11,17,14,23,19,32,28,31,,1.3,0.8,1.0*34
$GPRMC,080837.000,A,4757.3561,N,00124.7548,W,31.87,289.30,221217,,,A*49
$GPGGA,080838.000,4757.3590,N,00124.7673,W,1,11,0.8,56.2,M,48.1,M,,0000*7D
$GPGSA,M,3,03,22,01,11,17,14,23,19,32,28,31,,1.3,0.8,1.0*34
$GPGSV,3,1,12,03,77,261,43,22,77,059,36,01,69,099,38,11,53,144,37*76
$GPGSV,3,2,12,17,42,301,35,14,29,050,39,23,28,181,36,19,24,315,33*71
$GPGSV,3,3,12,32,12,038,32,28,11,248,28,31,09,082,29,33,33,198,26*72
$GPRMC,080838.000,A,4757.3590,N,00124.7673,W,31.89,289.42,221217,,,A*48
$GPGGA,080839.000,4757.3620,N,00124.7799,W,1,11,0.8,56.9,M,48.1,M,,0000*7A
$GPGSA,M,3,03,22,01,11,17,14,23,19,32,28,31,,1.3,0.8,1.0*34
$GPRMC,080839.000,A,4757.3620,N,00124.7799,W,31.95,289.44,221217,,,A*4F
$GPGGA,080840.000,4757.3650,N,00124.7924,W,1,11,0.8,57.7,M,48.1,M,,0000*74
$GPGSA,M,3,03,22,01,11,17,14,23,19,32,28,31,,1.3,0.8,1.0*34
$GPRMC,080840.000,A,4757.3650,N,00124.7924,W,31.93,289.39,221217,,,A*42
arfcn: 87 bsic: 34 rxLev: -101 ber: 0.00 mcc: 208 mnc: 10 lac: 30514 cellId: 20354 cellStatus: CELL_FORBIDDEN numArfcn: 3 arfcn: 84 85 87 numChannels: 15 array: 77 78 79 80 81 82 83 86 113 114 115 117 120 123 124 pbcch: 0 nom: 2 rac: 1 spgc: 0 pat: 6 nco: 0 t3168: 1500 t3192: 500 drxmax: 0 ctrlAck: 0 bsCVmax: 8 alpha: 6 pcMeasCh: 1 


arfcn: 109 rxLev: -101


arfcn: 122 rxLev: -101


arfcn: 978 rxLev: -101


$GPGGA,080841.000,4757.3679,N,00124.8050,W,1,11,0.8,58.4,M,48.1,M,,0000*77
arfcn: 65 rxLev: -101


arfcn: 63 rxLev: -101


$GPGSA,M,3,03,22,01,11,17,14,23,19,32,28,31,,1.3,0.8,1.0*34
$GPRMC,080841.000,A,4757.3679,N,00124.8050,W,32.02,289.40,221217,,,A*48
$GPGGA,080842.000,4757.3709,N,00124.8176,W,1,11,0.8,59.1,M,48.1,M,,0000*73
$GPGSA,M,3,03,22,01,11,17,14,23,19,32,28,31,,1.3,0.8,1.0*34
$GPRMC,080842.000,A,4757.3709,N,00124.8176,W,32.22,289.40,221217,,,A*4A
$GPGGA,080843.000,4757.3739,N,00124.8304,W,1,11,0.8,59.7,M,48.1,M,,0000*70
$GPGSA,M,3,03,22,01,11,17,14,23,19,32,28,31,,1.3,0.8,1.0*34
arfcn: 11 bsic: 30 rxLev: -101 ber: 0.00 mcc: 208 mnc: 01 lac: 10300 cellId: 12921 cellStatus: CELL_FORBIDDEN numArfcn: 13 arfcn: 11 17 18 19 20 21 22 23 24 25 47 48 49 numChannels: 13 array: 1 2 3 4 5 6 7 9 11 12 13 14 15 pbcch: 0 nom: 2 rac: 1 spgc: 1 pat: 6 nco: 0 t3168: 1000 t3192: 500 drxmax: 4 ctrlAck: 1 bsCVmax: 9 alpha: 7 pcMeasCh: 0 


$GPGSV,3,1,12,03,77,261,43,22,77,059,37,01,69,099,38,11,53,144,38*78
$GPGSV,3,2,12,17,42,301,35,14,29,050,39,23,28,181,36,19,24,315,34*76
$GPGSV,3,3,12,32,12,038,32,28,11,248,30,31,09,082,30,33,33,198,24*71
$GPRMC,080843.000,A,4757.3739,N,00124.8304,W,32.45,289.45,221217,,,A*4B
$GPGGA,080844.000,4757.3770,N,00124.8432,W,1,11,0.8,60.2,M,48.1,M,,0000*77
$GPGSA,M,3,03,22,01,11,17,14,23,19,32,28,31,,1.3,0.8,1.0*34
$GPRMC,080844.000,A,4757.3770,N,00124.8432,W,32.78,289.46,221217,,,A*4E
arfcn: 12 bsic: 12 rxLev: -102 ber: 12.04 mcc: FFF mnc: FF lac: 65535 cellId: 0 cellStatus: CELL_OTHER numArfcn: 0 arfcn: numChannels: 0 array:


$GPGGA,080845.000,4757.3800,N,00124.8561,W,1,11,0.8,60.6,M,48.1,M,,0000*7D
$GPGSA,M,3,03,22,01,11,17,14,23,19,32,28,31,,1.3,0.8,1.0*34
$GPRMC,080845.000,A,4757.3800,N,00124.8561,W,33.04,289.32,221217,,,A*49
$GPGGA,080846.000,4757.3831,N,00124.8692,W,1,11,0.8,60.7,M,48.1,M,,0000*72
$GPGSA,M,3,03,22,01,11,17,14,23,19,32,28,31,,1.3,0.8,1.0*34
$GPRMC,080846.000,A,4757.3831,N,00124.8692,W,33.36,289.03,221217,,,A*44
arfcn: 5 bsic: 43 rxLev: -102 ber: 0.00 mcc: FFF mnc: FF lac: 65535 cellId: 0 cellStatus: CELL_OTHER numArfcn: 0 arfcn: numChannels: 0 array:


arfcn: 64 rxLev: -102


arfcn: 980 rxLev: -102


$GPGGA,080847.000,4757.3861,N,00124.8824,W,1,11,0.8,60.7,M,48.1,M,,0000*75
$GPGSA,M,3,03,22,01,11,17,14,23,19,32,28,31,,1.3,0.8,1.0*34
$GPRMC,080847.000,A,4757.3861,N,00124.8824,W,33.63,288.66,221217,,,A*41
$GPGGA,080848.000,4757.3890,N,00124.8957,W,1,11,0.8,60.8,M,48.1,M,,0000*7E
$GPGSA,M,3,03,22,01,11,17,14,23,19,32,28,31,,1.3,0.8,1.0*34
$GPGSV,3,1,12,03,77,261,34,22,77,059,37,01,69,099,38,11,53,144,37*77
$GPGSV,3,2,12,17,42,301,36,14,29,050,37,23,28,181,36,19,24,315,30*7F
$GPGSV,3,3,12,32,12,038,27,28,11,248,35,31,09,082,25,33,33,198,24*74
$GPRMC,080848.000,A,4757.3890,N,00124.8957,W,33.90,287.39,221217,,,A*4C
$GPGGA,080849.000,4757.3917,N,00124.9092,W,1,11,0.8,60.8,M,48.1,M,,0000*70
$GPGSA,M,3,03,22,01,11,17,14,23,19,32,28,31,,1.3,0.8,1.0*34
$GPRMC,080849.000,A,4757.3917,N,00124.9092,W,33.95,286.14,221217,,,A*49
$GPGGA,080850.000,4757.3942,N,00124.9229,W,1,11,0.8,60.8,M,48.1,M,,0000*7A
$GPGSA,M,3,03,22,01,11,17,14,23,19,32,28,31,,1.3,0.8,1.0*34
$GPRMC,080850.000,A,4757.3942,N,00124.9229,W,34.09,283.93,221217,,,A*4B
$GPGGA,080851.000,4757.3963,N,00124.9368,W,1,11,0.8,60.9,M,48.1,M,,0000*7D
$GPGSA,M,3,03,22,01,11,17,14,23,19,32,28,31,,1.3,0.8,1.0*34
$GPRMC,080851.000,A,4757.3963,N,00124.9368,W,34.29,281.41,221217,,,A*42
$GPGGA,080852.000,4757.3980,N,00124.9509,W,1,11,0.8,60.8,M,48.1,M,,0000*73
arfcn: 987 bsic: 46 rxLev: -102 ber: 0.00 mcc: 208 mnc: 20 lac: 284 cellId: 22571 cellStatus: CELL_SUITABLE numArfcn: 2 arfcn: 987 1010 numChannels: 24 array: 787 789 792 794 881 885 975 976 977 978 980 981 982 983 987 1013 1014 1015 1016 1017 1018 1020 1021 1022 pbcch: 0 nom: 2 rac: 6 spgc: 0 pat: 6 nco: 0 t3168: 1500 t3192: 500 drxmax: 0 ctrlAck: 0 bsCVmax: 8 alpha: 6 pcMeasCh: 1 


arfcn: 982 rxLev: -102


$GPGSA,M,3,03,22,01,11,17,14,23,19,32,28,31,,1.3,0.8,1.0*34
$GPRMC,080852.000,A,4757.3980,N,00124.9509,W,34.31,279.38,221217,,,A*4D
$GPGGA,080853.000,4757.3995,N,00124.9650,W,1,11,0.8,60.7,M,48.1,M,,0000*76
$GPGSA,M,3,03,22,01,11,17,14,23,19,32,28,31,,1.3,0.8,1.0*34
$GPGSV,3,1,12,03,77,261,43,22,77,059,38,01,69,099,39,11,53,144,38*76
$GPGSV,3,2,12,17,42,301,22,14,29,050,24,23,28,181,36,19,24,315,37*7F
$GPGSV,3,3,12,32,12,038,34,28,11,248,30,31,09,082,35,33,33,198,33*74
$GPRMC,080853.000,A,4757.3995,N,00124.9650,W,34.30,277.85,221217,,,A*4E
$GPGGA,080854.000,4757.4006,N,00124.9792,W,1,11,0.8,60.5,M,48.1,M,,0000*78
$GPGSA,M,3,03,22,01,11,17,14,23,19,32,28,31,,1.3,0.8,1.0*34
$GPRMC,080854.000,A,4757.4006,N,00124.9792,W,34.10,274.94,221217,,,A*43
$GPGGA,080855.000,4757.4009,N,00124.9934,W,1,11,0.8,60.4,M,48.1,M,,0000*75
$GPGSA,M,3,03,22,01,11,17,14,23,19,32,28,31,,1.3,0.8,1.0*34
$GPRMC,080855.000,A,4757.4009,N,00124.9934,W,34.19,269.24,221217,,,A*41
arfcn: 121 bsic: 34 rxLev: -102 ber: 2.08 mcc: 208 mnc: 10 lac: 30514 cellId: 20283 cellStatus: CELL_FORBIDDEN numArfcn: 1 arfcn: 121 numChannels: 21 array: 76 78 79 80 81 83 84 85 86 87 113 114 115 116 117 118 119 121 122 123 124 pbcch: 0 nom: 2 rac: 1 spgc: 0 pat: 6 nco: 0 t3168: 1500 t3192: 500 drxmax: 0 ctrlAck: 0 bsCVmax: 8 alpha: 6 pcMeasCh: 1 


arfcn: 110 rxLev: -102


$GPGGA,080856.000,4757.4003,N,00125.0076,W,1,11,0.8,60.1,M,48.1,M,,0000*7E
$GPGSA,M,3,03,22,01,11,17,14,23,19,32,28,31,,1.3,0.8,1.0*34
$GPRMC,080856.000,A,4757.4003,N,00125.0076,W,34.21,263.53,221217,,,A*4E
$GPGGA,080857.000,4757.3987,N,00125.0217,W,1,11,0.8,59.8,M,48.1,M,,0000*7B
$GPGSA,M,3,03,22,01,11,17,14,23,19,32,28,31,,1.3,0.8,1.0*34
$GPRMC,080857.000,A,4757.3987,N,00125.0217,W,34.41,258.92,221217,,,A*4B
$GPGGA,080858.000,4757.3967,N,00125.0358,W,1,11,0.8,59.6,M,48.1,M,,0000*7E
$GPGSA,M,3,03,22,01,11,17,14,23,19,32,28,31,,1.3,0.8,1.0*34
$GPGSV,3,1,12,03,77,261,43,22,77,059,31,01,69,099,45,11,53,144,40*7B
$GPGSV,3,2,12,17,42,301,33,14,29,050,35,23,28,181,36,19,24,315,20*79
$GPGSV,3,3,12,32,12,038,33,28,11,248,30,31,09,082,32,33,33,198,22*74
$GPRMC,080858.000,A,4757.3967,N,00125.0358,W,34.49,257.38,221217,,,A*47
$GPGGA,080859.000,4757.3945,N,00125.0498,W,1,11,0.8,59.3,M,48.1,M,,0000*71
$GPGSA,M,3,03,22,01,11,17,14,23,19,32,28,31,,1.3,0.8,1.0*34
$GPRMC,080859.000,A,4757.3945,N,00125.0498,W,34.51,257.08,221217,,,A*47
$GPGGA,080900.000,4757.3924,N,00125.0639,W,1,11,0.8,59.1,M,48.1,M,,0000*70
$GPGSA,M,3,03,22,01,11,17,14,23,19,32,28,31,,1.3,0.8,1.0*34
$GPRMC,080900.000,A,4757.3924,N,00125.0639,W,34.51,257.62,221217,,,A*48
$GPGGA,080901.000,4757.3904,N,00125.0780,W,1,11,0.8,58.6,M,48.1,M,,0000*76
$GPGSA,M,3,03,22,01,11,17,14,23,19,32,28,31,,1.3,0.8,1.0*34
$GPRMC,080901.000,A,4757.3904,N,00125.0780,W,34.42,259.42,221217,,,A*46
$GPGGA,080902.000,4757.3890,N,00125.0921,W,1,11,0.8,58.4,M,48.1,M,,0000*7E
$GPGSA,M,3,03,22,01,11,17,14,23,19,32,28,31,,1.3,0.8,1.0*34
$GPRMC,080902.000,A,4757.3890,N,00125.0921,W,33.81,263.94,221217,,,A*46
$GPGGA,080903.000,4757.3885,N,00125.1061,W,1,11,0.8,58.2,M,48.1,M,,0000*71
$GPGSA,M,3,03,22,01,11,17,14,23,19,32,28,31,,1.3,0.8,1.0*34
$GPGSV,3,1,12,03,77,261,45,22,77,059,33,01,69,100,45,11,53,144,40*7E
$GPGSV,3,2,12,17,42,300,31,14,29,049,30,23,28,181,33,19,24,315,24*76
$GPGSV,3,3,12,32,11,038,24,28,11,248,28,31,09,082,26,33,33,198,*7D
$GPRMC,080903.000,A,4757.3885,N,00125.1061,W,33.49,269.92,221217,,,A*47
$GPGGA,080904.000,4757.3891,N,00125.1199,W,1,11,0.8,58.1,M,48.1,M,,0000*76
$GPGSA,M,3,03,22,01,11,17,14,23,19,32,28,31,,1.3,0.8,1.0*34
$GPRMC,080904.000,A,4757.3891,N,00125.1199,W,32.45,277.38,221217,,,A*41
$GPGGA,080905.000,4757.3909,N,00125.1330,W,1,11,0.8,58.1,M,48.1,M,,0000*76
$GPGSA,M,3,03,22,01,11,17,14,23,19,32,28,31,,1.3,0.8,1.0*34
$GPRMC,080905.000,A,4757.3909,N,00125.1330,W,31.98,284.28,221217,,,A*4F
$GPGGA,080906.000,4757.3931,N,00125.1455,W,1,11,0.8,58.2,M,48.1,M,,0000*79
$GPGSA,M,3,03,22,01,11,17,14,23,19,32,28,31,,1.3,0.8,1.0*34
$GPRMC,080906.000,A,4757.3931,N,00125.1455,W,30.51,286.38,221217,,,A*44
$GPGGA,080907.000,4757.3954,N,00125.1575,W,1,11,0.8,58.3,M,48.1,M,,0000*79
$GPGSA,M,3,03,22,01,11,17,14,23,19,32,28,31,,1.3,0.8,1.0*34
$GPRMC,080907.000,A,4757.3954,N,00125.1575,W,29.84,286.00,221217,,,A*4E
arfcn: 86 bsic: 37 rxLev: -102 ber: 20.02 mcc: 208 mnc: 10 lac: 30514 cellId: 20084 cellStatus: CELL_FORBIDDEN numArfcn: 1 arfcn: 86 numChannels: 20 array: 76 77 78 79 80 81 83 84 85 86 87 113 115 117 118 119 121 122 123 124


arfcn: 84 rxLev: -102


$GPGGA,080908.000,4757.3975,N,00125.1691,W,1,11,0.8,58.2,M,48.1,M,,0000*7D
$GPGSA,M,3,03,22,01,11,17,14,23,19,32,28,31,,1.3,0.8,1.0*34
$GPGSV,3,1,12,03,77,261,43,22,77,059,27,01,69,100,38,11,53,144,35*75
$GPGSV,3,2,12,17,42,300,40,14,29,049,32,23,28,181,34,19,24,315,26*77
$GPGSV,3,3,12,32,11,038,35,28,11,248,30,31,09,082,32,33,33,198,28*7B
$GPRMC,080908.000,A,4757.3975,N,00125.1691,W,28.17,284.79,221217,,,A*4C
$GPGGA,080909.000,4757.3993,N,00125.1798,W,1,11,0.8,58.1,M,48.1,M,,0000*7F
$GPGSA,M,3,03,22,01,11,17,14,23,19,32,28,31,,1.3,0.8,1.0*34
$GPRMC,080909.000,A,4757.3993,N,00125.1798,W,25.60,283.70,221217,,,A*4E
arfcn: 77 bsic: 32 rxLev: -102 ber: 11.08 mcc: FFF mnc: FF lac: 65535 cellId: 0 cellStatus: CELL_OTHER numArfcn: 0 arfcn: numChannels: 0 array:


arfcn: 83 rxLev: -103


arfcn: 981 rxLev: -103


arfcn: 976 rxLev: -103


arfcn: 62 rxLev: -103


arfcn: 60 rxLev: -103


$GPGGA,080910.000,4757.4008,N,00125.1898,W,1,11,0.8,58.0,M,48.1,M,,0000*75
arfcn: 61 rxLev: -103


arfcn: 59 rxLev: -103


$GPGSA,M,3,03,22,01,11,17,14,23,19,32,28,31,,1.3,0.8,1.0*34
arfcn: 48 rxLev: -103


$GPRMC,080910.000,A,4757.4008,N,00125.1898,W,23.93,282.07,221217,,,A*4E
arfcn: 21 rxLev: -103


arfcn: 983 rxLev: -103


arfcn: 1017 rxLev: -103


$GPGGA,080911.000,4757.4020,N,00125.1991,W,1,11,0.8,57.8,M,48.1,M,,0000*71
$GPGSA,M,3,03,22,01,11,17,14,23,19,32,28,31,,1.3,0.8,1.0*34
$GPRMC,080911.000,A,4757.4020,N,00125.1991,W,21.95,281.00,221217,,,A*4D
$GPGGA,080912.000,4757.4030,N,00125.2073,W,1,11,0.8,57.7,M,48.1,M,,0000*7A
$GPGSA,M,3,03,22,01,11,17,14,23,19,32,28,31,,1.3,0.8,1.0*34
$GPRMC,080912.000,A,4757.4030,N,00125.2073,W,18.87,280.83,221217,,,A*4A
$GPGGA,080913.000,4757.4039,N,00125.2143,W,1,11,0.8,57.7,M,48.1,M,,0000*70
$GPGSA,M,3,03,22,01,11,17,14,23,19,32,28,31,,1.3,0.8,1.0*34
$GPGSV,3,1,12,03,77,261,38,22,77,059,27,01,69,100,37,11,53,144,38*7B
$GPGSV,3,2,12,17,42,300,37,14,29,049,33,23,28,181,34,19,24,315,35*74
$GPGSV,3,3,12,32,11,038,34,28,11,248,23,31,09,082,35,33,33,198,34*72
$GPRMC,080913.000,A,4757.4039,N,00125.2143,W,15.94,281.10,221217,,,A*44
arfcn: 1021 bsic: 36 rxLev: -103 ber: 12.07 mcc: 208 mnc: 20 lac: 413 cellId: 20336 cellStatus: CELL_OTHER numArfcn: 1 arfcn: 1021 numChannels: 0 array:


arfcn: 607 rxLev: -103


$GPGGA,080914.000,4757.4047,N,00125.2202,W,1,10,1.0,57.8,M,48.1,M,,0000*7F
arfcn: 994 rxLev: -103


arfcn: 76 rxLev: -103


$GPGSA,M,3,03,22,01,11,17,14,23,19,32,31,,,1.6,1.0,1.2*30
arfcn: 74 rxLev: -103


arfcn: 73 rxLev: -103


$GPRMC,080914.000,A,4757.4047,N,00125.2202,W,13.51,282.48,221217,,,A*4D
arfcn: 69 rxLev: -104


arfcn: 70 rxLev: -104


arfcn: 89 rxLev: -104


arfcn: 9 rxLev: -104


arfcn: 58 rxLev: -104


arfcn: 57 rxLev: -104


arfcn: 997 rxLev: -104


$GPGGA,080915.000,4757.4054,N,00125.2252,W,1,11,0.8,57.6,M,48.1,M,,0000*7F
arfcn: 998 rxLev: -104


$GPGSA,M,3,03,22,01,11,17,14,23,19,32,31,08,,1.3,0.8,1.0*36
arfcn: 995 rxLev: -104


arfcn: 996 rxLev: -104


$GPRMC,080915.000,A,4757.4054,N,00125.2252,W,11.58,284.19,221217,,,A*42
arfcn: 993 rxLev: -104


arfcn: 991 rxLev: -104


arfcn: 992 rxLev: -104


arfcn: 1003 rxLev: -104


arfcn: 606 rxLev: -104


arfcn: 611 rxLev: -104


arfcn: 4 rxLev: -104


arfcn: 71 rxLev: -104


arfcn: 119 rxLev: -104


$GPGGA,080916.000,4757.4062,N,00125.2294,W,1,11,0.8,57.5,M,48.1,M,,0000*70
arfcn: 7 rxLev: -105


$GPGSA,M,3,03,22,01,11,17,14,23,19,32,31,08,,1.3,0.8,1.0*36
arfcn: 24 rxLev: -105


arfcn: 56 rxLev: -105


$GPRMC,080916.000,A,4757.4062,N,00125.2294,W,10.22,286.41,221217,,,A*4D
arfcn: 55 rxLev: -105


arfcn: 608 rxLev: -105


arfcn: 605 rxLev: -105


arfcn: 546 rxLev: -105


arfcn: 1004 rxLev: -105


arfcn: 1005 rxLev: -105


arfcn: 1006 rxLev: -105


$GPGGA,080917.000,4757.4069,N,00125.2332,W,1,11,0.8,57.6,M,48.1,M,,0000*74
arfcn: 1007 rxLev: -105


$GPGSA,M,3,03,22,01,11,17,14,23,19,32,31,08,,1.3,0.8,1.0*36
$GPRMC,080917.000,A,4757.4069,N,00125.2332,W,9.59,287.09,221217,,,A*73
$GPGGA,080918.000,4757.4078,N,00125.2371,W,1,11,0.8,57.5,M,48.1,M,,0000*7F
$GPGSA,M,3,03,22,01,11,17,14,23,19,32,28,31,,1.3,0.8,1.0*34
$GPGSV,3,1,12,03,77,261,41,22,77,059,31,01,69,100,37,11,53,144,37*7D
$GPGSV,3,2,12,17,42,300,36,14,29,049,31,23,28,181,25,19,24,315,32*70
$GPGSV,3,3,12,32,11,038,34,28,11,248,21,31,09,082,29,37,28,151,*71
$GPRMC,080918.000,A,4757.4078,N,00125.2371,W,10.36,288.99,221217,,,A*4C
$GPGGA,080919.000,4757.4089,N,00125.2415,W,1,11,0.8,57.4,M,48.1,M,,0000*74
$GPGSA,M,3,03,22,01,11,17,14,23,19,32,28,31,,1.3,0.8,1.0*34
$GPRMC,080919.000,A,4757.4089,N,00125.2415,W,12.65,289.14,221217,,,A*46
$GPGGA,080920.000,4757.4101,N,00125.2468,W,1,11,0.8,57.3,M,48.1,M,,0000*72
$GPGSA,M,3,03,22,01,11,17,14,23,19,32,28,31,,1.3,0.8,1.0*34
arfcn: 985 bsic: 37 rxLev: -105 ber: 0.03 mcc: 208 mnc: 20 lac: 413 cellId: 20297 cellStatus: CELL_OTHER numArfcn: 1 arfcn: 985 numChannels: 21 array: 787 789 791 796 883 885 975 976 978 980 981 982 986 987 1011 1014 1015 1016 1017 1020 1021 pbcch: 0 nom: 2 rac: 1 spgc: 0 pat: 6 nco: 0 t3168: 1500 t3192: 500 drxmax: 0 ctrlAck: 0 bsCVmax: 8 alpha: 6 pcMeasCh: 1 


arfcn: 990 rxLev: -105


arfcn: 999 rxLev: -105


$GPRMC,080920.000,A,4757.4101,N,00125.2468,W,14.99,288.38,221217,,,A*4D
arfcn: 1000 rxLev: -105


arfcn: 1019 rxLev: -105


arfcn: 52 rxLev: -105


arfcn: 49 rxLev: -105


arfcn: 44 rxLev: -105


$GPGGA,080921.000,4757.4114,N,00125.2529,W,1,11,0.8,57.2,M,48.1,M,,0000*72
arfcn: 47 rxLev: -105


arfcn: 1 rxLev: -105


$GPGSA,M,3,03,22,01,11,17,14,23,19,32,28,31,,1.3,0.8,1.0*34
$GPRMC,080921.000,A,4757.4114,N,00125.2529,W,16.11,288.50,221217,,,A*40
$GPGGA,080922.000,4757.4129,N,00125.2593,W,1,11,0.8,57.1,M,48.1,M,,0000*7D
$GPGSA,M,3,03,22,01,11,17,14,23,19,32,28,31,,1.3,0.8,1.0*34
$GPRMC,080922.000,A,4757.4129,N,00125.2593,W,16.68,288.94,221217,,,A*4A
$GPGGA,080923.000,4757.4145,N,00125.2662,W,1,11,0.8,56.9,M,48.1,M,,0000*72
arfcn: 3 bsic: 26 rxLev: -105 ber: 0.00 mcc: 208 mnc: 01 lac: 10300 cellId: 5377 cellStatus: CELL_FORBIDDEN numArfcn: 13 arfcn: 3 17 18 19 20 21 22 23 24 25 47 48 49 numChannels: 15 array: 1 2 3 4 5 6 7 8 9 11 12 13 14 15 519 pbcch: 0 nom: 2 rac: 1 spgc: 1 pat: 6 nco: 0 t3168: 1000 t3192: 500 drxmax: 4 ctrlAck: 1 bsCVmax: 9 alpha: 7 pcMeasCh: 0 


arfcn: 116 rxLev: -105


$GPGSA,M,3,03,22,01,11,17,14,23,19,32,28,31,,1.3,0.8,1.0*34
arfcn: 114 rxLev: -105


arfcn: 72 rxLev: -105


$GPGSV,3,1,12,03,77,261,41,22,77,059,35,01,69,100,39,11,53,144,35*75
arfcn: 112 rxLev: -106


arfcn: 2 rxLev: -106


$GPGSV,3,2,12,17,42,300,38,14,29,049,34,23,28,181,37,19,24,315,28*73
arfcn: 6 rxLev: -106


$GPGSV,3,3,12,32,11,038,27,28,11,248,33,31,09,082,25,37,28,151,*7C
arfcn: 46 rxLev: -106


arfcn: 45 rxLev: -106


$GPRMC,080923.000,A,4757.4145,N,00125.2662,W,18.19,289.22,221217,,,A*48
arfcn: 1001 rxLev: -106


arfcn: 1008 rxLev: -106


arfcn: 1016 rxLev: -106


$GPGGA,080924.000,4757.4162,N,00125.2735,W,1,11,0.8,57.0,M,48.1,M,,0000*7B
arfcn: 861 rxLev: -106


arfcn: 789 rxLev: -106


$GPGSA,M,3,03,22,01,11,17,14,23,19,32,28,31,,1.3,0.8,1.0*34
arfcn: 786 rxLev: -106


$GPRMC,080924.000,A,4757.4162,N,00125.2735,W,19.43,289.40,221217,,,A*43
arfcn: 1013 rxLev: -106


arfcn: 1002 rxLev: -106


arfcn: 547 rxLev: -106


arfcn: 549 rxLev: -106


arfcn: 50 rxLev: -106


arfcn: 51 rxLev: -106


arfcn: 40 rxLev: -106


arfcn: 43 rxLev: -106


arfcn: 53 rxLev: -106


$GPGGA,080925.000,4757.4179,N,00125.2813,W,1,11,0.8,56.9,M,48.1,M,,0000*73
arfcn: 54 rxLev: -106


$GPGSA,M,3,03,22,01,11,17,14,23,19,32,28,31,,1.3,0.8,1.0*34
arfcn: 15 rxLev: -106


$GPRMC,080925.000,A,4757.4179,N,00125.2813,W,20.22,289.11,221217,,,A*4A
arfcn: 19 rxLev: -106


arfcn: 34 rxLev: -106


arfcn: 88 rxLev: -106


arfcn: 85 rxLev: -107


arfcn: 118 rxLev: -107


arfcn: 35 rxLev: -107


arfcn: 32 rxLev: -107


arfcn: 29 rxLev: -107


arfcn: 30 rxLev: -107


$GPGGA,080926.000,4757.4198,N,00125.2892,W,1,11,0.8,56.7,M,48.1,M,,0000*78
arfcn: 31 rxLev: -107


$GPGSA,M,3,03,22,01,11,17,14,23,19,32,28,31,,1.3,0.8,1.0*34
arfcn: 17 rxLev: -107


arfcn: 16 rxLev: -107


$GPRMC,080926.000,A,4757.4198,N,00125.2892,W,20.54,289.22,221217,,,A*4E
arfcn: 42 rxLev: -107


arfcn: 36 rxLev: -107


arfcn: 37 rxLev: -107


arfcn: 596 rxLev: -107


arfcn: 545 rxLev: -107


arfcn: 615 rxLev: -107


arfcn: 618 rxLev: -107


arfcn: 665 rxLev: -107


arfcn: 667 rxLev: -107


$GPGGA,080927.000,4757.4217,N,00125.2972,W,1,11,0.8,56.5,M,48.1,M,,0000*70
arfcn: 984 rxLev: -107


$GPGSA,M,3,03,22,01,11,17,14,23,19,32,28,31,,1.3,0.8,1.0*34
arfcn: 726 rxLev: -107


$GPRMC,080927.000,A,4757.4217,N,00125.2972,W,20.65,289.33,221217,,,A*46
arfcn: 986 rxLev: -107


arfcn: 989 rxLev: -107


arfcn: 988 rxLev: -107


arfcn: 1009 rxLev: -107


arfcn: 1010 rxLev: -107


arfcn: 669 rxLev: -107


arfcn: 666 rxLev: -107


arfcn: 625 rxLev: -107


$GPGGA,080928.000,4757.4236,N,00125.3052,W,1,11,0.8,56.2,M,48.1,M,,0000*71
arfcn: 617 rxLev: -107


arfcn: 603 rxLev: -107


$GPGSA,M,3,03,22,01,11,17,14,23,19,32,28,31,,1.3,0.8,1.0*34
arfcn: 38 rxLev: -107


arfcn: 39 rxLev: -107


$GPGSV,3,1,12,03,77,261,37,22,77,059,37,01,69,100,40,11,53,144,35*78
arfcn: 41 rxLev: -107


arfcn: 20 rxLev: -107


$GPGSV,3,2,12,17,42,300,38,14,29,049,28,23,28,181,36,19,24,315,32*74
arfcn: 28 rxLev: -107


arfcn: 33 rxLev: -107


$GPGSV,3,3,12,32,11,038,16,28,11,248,33,31,09,082,19,37,28,151,*71
arfcn: 117 rxLev: -107


arfcn: 18 rxLev: -108


$GPRMC,080928.000,A,4757.4236,N,00125.3052,W,20.49,288.87,221217,,,A*40
arfcn: 27 rxLev: -108


arfcn: 23 rxLev: -108


$GPGGA,080929.000,4757.4254,N,00125.3130,W,1,11,0.8,56.0,M,48.1,M,,0000*73
arfcn: 0 rxLev: -108


arfcn: 599 rxLev: -108


$GPGSA,M,3,03,22,01,11,17,14,23,19,32,28,31,,1.3,0.8,1.0*34
arfcn: 594 rxLev: -108


arfcn: 1023 rxLev: -108


$GPRMC,080929.000,A,4757.4254,N,00125.3130,W,20.22,288.86,221217,,,A*4C
arfcn: 616 rxLev: -108


arfcn: 610 rxLev: -108


arfcn: 633 rxLev: -108


arfcn: 634 rxLev: -108


arfcn: 664 rxLev: -108


arfcn: 1011 rxLev: -108


arfcn: 1015 rxLev: -108


$GPGGA,080930.000,4757.4272,N,00125.3208,W,1,11,0.8,55.7,M,48.1,M,,0000*73
arfcn: 845 rxLev: -108


Network survey ended

at#cclk?
#CCLK: "17/12/22,09:09:30+04"

OK
$GPGSA,M,3,03,22,01,11,17,14,23,19,32,28,31,,1.3,0.8,1.0*34
$GPRMC,080930.000,A,4757.4272,N,00125.3208,W,19.92,289.09,221217,,,A*4F
at#cclk?
#CCLK: "17/12/22,09:09:31+04"

OK
at#csurv

Network survey started ...


at#cclk?
#CCLK: "17/12/22,09:09:31+04"

OK
$GPGGA,080931.000,4757.4289,N,00125.3285,W,1,11,0.8,55.4,M,48.1,M,,0000*70
$GPGSA,M,3,03,22,01,11,17,14,23,19,32,28,31,,1.3,0.8,1.0*34
$GPRMC,080931.000,A,4757.4289,N,00125.3285,W,19.71,289.02,221217,,,A*49
at#cclk?
#CCLK: "17/12/22,09:09:31+04"

OK
at#csurv

Network survey started ...

$GPGGA,080932.000,4757.4307,N,00125.3359,W,1,11,0.8,55.0,M,48.1,M,,0000*70
$GPGSA,M,3,03,22,01,11,17,14,23,19,32,28,31,,1.3,0.8,1.0*34
$GPRMC,080932.000,A,4757.4307,N,00125.3359,W,19.11,289.19,221217,,,A*41
$GPGGA,080933.000,4757.4324,N,00125.3431,W,1,11,0.8,54.7,M,48.1,M,,0000*7F
$GPGSA,M,3,03,22,01,11,17,14,23,19,32,28,31,,1.3,0.8,1.0*34
$GPGSV,3,1,12,03,77,261,27,22,77,059,40,01,69,100,41,11,53,144,36*7B
$GPGSV,3,2,12,17,42,300,38,14,29,049,27,23,28,181,37,19,24,315,31*79
$GPGSV,3,3,12,32,11,038,18,28,11,248,22,31,09,082,18,37,28,151,*7E
$GPRMC,080933.000,A,4757.4324,N,00125.3431,W,18.13,288.98,221217,,,A*43
$GPGGA,080934.000,4757.4339,N,00125.3500,W,1,11,0.8,54.5,M,48.1,M,,0000*75
$GPGSA,M,3,03,22,01,11,17,14,23,19,32,28,31,,1.3,0.8,1.0*34
$GPRMC,080934.000,A,4757.4339,N,00125.3500,W,17.31,287.90,221217,,,A*43
$GPGGA,080935.000,4757.4354,N,00125.3566,W,1,11,0.8,54.3,M,48.1,M,,0000*79
$GPGSA,M,3,03,22,01,11,17,14,23,19,32,28,31,,1.3,0.8,1.0*34
$GPRMC,080935.000,A,4757.4354,N,00125.3566,W,16.93,287.67,221217,,,A*48
$GPGGA,080936.000,4757.4368,N,00125.3629,W,1,11,0.8,54.3,M,48.1,M,,0000*7D
$GPGSA,M,3,03,22,01,11,17,14,23,19,32,28,31,,1.3,0.8,1.0*34
$GPRMC,080936.000,A,4757.4368,N,00125.3629,W,15.01,288.46,221217,,,A*48
$GPGGA,080937.000,4757.4379,N,00125.3679,W,1,11,0.8,54.3,M,48.1,M,,0000*79
$GPGSA,M,3,03,22,01,11,17,14,23,19,32,28,31,,1.3,0.8,1.0*34
$GPRMC,080937.000,A,4757.4379,N,00125.3679,W,11.50,288.86,221217,,,A*40
$GPGGA,080938.000,4757.4387,N,00125.3715,W,1,11,0.8,54.3,M,48.1,M,,0000*7C
$GPGSA,M,3,03,22,01,11,17,14,23,19,28,31,08,,1.3,0.8,1.0*3D
$GPGSV,3,1,12,03,77,261,37,22,77,059,40,01,69,100,40,11,53,144,35*78
$GPGSV,3,2,12,17,42,300,39,14,29,049,16,23,28,181,35,19,24,315,24*7C
$GPGSV,3,3,12,28,11,248,15,31,09,082,17,08,06,164,21,37,28,151,*78
$GPRMC,080938.000,A,4757.4387,N,00125.3715,W,7.30,290.16,221217,,,A*74
$GPGGA,080939.000,4757.4392,N,00125.3735,W,1,11,0.8,54.5,M,48.1,M,,0000*7D
$GPGSA,M,3,03,22,01,11,17,14,23,19,28,31,08,,1.3,0.8,1.0*3D
$GPRMC,080939.000,A,4757.4392,N,00125.3735,W,3.81,291.48,221217,,,A*77
$GPGGA,080940.000,4757.4394,N,00125.3746,W,1,11,0.8,54.7,M,48.1,M,,0000*73
$GPGSA,M,3,03,22,01,11,17,14,23,19,28,31,08,,1.3,0.8,1.0*3D
arfcn: 81 rxLev: -87


$GPRMC,080940.000,A,4757.4394,N,00125.3746,W,2.13,291.78,221217,,,A*72
arfcn: 124 rxLev: -91


arfcn: 8 rxLev: -92


arfcn: 11 rxLev: -95


arfcn: 979 bsic: 25 rxLev: -95 ber: 2.04 mcc: 208 mnc: 20 lac: 413 cellId: 20178 cellStatus: CELL_SUITABLE numArfcn: 1 arfcn: 979 numChannels: 19 array: 975 976 977 978 981 982 983 984 985 987 1011 1013 1014 1015 1017 1019 1020 1021 1022 pbcch: 0 nom: 2 rac: 1 spgc: 0 pat: 6 nco: 0 t3168: 1500 t3192: 500 drxmax: 0 ctrlAck: 0 bsCVmax: 8 alpha: 6 pcMeasCh: 1 


arfcn: 98 rxLev: -95


arfcn: 97 rxLev: -95


arfcn: 609 rxLev: -95


arfcn: 83 rxLev: -96


arfcn: 99 rxLev: -96


$GPGGA,080941.000,4757.4397,N,00125.3755,W,1,11,0.8,54.6,M,48.1,M,,0000*72
arfcn: 100 rxLev: -96


arfcn: 101 rxLev: -96


