$GPGSA,M,1,,,,,,,,,,,,,,,*12
$GPRMC,144103.520,V,,,,,,,090218,,,N*4B
Survey start at #CCLK: "18/02/09,15:41:04+04"
at#csurv
Network survey started ...
Survey end at #CCLK: "18/02/09,15:41:04+04"
Survey duration: 0 seconds, 0 bases detected over 0 freqs scanned.
$GPGGA,144104.520,,,,,0,00,,,M,0.0,M,,0000*55
$GPGSA,M,1,,,,,,,,,,,,,,,*12
$GPRMC,144104.520,V,,,,,,,090218,,,N*4C
$GPGGA,144105.520,,,,,0,00,,,M,0.0,M,,0000*54
$GPGSA,M,1,,,,,,,,,,,,,,,*12
$GPGSV,3,1,11,13,40,134,04,15,67,175,26,17,30,082,30,19,26,109,21*76
$GPGSV,3,2,11,24,62,285,21,28,15,044,16,33,33,198,,18,31,277,*76
$GPGSV,3,3,11,12,29,209,,10,22,311,,20,17,215,*4A
$GPRMC,144105.520,V,,,,,,,090218,,,N*4D
$GPGGA,144106.520,,,,,0,00,,,M,0.0,M,,0000*57
Survey start at #CCLK: "18/02/09,15:41:06+04"
$GPGSA,M,1,,,,,,,,,,,,,,,*12
at#csurv
Network survey started ...
$GPRMC,144106.520,V,,,,,,,090218,,,N*4E
$GPGGA,144107.520,,,,,0,00,,,M,0.0,M,,0000*56
$GPGSA,M,1,,,,,,,,,,,,,,,*12
$GPRMC,144107.520,V,,,,,,,090218,,,N*4F
$GPGGA,144108.520,,,,,0,00,,,M,0.0,M,,0000*59
$GPGSA,M,1,,,,,,,,,,,,,,,*12
$GPRMC,144108.520,V,,,,,,,090218,,,N*40
$GPGGA,144109.520,,,,,0,00,,,M,0.0,M,,0000*58
$GPGSA,M,1,,,,,,,,,,,,,,,*12
$GPRMC,144109.520,V,,,,,,,090218,,,N*41
$GPGGA,144110.520,,,,,0,00,,,M,0.0,M,,0000*50
$GPGSA,M,1,,,,,,,,,,,,,,,*12
$GPGSV,3,1,11,15,67,175,27,17,30,082,31,19,26,109,21,24,62,285,21*7C
$GPGSV,3,2,11,28,15,044,17,33,33,198,,13,40,134,,18,31,277,*79
$GPGSV,3,3,11,12,29,209,,10,22,311,,20,17,215,*4A
$GPRMC,144110.520,V,,,,,,,090218,,,N*49
$GPGGA,144111.520,,,,,0,00,,,M,0.0,M,,0000*51
$GPGSA,M,1,,,,,,,,,,,,,,,*12
$GPRMC,144111.520,V,,,,,,,090218,,,N*48
arfcn: 981 bsic: 46 rxLev: -50 ber: 0.00 mcc: 208 mnc: 20 lac: 418 cellId: 21807 cellStatus: CELL_SUITABLE numArfcn: 1 arfcn: 981 numChannels: 16 array: 979 982 983 985 1012 1014 1017 1019 1020 787 790 791 793 796 882 884 pbcch: 0 nom: 2 rac: 6 spgc: 0 pat: 6 nco: 0 t3168: 1500 t3192: 500 drxmax: 0 ctrlAck: 0 bsCVmax: 8 alpha: 6 pcMeasCh: 1 
arfcn: 1005 rxLev: -63
arfcn: 1004 rxLev: -63
arfcn: 1003 rxLev: -63
arfcn: 1007 rxLev: -63
arfcn: 995 rxLev: -63
arfcn: 997 rxLev: -63
arfcn: 998 rxLev: -63
$GPGGA,144112.520,,,,,0,00,,,M,0.0,M,,0000*52
$GPGSA,M,1,,,,,,,,,,,,,,,*12
arfcn: 991 rxLev: -63
arfcn: 992 rxLev: -63
$GPRMC,144112.520,V,,,,,,,090218,,,N*4B
arfcn: 993 rxLev: -64
arfcn: 990 rxLev: -64
arfcn: 1000 rxLev: -64
arfcn: 996 rxLev: -64
arfcn: 994 rxLev: -64
arfcn: 1006 rxLev: -64
arfcn: 1008 rxLev: -64
arfcn: 1002 rxLev: -64
arfcn: 1001 rxLev: -64
arfcn: 999 rxLev: -64
$GPGGA,144113.520,,,,,0,00,,,M,0.0,M,,0000*53
$GPGSA,M,1,,,,,,,,,,,,,,,*12
arfcn: 982 rxLev: -68
$GPRMC,144113.520,V,,,,,,,090218,,,N*4A
$GPGGA,144114.520,,,,,0,00,,,M,0.0,M,,0000*54
$GPGSA,M,1,,,,,,,,,,,,,,,*12
$GPRMC,144114.520,V,,,,,,,090218,,,N*4D
arfcn: 80 bsic: 47 rxLev: -69 ber: 0.00 mcc: 208 mnc: 10 lac: 49415 cellId: 23568 cellStatus: CELL_FORBIDDEN numArfcn: 2 arfcn: 80 89 numChannels: 19 array: 76 77 78 80 82 83 84 85 113 114 115 116 117 118 119 120 122 123 124 pbcch: 0 nom: 2 rac: 31 spgc: 0 pat: 6 nco: 0 t3168: 1000 t3192: 500 drxmax: 4 ctrlAck: 1 bsCVmax: 9 alpha: 10 pcMeasCh: 0 
$GPGGA,144115.520,,,,,0,00,,,M,0.0,M,,0000*55
$GPGSA,M,1,,,,,,,,,,,,,,,*12
$GPGSV,3,1,11,15,67,175,27,17,30,082,31,19,26,109,20,24,62,285,20*7C
$GPGSV,3,2,11,28,15,044,17,33,33,198,,13,40,134,,18,31,277,*79
$GPGSV,3,3,11,12,29,209,,10,22,311,,20,17,215,*4A
$GPRMC,144115.520,V,,,,,,,090218,,,N*4C
$GPGGA,144116.520,,,,,0,00,,,M,0.0,M,,0000*56
$GPGSA,M,1,,,,,,,,,,,,,,,*12
$GPRMC,144116.520,V,,,,,,,090218,,,N*4F
arfcn: 85 bsic: 0 rxLev: -70 ber: 0.00 mcc: 208 mnc: 10 lac: 49415 cellId: 44814 cellStatus: CELL_FORBIDDEN numArfcn: 2 arfcn: 85 119 numChannels: 20 array: 76 77 78 79 80 82 83 85 86 114 115 116 117 118 119 120 121 122 123 124 pbcch: 0 nom: 2 rac: 31 spgc: 0 pat: 6 nco: 0 t3168: 1000 t3192: 500 drxmax: 4 ctrlAck: 1 bsCVmax: 9 alpha: 10 pcMeasCh: 0 
arfcn: 980 rxLev: -70
$GPGGA,144117.520,,,,,0,04,4.2,,M,0.0,M,,0000*7B
$GPGSA,M,1,,,,,,,,,,,,,,,*12
$GPRMC,144117.520,V,,,,,,,090218,,,N*4E
arfcn: 12 bsic: 0 rxLev: -71 ber: 0.00 mcc: 208 mnc: 01 lac: 10300 cellId: 6467 cellStatus: CELL_FORBIDDEN numArfcn: 13 arfcn: 12 17 18 19 20 21 22 23 24 25 47 48 49 numChannels: 15 array: 1 2 3 8 9 10 14 512 513 514 515 518 605 606 608 pbcch: 0 nom: 2 rac: 1 spgc: 0 pat: 6 nco: 0 t3168: 1000 t3192: 500 drxmax: 2 ctrlAck: 0 bsCVmax: 9 alpha: 5 pcMeasCh: 1 
arfcn: 989 rxLev: -72
arfcn: 1009 rxLev: -73
$GPGGA,144118.520,,,,,0,04,2.7,,M,0.0,M,,0000*77
$GPGSA,M,1,,,,,,,,,,,,,,,*12
$GPRMC,144118.520,V,,,,,,,090218,,,N*41
$GPGGA,144119.520,,,,,0,04,2.7,,M,0.0,M,,0000*76
$GPGSA,M,1,,,,,,,,,,,,,,,*12
$GPRMC,144119.520,V,,,,,,,090218,,,N*40
$GPGGA,144120.520,,,,,0,04,2.7,,M,0.0,M,,0000*7C
$GPGSA,M,1,,,,,,,,,,,,,,,*12
$GPGSV,3,1,11,15,67,175,26,13,39,134,15,17,30,082,31,28,14,044,15*75
$GPGSV,3,2,11,19,26,108,21,24,62,285,20,33,33,198,,18,31,277,*78
$GPGSV,3,3,11,12,30,209,,10,22,311,,20,17,215,*42
$GPRMC,144120.520,V,,,,,,,090218,,,N*4A
$GPGGA,144121.520,,,,,0,04,2.7,,M,0.0,M,,0000*7D
$GPGSA,M,1,,,,,,,,,,,,,,,*12
$GPRMC,144121.520,V,,,,,,,090218,,,N*4B
arfcn: 124 bsic: 2 rxLev: -75 ber: 0.00 mcc: 208 mnc: 10 lac: 49415 cellId: 43517 cellStatus: CELL_FORBIDDEN numArfcn: 2 arfcn: 112 124 numChannels: 14 array: 76 77 78 80 82 85 114 115 117 118 120 121 122 124 pbcch: 0 nom: 2 rac: 31 spgc: 0 pat: 6 nco: 0 t3168: 1000 t3192: 500 drxmax: 4 ctrlAck: 1 bsCVmax: 9 alpha: 10 pcMeasCh: 0 
$GPGGA,144122.520,4806.8811,N,00139.4445,W,1,04,2.7,29.0,M,48.3,M,,0000*7C
$GPGSA,M,3,15,13,17,28,,,,,,,,,4.0,2.7,2.9*3E
$GPRMC,144122.520,A,4806.8811,N,00139.4445,W,6.94,313.90,090218,,,A*7A
$GPGGA,144123.520,4806.8801,N,00139.4395,W,1,04,2.7,29.1,M,48.3,M,,0000*77
$GPGSA,M,3,15,13,17,28,,,,,,,,,4.0,2.7,2.9*3E
$GPRMC,144123.520,A,4806.8801,N,00139.4395,W,6.57,30.19,090218,,,A*4C
arfcn: 8 bsic: 48 rxLev: -76 ber: 0.00 mcc: 208 mnc: 01 lac: 10300 cellId: 6473 cellStatus: CELL_FORBIDDEN numArfcn: 13 arfcn: 8 17 18 19 20 21 22 23 24 25 47 48 49 numChannels: 18 array: 1 2 3 4 5 10 12 13 14 15 512 513 514 515 516 517 605 610 pbcch: 0 nom: 2 rac: 1 spgc: 0 pat: 6 nco: 0 t3168: 1000 t3192: 500 drxmax: 2 ctrlAck: 0 bsCVmax: 9 alpha: 5 pcMeasCh: 1 
arfcn: 10 rxLev: -79
arfcn: 28 rxLev: -79
arfcn: 35 rxLev: -80
$GPGGA,144124.520,4806.8798,N,00139.4495,W,1,04,2.7,31.9,M,48.3,M,,0000*79
$GPGSA,M,3,15,13,17,28,,,,,,,,,4.0,2.7,2.9*3E
$GPRMC,144124.520,A,4806.8798,N,00139.4495,W,5.99,31.84,090218,,,A*47
$GPGGA,144125.520,4806.8832,N,00139.4481,W,1,04,2.7,32.6,M,48.3,M,,0000*7E
$GPGSA,M,3,15,13,17,28,,,,,,,,,4.0,2.7,2.9*3E
$GPGSV,3,1,11,15,67,175,26,13,39,134,15,17,30,082,31,28,14,044,15*75
$GPGSV,3,2,11,19,26,108,21,24,62,285,19,33,33,198,,18,31,277,*72
$GPGSV,3,3,11,12,30,209,,10,22,311,,20,17,215,*42
$GPRMC,144125.520,A,4806.8832,N,00139.4481,W,8.77,188.66,090218,,,A*7E
$GPGGA,144126.520,4806.8804,N,00139.4419,W,1,04,2.7,30.8,M,48.3,M,,0000*75
$GPGSA,M,3,15,13,17,28,,,,,,,,,4.0,2.7,2.9*3E
$GPRMC,144126.520,A,4806.8804,N,00139.4419,W,11.06,216.33,090218,,,A*43
$GPGGA,144127.520,4806.8788,N,00139.4370,W,1,04,2.7,24.3,M,48.3,M,,0000*79
$GPGSA,M,3,15,13,17,28,,,,,,,,,4.0,2.7,2.9*3E
$GPRMC,144127.520,A,4806.8788,N,00139.4370,W,10.78,217.53,090218,,,A*4E
$GPGGA,144128.520,4806.8848,N,00139.4386,W,1,04,2.7,24.3,M,48.3,M,,0000*7C
$GPGSA,M,3,15,13,17,28,,,,,,,,,4.0,2.7,2.9*3E
$GPRMC,144128.520,A,4806.8848,N,00139.4386,W,1.68,7.83,090218,,,A*74
$GPGGA,144129.520,4806.8798,N,00139.4242,W,1,04,2.7,32.3,M,48.3,M,,0000*71
$GPGSA,M,3,15,13,17,28,,,,,,,,,4.0,2.7,2.9*3E
$GPRMC,144129.520,A,4806.8798,N,00139.4242,W,1.97,157.66,090218,,,A*71
$GPGGA,144130.520,4806.8741,N,00139.4213,W,1,04,2.7,29.1,M,48.3,M,,0000*71
$GPGSA,M,3,15,13,17,28,,,,,,,,,4.0,2.7,2.9*3E
$GPGSV,3,1,11,15,67,175,27,13,39,134,15,17,30,082,31,28,14,044,15*74
$GPGSV,3,2,11,19,26,108,21,24,62,285,18,33,33,198,,18,31,277,*73
$GPGSV,3,3,11,12,30,209,,10,22,311,,20,17,215,*42
$GPRMC,144130.520,A,4806.8741,N,00139.4213,W,4.33,14.03,090218,,,A*47
$GPGGA,144131.520,4806.8705,N,00139.4213,W,1,04,2.7,29.9,M,48.3,M,,0000*78
$GPGSA,M,3,15,13,17,28,,,,,,,,,4.0,2.7,2.9*3E
$GPRMC,144131.520,A,4806.8705,N,00139.4213,W,7.12,72.79,090218,,,A*4B
$GPGGA,144132.520,,,,,0,04,4.2,,M,0.0,M,,0000*7C
$GPGSA,M,1,,,,,,,,,,,,,,,*12
$GPRMC,144132.520,V,,,,,,,090218,,,N*49
$GPGGA,144133.520,,,,,0,04,4.2,,M,0.0,M,,0000*7D
$GPGSA,M,1,,,,,,,,,,,,,,,*12
$GPRMC,144133.520,V,,,,,,,090218,,,N*48
$GPGGA,144134.520,,,,,0,04,4.2,,M,0.0,M,,0000*7A
$GPGSA,M,1,,,,,,,,,,,,,,,*12
$GPRMC,144134.520,V,,,,,,,090218,,,N*4F
$GPGGA,144135.000,4806.8758,N,00139.4430,W,1,04,4.2,13.7,M,48.3,M,,0000*70
$GPGSA,M,3,15,13,17,28,,,,,,,,,8.3,4.2,7.1*3F
$GPGSV,3,1,11,15,67,175,27,13,39,134,15,17,30,082,31,28,14,044,16*77
$GPGSV,3,2,11,19,26,108,21,24,62,285,17,37,27,150,,18,31,277,*79
$GPGSV,3,3,11,12,30,209,,10,22,311,,20,17,215,*42
$GPRMC,144135.000,A,4806.8758,N,00139.4430,W,0.87,207.88,090218,,,A*72
$GPGGA,144136.000,4806.8721,N,00139.4462,W,1,04,4.2,1.8,M,48.3,M,,0000*46
arfcn: 985 bsic: 44 rxLev: -80 ber: 0.00 mcc: 208 mnc: 20 lac: 418 cellId: 21808 cellStatus: CELL_SUITABLE numArfcn: 1 arfcn: 985 numChannels: 17 array: 975 977 978 979 980 981 982 983 1011 1012 1014 1015 1017 1019 1020 1021 1022 pbcch: 0 nom: 2 rac: 6 spgc: 0 pat: 6 nco: 0 t3168: 1500 t3192: 500 drxmax: 0 ctrlAck: 0 bsCVmax: 8 alpha: 6 pcMeasCh: 1 
arfcn: 34 rxLev: -80
$GPGSA,M,3,15,13,17,28,,,,,,,,,8.2,4.2,7.1*3E
arfcn: 36 rxLev: -80
arfcn: 29 rxLev: -80
$GPRMC,144136.000,A,4806.8721,N,00139.4462,W,2.14,211.54,090218,,,A*76
arfcn: 30 rxLev: -80
$GPGGA,144137.000,4806.8678,N,00139.4520,W,1,04,4.2,-16.2,M,48.3,M,,0000*5C
$GPGSA,M,3,15,13,17,28,,,,,,,,,8.2,4.2,7.1*3E
$GPRMC,144137.000,A,4806.8678,N,00139.4520,W,1.98,215.43,090218,,,A*78
$GPGGA,144138.000,4806.8645,N,00139.4562,W,1,04,4.2,-31.0,M,48.3,M,,0000*5C
$GPGSA,M,3,15,13,17,28,,,,,,,,,8.2,4.2,7.1*3E
$GPRMC,144138.000,A,4806.8645,N,00139.4562,W,2.27,220.39,090218,,,A*73
arfcn: 5 bsic: 1 rxLev: -80 ber: 0.00 mcc: 208 mnc: 01 lac: 10300 cellId: 40079 cellStatus: CELL_FORBIDDEN numArfcn: 13 arfcn: 5 17 18 19 20 21 22 23 24 25 47 48 49 numChannels: 20 array: 1 2 3 4 5 8 9 10 11 13 14 15 16 512 513 518 604 606 608 610 pbcch: 0 nom: 2 rac: 1 spgc: 0 pat: 6 nco: 0 t3168: 1000 t3192: 500 drxmax: 2 ctrlAck: 0 bsCVmax: 9 alpha: 5 pcMeasCh: 1 
arfcn: 27 rxLev: -81
arfcn: 37 rxLev: -81
$GPGGA,144139.000,4806.8620,N,00139.4596,W,1,04,4.2,-44.1,M,48.3,M,,0000*56
$GPGSA,M,3,15,13,17,28,,,,,,,,,8.2,4.2,7.1*3E
$GPRMC,144139.000,A,4806.8620,N,00139.4596,W,2.28,231.91,090218,,,A*77
$GPGGA,144140.000,4806.8600,N,00139.4607,W,1,04,4.2,-50.6,M,48.3,M,,0000*53
$GPGSA,M,3,15,13,17,28,,,,,,,,,8.2,4.2,7.1*3E
$GPGSV,3,1,11,15,67,175,26,13,39,134,15,17,30,082,31,28,14,044,17*77
$GPGSV,3,2,11,19,26,108,21,24,62,285,16,37,27,150,,18,31,277,*78
$GPGSV,3,3,11,12,30,209,,10,22,311,,20,17,215,*42
arfcn: 605 bsic: 33 rxLev: -81 ber: 0.00 mcc: 208 mnc: 01 lac: 10300 cellId: 27588 cellStatus: CELL_FORBIDDEN numArfcn: 22 arfcn: 525 526 527 528 529 530 531 532 533 534 535 587 588 589 590 591 592 593 594 595 596 597 numChannels: 18 array: 1 3 5 8 12 15 512 513 514 515 516 517 518 604 605 606 607 609 pbcch: 0 nom: 2 rac: 1 spgc: 0 pat: 6 nco: 0 t3168: 1000 t3192: 500 drxmax: 2 ctrlAck: 0 bsCVmax: 9 alpha: 5 pcMeasCh: 1 
$GPRMC,144140.000,A,4806.8600,N,00139.4607,W,1.04,231.91,090218,,,A*7D
$GPGGA,144141.000,4806.8589,N,00139.4632,W,1,04,4.2,-57.0,M,48.3,M,,0000*57
$GPGSA,M,3,15,13,17,28,,,,,,,,,8.2,4.2,7.1*3E
$GPRMC,144141.000,A,4806.8589,N,00139.4632,W,1.86,228.12,090218,,,A*71
$GPGGA,144142.000,4806.8583,N,00139.4640,W,1,04,4.1,-60.6,M,48.3,M,,0000*5A
$GPGSA,M,3,15,13,17,28,,,,,,,,,8.2,4.1,7.1*3D
$GPRMC,144142.000,A,4806.8583,N,00139.4640,W,2.67,219.20,090218,,,A*72
$GPGGA,144143.000,4806.8585,N,00139.4661,W,1,04,4.1,-63.3,M,48.3,M,,0000*58
$GPGSA,M,3,15,13,17,28,,,,,,,,,8.2,4.1,7.1*3D
$GPRMC,144143.000,A,4806.8585,N,00139.4661,W,2.07,217.68,090218,,,A*72
$GPGGA,144144.000,4806.8579,N,00139.4670,W,1,04,4.1,-67.1,M,48.3,M,,0000*5A
$GPGSA,M,3,15,13,17,28,,,,,,,,,8.2,4.1,7.1*3D
$GPRMC,144144.000,A,4806.8579,N,00139.4670,W,0.94,217.68,090218,,,A*7E
arfcn: 1017 bsic: 33 rxLev: -81 ber: 0.00 mcc: 208 mnc: 20 lac: 418 cellId: 20104 cellStatus: CELL_SUITABLE numArfcn: 3 arfcn: 986 987 1017 numChannels: 20 array: 788 790 885 975 976 978 979 980 981 982 986 987 1011 1012 1015 1017 1019 1020 1021 1022 pbcch: 0 nom: 2 rac: 7 spgc: 0 pat: 6 nco: 0 t3168: 1500 t3192: 500 drxmax: 4 ctrlAck: 1 bsCVmax: 8 alpha: 6 pcMeasCh: 1 
arfcn: 33 rxLev: -81
arfcn: 38 rxLev: -82
arfcn: 32 rxLev: -82
arfcn: 31 rxLev: -82
arfcn: 39 rxLev: -83
arfcn: 40 rxLev: -83
arfcn: 845 rxLev: -83
$GPGGA,144145.000,4806.8585,N,00139.4668,W,1,04,4.1,-66.2,M,48.3,M,,0000*53
arfcn: 851 rxLev: -83
$GPGSA,M,3,15,13,17,28,,,,,,,,,8.2,4.1,7.1*3D
arfcn: 798 rxLev: -83
arfcn: 41 rxLev: -83
$GPGSV,3,1,11,15,67,175,26,13,39,134,15,17,30,082,31,28,14,044,18*78
arfcn: 42 rxLev: -83
$GPGSV,3,2,11,19,26,108,22,24,62,285,16,37,27,150,,18,31,277,*7B
$GPGSV,3,3,11,12,30,209,,10,22,311,,20,17,215,*42
$GPRMC,144145.000,A,4806.8585,N,00139.4668,W,1.55,218.25,090218,,,A*7F
$GPGGA,144146.000,4806.8599,N,00139.4649,W,1,04,4.1,-59.5,M,48.3,M,,0000*55
$GPGSA,M,3,15,13,17,28,,,,,,,,,8.2,4.1,7.1*3D
$GPRMC,144146.000,A,4806.8599,N,00139.4649,W,1.53,219.41,090218,,,A*77
$GPGGA,144147.000,4806.8605,N,00139.4637,W,1,04,4.1,-56.4,M,48.3,M,,0000*55
$GPGSA,M,3,15,13,17,28,,,,,,,,,8.2,4.1,7.0*3C
$GPRMC,144147.000,A,4806.8605,N,00139.4637,W,1.45,222.67,090218,,,A*72
arfcn: 515 bsic: 34 rxLev: -83 ber: 0.00 mcc: 208 mnc: 01 lac: 10300 cellId: 27586 cellStatus: CELL_FORBIDDEN numArfcn: 16 arfcn: 519 520 521 522 523 524 525 526 596 597 598 599 600 601 602 603 numChannels: 9 array: 1 8 12 512 513 516 605 606 607 pbcch: 0 nom: 2 rac: 1 spgc: 0 pat: 6 nco: 0 t3168: 1000 t3192: 500 drxmax: 2 ctrlAck: 0 bsCVmax: 9 alpha: 5 pcMeasCh: 1 
arfcn: 852 rxLev: -84
arfcn: 844 rxLev: -84
arfcn: 836 rxLev: -84
arfcn: 849 rxLev: -84
arfcn: 850 rxLev: -84
$GPGGA,144148.000,4806.8620,N,00139.4610,W,1,04,4.1,-47.8,M,48.3,M,,0000*54
$GPGSA,M,3,15,13,17,28,,,,,,,,,8.2,4.1,7.0*3C
$GPRMC,144148.000,A,4806.8620,N,00139.4610,W,0.40,222.67,090218,,,A*7B
$GPGGA,144149.000,4806.8630,N,00139.4583,W,1,04,4.1,-42.4,M,48.3,M,,0000*54
$GPGSA,M,3,15,13,17,28,,,,,,,,,8.2,4.1,7.0*3C
$GPRMC,144149.000,A,4806.8630,N,00139.4583,W,0.61,222.67,090218,,,A*71
arfcn: 512 bsic: 25 rxLev: -84 ber: 0.07 mcc: 208 mnc: 01 lac: 10300 cellId: 40155 cellStatus: CELL_FORBIDDEN numArfcn: 16 arfcn: 519 520 521 522 523 524 525 526 596 597 598 599 600 601 602 603 numChannels: 16 array: 2 3 5 8 10 11 12 15 16 517 518 604 605 606 609 610 pbcch: 0 nom: 2 rac: 1 spgc: 0 pat: 6 nco: 0 t3168: 1000 t3192: 500 drxmax: 2 ctrlAck: 0 bsCVmax: 9 alpha: 5 pcMeasCh: 1 
arfcn: 43 rxLev: -84
arfcn: 44 rxLev: -85
$GPGGA,144150.000,4806.8639,N,00139.4553,W,1,04,4.1,-37.5,M,48.3,M,,0000*5B
$GPGSA,M,3,15,13,17,28,,,,,,,,,8.2,4.1,7.0*3C
arfcn: 26 rxLev: -85
arfcn: 94 rxLev: -85
$GPGSV,3,1,11,15,67,175,26,13,39,134,15,17,30,082,31,28,14,044,17*77
arfcn: 846 rxLev: -85
arfcn: 838 rxLev: -85
$GPGSV,3,2,11,19,26,108,22,24,62,285,17,37,27,150,,18,31,277,*7A
arfcn: 827 rxLev: -85
$GPGSV,3,3,11,12,30,209,,10,22,311,,20,17,215,*42
arfcn: 793 rxLev: -85
arfcn: 794 rxLev: -85
$GPRMC,144150.000,A,4806.8639,N,00139.4553,W,0.88,222.67,090218,,,A*7A
arfcn: 795 rxLev: -85
arfcn: 811 rxLev: -85
arfcn: 813 rxLev: -85
$GPGGA,144151.000,4806.8656,N,00139.4541,W,1,04,4.1,-33.3,M,48.3,M,,0000*52
arfcn: 825 rxLev: -85
arfcn: 837 rxLev: -85
$GPGSA,M,3,15,13,17,28,,,,,,,,,8.1,4.1,7.0*3F
arfcn: 839 rxLev: -85
arfcn: 847 rxLev: -85
$GPRMC,144151.000,A,4806.8656,N,00139.4541,W,0.66,222.67,090218,,,A*71
arfcn: 871 rxLev: -85
arfcn: 93 rxLev: -85
arfcn: 64 rxLev: -85
arfcn: 65 rxLev: -85
arfcn: 66 rxLev: -85
arfcn: 98 rxLev: -85
$GPGGA,144152.000,4806.8672,N,00139.4531,W,1,04,4.1,-29.6,M,48.3,M,,0000*5E
$GPGSA,M,3,15,13,17,28,,,,,,,,,8.1,4.1,7.0*3F
$GPRMC,144152.000,A,4806.8672,N,00139.4531,W,1.54,239.97,090218,,,A*76
$GPGGA,144153.000,4806.8689,N,00139.4530,W,1,04,4.1,-26.8,M,48.3,M,,0000*5B
$GPGSA,M,3,15,13,17,28,,,,,,,,,8.1,4.1,7.0*3F
$GPRMC,144153.000,A,4806.8689,N,00139.4530,W,1.95,264.84,090218,,,A*75
$GPGGA,144154.000,4806.8703,N,00139.4531,W,1,04,4.1,-25.1,M,48.3,M,,0000*54
$GPGSA,M,3,15,13,17,28,,,,,,,,,8.1,4.1,7.0*3F
$GPRMC,144154.000,A,4806.8703,N,00139.4531,W,2.28,283.69,090218,,,A*7F
arfcn: 1020 bsic: 39 rxLev: -85 ber: 0.00 mcc: 208 mnc: 20 lac: 418 cellId: 38980 cellStatus: CELL_SUITABLE numArfcn: 1 arfcn: 1020 numChannels: 26 array: 787 788 790 791 793 795 796 879 884 885 978 979 981 982 983 985 986 987 1011 1012 1013 1014 1015 1017 1019 1022 pbcch: 0 nom: 2 rac: 6 spgc: 0 pat: 6 nco: 0 t3168: 1500 t3192: 500 drxmax: 0 ctrlAck: 0 bsCVmax: 8 alpha: 6 pcMeasCh: 1 
arfcn: 983 rxLev: -85
arfcn: 96 rxLev: -86
$GPGGA,144155.000,4806.8718,N,00139.4544,W,1,04,4.1,-24.0,M,48.3,M,,0000*5D
$GPGSA,M,3,15,13,17,28,,,,,,,,,8.1,4.1,7.0*3F
$GPGSV,3,1,11,15,67,175,25,13,39,134,16,17,30,082,31,28,14,044,18*78
$GPGSV,3,2,11,19,26,108,23,24,62,285,19,37,27,150,,18,31,277,*75
$GPGSV,3,3,11,12,30,209,,10,22,311,,20,17,215,*42
$GPRMC,144155.000,A,4806.8718,N,00139.4544,W,2.51,294.33,090218,,,A*71
$GPGGA,144156.000,4806.8732,N,00139.4552,W,1,04,4.1,-20.7,M,48.3,M,,0000*52
$GPGSA,M,3,15,13,17,28,,,,,,,,,8.1,4.1,7.0*3F
$GPRMC,144156.000,A,4806.8732,N,00139.4552,W,1.88,299.60,090218,,,A*71
arfcn: 114 bsic: 6 rxLev: -86 ber: 0.00 mcc: 208 mnc: 10 lac: 49415 cellId: 44202 cellStatus: CELL_FORBIDDEN numArfcn: 2 arfcn: 80 114 numChannels: 20 array: 76 77 78 79 80 84 85 86 113 114 115 116 117 118 119 120 121 122 123 124 pbcch: 0 nom: 2 rac: 31 spgc: 0 pat: 6 nco: 0 t3168: 1000 t3192: 500 drxmax: 4 ctrlAck: 1 bsCVmax: 9 alpha: 10 pcMeasCh: 0 
arfcn: 67 rxLev: -86
$GPGGA,144157.000,4806.8743,N,00139.4560,W,1,04,4.1,-18.3,M,48.3,M,,0000*5B
arfcn: 92 rxLev: -86
arfcn: 95 rxLev: -86
$GPGSA,M,3,15,13,17,28,,,,,,,,,8.1,4.1,7.0*3F
arfcn: 869 rxLev: -86
arfcn: 848 rxLev: -86
$GPRMC,144157.000,A,4806.8743,N,00139.4560,W,1.99,301.19,090218,,,A*79
arfcn: 842 rxLev: -86
arfcn: 854 rxLev: -86
arfcn: 835 rxLev: -86
arfcn: 834 rxLev: -86
arfcn: 820 rxLev: -86
arfcn: 799 rxLev: -86
arfcn: 803 rxLev: -86
arfcn: 804 rxLev: -86
$GPGGA,144158.000,4806.8754,N,00139.4573,W,1,04,4.1,-13.8,M,48.3,M,,0000*50
arfcn: 805 rxLev: -86
$GPGSA,M,3,15,13,17,28,,,,,,,,,8.1,4.1,7.0*3F
arfcn: 800 rxLev: -86
$GPRMC,144158.000,A,4806.8754,N,00139.4573,W,2.25,299.41,090218,,,A*7B
arfcn: 796 rxLev: -86
arfcn: 791 rxLev: -86
arfcn: 792 rxLev: -86
arfcn: 840 rxLev: -86
arfcn: 826 rxLev: -86
arfcn: 828 rxLev: -86
arfcn: 867 rxLev: -86
arfcn: 862 rxLev: -86
arfcn: 874 rxLev: -86
$GPGGA,144159.000,4806.8763,N,00139.4586,W,1,04,4.1,-10.0,M,48.3,M,,0000*54
arfcn: 877 rxLev: -86
$GPGSA,M,3,15,13,17,28,,,,,,,,,8.1,4.1,7.0*3F
arfcn: 68 rxLev: -86
arfcn: 97 rxLev: -86
$GPRMC,144159.000,A,4806.8763,N,00139.4586,W,2.24,298.17,090218,,,A*77
arfcn: 99 rxLev: -86
arfcn: 100 rxLev: -86
arfcn: 101 rxLev: -86
arfcn: 45 rxLev: -86
arfcn: 63 rxLev: -87
$GPGGA,144200.000,4806.8767,N,00139.4598,W,1,04,4.1,-7.9,M,48.3,M,,0000*6F
$GPGSA,M,3,15,13,17,28,,,,,,,,,8.1,4.1,7.0*3F
$GPGSV,3,1,11,15,67,175,24,13,39,134,16,17,30,082,31,28,14,044,18*79
$GPGSV,3,2,11,19,26,108,23,24,62,285,21,37,27,150,,18,31,277,*7E
$GPGSV,3,3,11,12,30,209,,10,22,311,,20,17,215,*42
$GPRMC,144200.000,A,4806.8767,N,00139.4598,W,1.62,297.30,090218,,,A*78
$GPGGA,144201.000,4806.8770,N,00139.4606,W,1,04,4.1,-4.8,M,48.3,M,,0000*6E
$GPGSA,M,3,15,13,17,28,,,,,,,,,8.1,4.1,7.0*3F
$GPRMC,144201.000,A,4806.8770,N,00139.4606,W,1.35,297.49,090218,,,A*77
arfcn: 4 bsic: 54 rxLev: -87 ber: 0.03 mcc: 208 mnc: 01 lac: 10300 cellId: 43768 cellStatus: CELL_FORBIDDEN numArfcn: 13 arfcn: 4 17 18 19 20 21 22 23 24 25 47 48 49 numChannels: 20 array: 1 3 5 6 7 8 12 13 14 513 514 515 517 518 601 605 606 608 609 610 pbcch: 0 nom: 2 rac: 1 spgc: 0 pat: 6 nco: 0 t3168: 1000 t3192: 500 drxmax: 2 ctrlAck: 0 bsCVmax: 9 alpha: 5 pcMeasCh: 1 
arfcn: 79 rxLev: -87
arfcn: 91 rxLev: -87
arfcn: 86 rxLev: -87
$GPGGA,144202.000,4806.8769,N,00139.4609,W,1,04,4.1,-2.5,M,48.3,M,,0000*61
arfcn: 81 rxLev: -87
arfcn: 857 rxLev: -87
$GPGSA,M,3,15,13,17,28,,,,,,,,,8.1,4.1,7.0*3F
arfcn: 858 rxLev: -87
arfcn: 860 rxLev: -87
$GPRMC,144202.000,A,4806.8769,N,00139.4609,W,1.31,296.17,090218,,,A*7D
arfcn: 866 rxLev: -87
arfcn: 843 rxLev: -87
arfcn: 819 rxLev: -87
arfcn: 812 rxLev: -87
arfcn: 815 rxLev: -87
arfcn: 818 rxLev: -87
arfcn: 821 rxLev: -87
$GPGGA,144203.000,4806.8769,N,00139.4611,W,1,04,4.1,-2.4,M,48.3,M,,0000*68
arfcn: 822 rxLev: -87
$GPGSA,M,3,15,13,17,28,,,,,,,,,8.1,4.1,7.0*3F
arfcn: 823 rxLev: -87
arfcn: 801 rxLev: -87
$GPRMC,144203.000,A,4806.8769,N,00139.4611,W,1.57,296.10,090218,,,A*72
arfcn: 802 rxLev: -87
arfcn: 841 rxLev: -87
arfcn: 853 rxLev: -87
arfcn: 856 rxLev: -87
arfcn: 829 rxLev: -87
arfcn: 830 rxLev: -87
arfcn: 831 rxLev: -87
arfcn: 832 rxLev: -87
arfcn: 833 rxLev: -87
$GPGGA,144204.000,4806.8768,N,00139.4615,W,1,04,4.1,-3.9,M,48.3,M,,0000*66
arfcn: 868 rxLev: -87
$GPGSA,M,3,15,13,17,28,,,,,,,,,8.1,4.1,6.9*37
arfcn: 870 rxLev: -87
arfcn: 872 rxLev: -87
$GPRMC,144204.000,A,4806.8768,N,00139.4615,W,2.05,295.71,090218,,,A*70
arfcn: 859 rxLev: -87
arfcn: 861 rxLev: -87
arfcn: 878 rxLev: -87
arfcn: 876 rxLev: -87
arfcn: 84 rxLev: -87
$GPGGA,144205.000,4806.8761,N,00139.4609,W,1,04,4.1,-6.0,M,48.3,M,,0000*6F
$GPGSA,M,3,15,13,17,28,,,,,,,,,8.1,4.1,6.9*37
$GPGSV,3,1,11,15,67,175,24,13,39,134,15,17,30,082,31,28,14,044,18*7A
$GPGSV,3,2,11,19,26,108,23,24,62,285,22,39,31,144,,18,31,277,*71
$GPGSV,3,3,11,12,30,209,,10,22,311,,20,17,215,*42
$GPRMC,144205.000,A,4806.8761,N,00139.4609,W,1.36,294.79,090218,,,A*7F
$GPGGA,144206.000,4806.8752,N,00139.4600,W,1,04,4.1,-8.1,M,48.3,M,,0000*6A
$GPGSA,M,3,15,13,17,28,,,,,,,,,8.1,4.1,6.9*37
$GPRMC,144206.000,A,4806.8752,N,00139.4600,W,1.32,297.53,090218,,,A*7A
arfcn: 76 bsic: 5 rxLev: -87 ber: 1.10 mcc: 208 mnc: 10 lac: 49415 cellId: 44813 cellStatus: CELL_FORBIDDEN numArfcn: 2 arfcn: 76 121 numChannels: 16 array: 76 77 78 79 80 82 84 85 86 113 114 117 118 121 123 124 pbcch: 0 nom: 2 rac: 31 spgc: 0 pat: 6 nco: 0 t3168: 1000 t3192: 500 drxmax: 4 ctrlAck: 1 bsCVmax: 9 alpha: 10 pcMeasCh: 0 
arfcn: 69 rxLev: -87
arfcn: 102 rxLev: -87
arfcn: 103 rxLev: -87
arfcn: 105 rxLev: -87
arfcn: 106 rxLev: -87
arfcn: 108 rxLev: -87
$GPGGA,144207.000,4806.8744,N,00139.4593,W,1,04,4.1,-11.4,M,48.3,M,,0000*58
$GPGSA,M,3,15,13,17,28,,,,,,,,,8.0,4.1,6.9*36
$GPRMC,144207.000,A,4806.8744,N,00139.4593,W,2.16,307.21,090218,,,A*7D
$GPGGA,144208.000,4806.8737,N,00139.4582,W,1,04,4.1,-14.2,M,48.3,M,,0000*50
$GPGSA,M,3,15,13,17,28,,,,,,,,,8.0,4.1,6.9*36
$GPRMC,144208.000,A,4806.8737,N,00139.4582,W,1.23,310.38,090218,,,A*7D
arfcn: 120 bsic: 59 rxLev: -87 ber: 0.00 mcc: 208 mnc: 10 lac: 49415 cellId: 13571 cellStatus: CELL_FORBIDDEN numArfcn: 2 arfcn: 111 120 numChannels: 14 array: 76 77 79 80 83 84 85 114 115 116 117 120 122 124 pbcch: 0 nom: 2 rac: 31 spgc: 0 pat: 6 nco: 0 t3168: 1000 t3192: 500 drxmax: 4 ctrlAck: 1 bsCVmax: 9 alpha: 10 pcMeasCh: 0 
arfcn: 13 rxLev: -87
$GPGGA,144209.000,4806.8727,N,00139.4574,W,1,04,4.1,-17.3,M,48.3,M,,0000*5B
$GPGSA,M,3,15,13,17,28,,,,,,,,,8.0,4.1,6.9*36
$GPRMC,144209.000,A,4806.8727,N,00139.4574,W,0.40,310.38,090218,,,A*70
$GPGGA,144210.000,4806.8720,N,00139.4560,W,1,04,4.1,-19.4,M,48.3,M,,0000*58
$GPGSA,M,3,15,13,17,28,,,,,,,,,8.0,4.1,6.9*36
$GPGSV,3,1,11,15,67,175,24,13,39,134,16,17,30,082,31,28,14,044,17*76
$GPGSV,3,2,11,19,26,108,23,24,62,285,22,39,31,144,,18,31,277,*71
$GPGSV,3,3,11,12,30,209,,10,22,311,,20,17,215,*42
$GPRMC,144210.000,A,4806.8720,N,00139.4560,W,0.68,310.38,090218,,,A*70
$GPGGA,144211.000,4806.8717,N,00139.4551,W,1,04,4.1,-21.8,M,48.3,M,,0000*58
$GPGSA,M,3,15,13,17,28,,,,,,,,,8.0,4.1,6.9*36
$GPRMC,144211.000,A,4806.8717,N,00139.4551,W,0.58,310.38,090218,,,A*74
$GPGGA,144212.000,4806.8707,N,00139.4541,W,1,04,4.1,-24.8,M,48.3,M,,0000*5E
$GPGSA,M,3,15,13,17,28,,,,,,,,,8.0,4.1,6.9*36
$GPRMC,144212.000,A,4806.8707,N,00139.4541,W,1.05,310.38,090218,,,A*7E
arfcn: 986 bsic: 13 rxLev: -87 ber: 6.06 mcc: 208 mnc: 20 lac: 418 cellId: 21504 cellStatus: CELL_SUITABLE numArfcn: 0 arfcn: numChannels: 19 array: 975 976 978 979 980 982 983 985 987 1012 1013 1014 1015 1017 1018 1019 1020 1021 1022
$GPGGA,144213.000,4806.8699,N,00139.4538,W,1,04,4.1,-27.7,M,48.3,M,,0000*5B
$GPGSA,M,3,15,13,17,28,,,,,,,,,8.0,4.1,6.9*36
$GPRMC,144213.000,A,4806.8699,N,00139.4538,W,1.27,295.02,090218,,,A*72
$GPGGA,144214.000,4806.8688,N,00139.4539,W,1,04,4.1,-29.0,M,48.3,M,,0000*54
$GPGSA,M,3,15,13,17,28,,,,,,,,,8.0,4.1,6.9*36
$GPRMC,144214.000,A,4806.8688,N,00139.4539,W,2.27,256.45,090218,,,A*7B
$GPGGA,144215.000,4806.8682,N,00139.4549,W,1,04,4.1,-29.1,M,48.3,M,,0000*59
$GPGSA,M,3,15,13,17,28,,,,,,,,,8.0,4.1,6.9*36
$GPGSV,3,1,11,15,67,175,24,13,39,134,17,17,30,082,31,28,14,044,17*77
arfcn: 979 bsic: 19 rxLev: -88 ber: 1.04 mcc: 208 mnc: 20 lac: 418 cellId: 20718 cellStatus: CELL_SUITABLE numArfcn: 1 arfcn: 979 numChannels: 22 array: 788 789 790 792 793 795 878 882 884 977 981 983 984 985 986 987 1012 1013 1014 1017 1019 1020 pbcch: 0 nom: 2 rac: 6 spgc: 0 pat: 6 nco: 0 t3168: 1500 t3192: 500 drxmax: 0 ctrlAck: 0 bsCVmax: 8 alpha: 6 pcMeasCh: 1 
$GPGSV,3,2,11,19,26,108,23,24,62,285,22,39,31,144,,18,31,277,*71
$GPGSV,3,3,11,12,30,209,,10,22,311,,20,17,215,*42
$GPRMC,144215.000,A,4806.8682,N,00139.4549,W,1.73,242.94,090218,,,A*7C
$GPGGA,144216.000,4806.8681,N,00139.4554,W,1,04,4.1,-29.2,M,48.3,M,,0000*56
$GPGSA,M,3,15,13,17,28,,,,,,,,,8.0,4.1,6.9*36
$GPRMC,144216.000,A,4806.8681,N,00139.4554,W,0.37,242.94,090218,,,A*71
$GPGGA,144217.000,4806.8678,N,00139.4561,W,1,04,4.1,-29.9,M,48.3,M,,0000*5C
$GPGSA,M,3,15,13,17,28,,,,,,,,,8.0,4.1,6.9*36
$GPRMC,144217.000,A,4806.8678,N,00139.4561,W,0.86,242.94,090218,,,A*7A
$GPGGA,144218.000,4806.8683,N,00139.4563,W,1,04,4.1,-28.7,M,48.3,M,,0000*5A
$GPGSA,M,3,15,13,17,28,,,,,,,,,8.0,4.1,6.9*36
$GPRMC,144218.000,A,4806.8683,N,00139.4563,W,1.34,254.03,090218,,,A*72
$GPGGA,144219.000,4806.8687,N,00139.4571,W,1,04,4.1,-28.9,M,48.3,M,,0000*52
arfcn: 1014 bsic: 31 rxLev: -88 ber: 6.08 mcc: 208 mnc: 20 lac: 418 cellId: 20649 cellStatus: CELL_SUITABLE numArfcn: 1 arfcn: 1014 numChannels: 25 array: 788 789 790 791 793 795 796 879 884 977 978 979 980 981 982 983 984 985 987 1012 1013 1017 1020 1021 1022 pbcch: 0 nom: 2 rac: 6 spgc: 0 pat: 6 nco: 0 t3168: 1500 t3192: 500 drxmax: 0 ctrlAck: 0 bsCVmax: 8 alpha: 6 pcMeasCh: 1 
$GPGSA,M,3,15,13,17,28,,,,,,,,,8.0,4.1,6.9*36
$GPRMC,144219.000,A,4806.8687,N,00139.4571,W,2.14,268.39,090218,,,A*73
$GPGGA,144220.000,4806.8692,N,00139.4581,W,1,04,4.1,-28.2,M,48.3,M,,0000*58
$GPGSA,M,3,15,13,17,28,,,,,,,,,8.0,4.1,6.9*36
$GPGSV,3,1,11,15,67,175,18,13,39,134,18,17,30,082,31,28,14,044,17*77
$GPGSV,3,2,11,19,26,108,23,24,62,285,21,39,31,144,,18,31,277,*72
$GPGSV,3,3,11,12,30,209,,10,22,311,,20,17,215,*42
$GPRMC,144220.000,A,4806.8692,N,00139.4581,W,2.68,279.28,090218,,,A*79
arfcn: 606 bsic: 57 rxLev: -88 ber: 2.02 mcc: 208 mnc: 01 lac: 10301 cellId: 27485 cellStatus: CELL_FORBIDDEN numArfcn: 16 arfcn: 519 520 521 522 523 524 525 526 596 597 598 599 600 601 602 603 numChannels: 15 array: 3 4 6 10 12 512 513 514 515 516 517 604 605 608 609 pbcch: 0 nom: 2 rac: 1 spgc: 0 pat: 6 nco: 0 t3168: 1000 t3192: 500 drxmax: 2 ctrlAck: 0 bsCVmax: 9 alpha: 5 pcMeasCh: 1 
arfcn: 62 rxLev: -88
arfcn: 107 rxLev: -88
arfcn: 104 rxLev: -88
$GPGGA,144221.000,4806.8698,N,00139.4596,W,1,04,4.0,-27.8,M,48.3,M,,0000*51
arfcn: 864 rxLev: -88
$GPGSA,M,3,15,13,17,28,,,,,,,,,8.0,4.0,6.9*37
arfcn: 797 rxLev: -88
arfcn: 824 rxLev: -88
$GPRMC,144221.000,A,4806.8698,N,00139.4596,W,3.05,284.02,090218,,,A*74
arfcn: 817 rxLev: -88
arfcn: 816 rxLev: -88
arfcn: 814 rxLev: -88
arfcn: 810 rxLev: -88
arfcn: 865 rxLev: -88
arfcn: 875 rxLev: -88
arfcn: 880 rxLev: -88
$GPGGA,144222.000,4806.8697,N,00139.4605,W,1,04,4.0,-27.6,M,48.3,M,,0000*5A
arfcn: 855 rxLev: -88
$GPGSA,M,3,15,13,17,28,,,,,,,,,8.0,4.0,6.8*36
$GPRMC,144222.000,A,4806.8697,N,00139.4605,W,2.32,282.11,090218,,,A*70
$GPGGA,144223.000,4806.8697,N,00139.4608,W,1,04,4.0,-26.5,M,48.3,M,,0000*54
$GPGSA,M,3,15,13,17,28,,,,,,,,,7.9,4.0,6.8*30
$GPRMC,144223.000,A,4806.8697,N,00139.4608,W,1.74,282.55,090218,,,A*7D
arfcn: 117 bsic: 12 rxLev: -88 ber: 0.00 mcc: 208 mnc: 10 lac: 49415 cellId: 3568 cellStatus: CELL_FORBIDDEN numArfcn: 2 arfcn: 82 117 numChannels: 17 array: 76 77 78 79 80 83 84 85 87 113 114 116 117 120 122 123 124 pbcch: 0 nom: 2 rac: 31 spgc: 0 pat: 6 nco: 0 t3168: 1000 t3192: 500 drxmax: 4 ctrlAck: 1 bsCVmax: 9 alpha: 10 pcMeasCh: 0 
arfcn: 11 rxLev: -88
$GPGGA,144224.000,4806.8701,N,00139.4607,W,1,04,4.0,-24.9,M,48.3,M,,0000*5C
$GPGSA,M,3,15,13,17,28,,,,,,,,,7.9,4.0,6.8*30
$GPRMC,144224.000,A,4806.8701,N,00139.4607,W,1.76,286.67,090218,,,A*7C
$GPGGA,144225.000,4806.8708,N,00139.4605,W,1,04,4.0,-23.2,M,48.3,M,,0000*5A
$GPGSA,M,3,15,13,17,28,,,,,,,,,7.9,4.0,6.8*30
$GPGSV,3,1,11,15,67,175,19,13,39,134,19,17,30,082,31,28,14,044,16*76
$GPGSV,3,2,11,19,26,108,23,24,62,285,21,39,31,144,,18,31,277,*72
$GPGSV,3,3,11,12,30,209,,10,22,311,,20,17,215,*42
$GPRMC,144225.000,A,4806.8708,N,00139.4605,W,1.65,290.10,090218,,,A*73
arfcn: 514 bsic: 1 rxLev: -88 ber: 0.00 mcc: 208 mnc: 01 lac: 10300 cellId: 39259 cellStatus: CELL_FORBIDDEN numArfcn: 17 arfcn: 514 519 520 521 522 523 524 525 526 596 597 598 599 600 601 602 603 numChannels: 14 array: 1 6 8 10 12 14 512 513 514 517 604 605 606 608 pbcch: 0 nom: 2 rac: 1 spgc: 1 pat: 6 nco: 0 t3168: 1000 t3192: 500 drxmax: 4 ctrlAck: 1 bsCVmax: 9 alpha: 7 pcMeasCh: 0 
$GPGGA,144226.000,4806.8713,N,00139.4599,W,1,04,4.0,-22.3,M,48.3,M,,0000*55
$GPGSA,M,3,15,13,17,28,,,,,,,,,7.9,4.0,6.8*30
$GPRMC,144226.000,A,4806.8713,N,00139.4599,W,1.41,293.32,090218,,,A*79
$GPGGA,144227.000,4806.8720,N,00139.4598,W,1,04,4.0,-20.3,M,48.3,M,,0000*57
$GPGSA,M,3,15,13,17,28,,,,,,,,,7.9,4.0,6.8*30
$GPRMC,144227.000,A,4806.8720,N,00139.4598,W,1.70,294.87,090218,,,A*72
$GPGGA,144228.000,4806.8727,N,00139.4597,W,1,04,4.0,-18.2,M,48.3,M,,0000*5A
$GPGSA,M,3,15,13,17,28,,,,,,,,,7.9,4.0,6.8*30
$GPRMC,144228.000,A,4806.8727,N,00139.4597,W,2.57,297.71,090218,,,A*79
$GPGGA,144229.000,4806.8729,N,00139.4592,W,1,04,4.0,-17.6,M,48.3,M,,0000*5B
$GPGSA,M,3,15,13,17,28,,,,,,,,,7.9,4.0,6.8*30
$GPRMC,144229.000,A,4806.8729,N,00139.4592,W,2.03,299.70,090218,,,A*7D
arfcn: 978 bsic: 19 rxLev: -88 ber: 0.06 mcc: 208 mnc: 20 lac: 418 cellId: 18480 cellStatus: CELL_SUITABLE numArfcn: 2 arfcn: 978 1023 numChannels: 24 array: 788 790 794 880 883 975 976 977 979 980 981 982 983 985 986 1011 1012 1014 1016 1017 1018 1019 1020 1021 pbcch: 0 nom: 2 rac: 6 spgc: 0 pat: 6 nco: 0 t3168: 1500 t3192: 500 drxmax: 4 ctrlAck: 1 bsCVmax: 8 alpha: 6 pcMeasCh: 1 
$GPGGA,144230.000,4806.8729,N,00139.4591,W,1,04,4.0,-17.5,M,48.3,M,,0000*53
$GPGSA,M,3,15,13,17,28,,,,,,,,,7.9,4.0,6.8*30
$GPGSV,3,1,11,15,67,175,20,13,39,134,20,17,30,082,31,28,14,044,16*76
$GPGSV,3,2,11,19,26,108,22,24,62,285,20,39,31,144,,18,31,277,*72
$GPGSV,3,3,11,12,30,209,,10,22,311,,20,17,215,*42
$GPRMC,144230.000,A,4806.8729,N,00139.4591,W,1.50,298.25,090218,,,A*72
$GPGGA,144231.000,4806.8725,N,00139.4587,W,1,04,4.0,-18.1,M,48.3,M,,0000*52
$GPGSA,M,3,15,13,17,28,,,,,,,,,7.9,4.0,6.8*30
$GPRMC,144231.000,A,4806.8725,N,00139.4587,W,0.66,298.25,090218,,,A*7C
arfcn: 14 bsic: 35 rxLev: -89 ber: 0.00 mcc: 208 mnc: 01 lac: 10300 cellId: 39250 cellStatus: CELL_FORBIDDEN numArfcn: 13 arfcn: 14 17 18 19 20 21 22 23 24 25 47 48 49 numChannels: 14 array: 1 3 4 6 8 10 12 14 512 513 514 517 604 608 pbcch: 0 nom: 2 rac: 1 spgc: 1 pat: 6 nco: 0 t3168: 1000 t3192: 500 drxmax: 4 ctrlAck: 1 bsCVmax: 9 alpha: 7 pcMeasCh: 0 
arfcn: 56 rxLev: -89
arfcn: 57 rxLev: -89
$GPGGA,144232.000,4806.8730,N,00139.4588,W,1,04,4.0,-17.1,M,48.3,M,,0000*55
$GPGSA,M,3,15,13,17,28,,,,,,,,,7.9,4.0,6.8*30
$GPRMC,144232.000,A,4806.8730,N,00139.4588,W,1.22,297.11,090218,,,A*7D
$GPGGA,144233.000,4806.8733,N,00139.4586,W,1,04,4.0,-16.3,M,48.3,M,,0000*5A
$GPGSA,M,3,15,13,17,28,,,,,,,,,7.9,4.0,6.8*30
$GPRMC,144233.000,A,4806.8733,N,00139.4586,W,1.54,298.06,090218,,,A*79
arfcn: 122 bsic: 3 rxLev: -89 ber: 0.00 mcc: 208 mnc: 10 lac: 49415 cellId: 33517 cellStatus: CELL_FORBIDDEN numArfcn: 3 arfcn: 77 88 122 numChannels: 17 array: 77 78 79 80 82 84 85 86 114 115 117 118 119 120 122 123 124 pbcch: 0 nom: 2 rac: 31 spgc: 0 pat: 6 nco: 0 t3168: 1000 t3192: 500 drxmax: 4 ctrlAck: 1 bsCVmax: 9 alpha: 10 pcMeasCh: 0 
arfcn: 109 rxLev: -89
arfcn: 873 rxLev: -89
arfcn: 863 rxLev: -89
$GPGGA,144234.000,4806.8737,N,00139.4592,W,1,04,4.0,-15.9,M,48.3,M,,0000*55
arfcn: 809 rxLev: -89
$GPGSA,M,3,15,13,17,28,,,,,,,,,7.9,4.0,6.8*30
arfcn: 806 rxLev: -89
$GPRMC,144234.000,A,4806.8737,N,00139.4592,W,2.75,302.72,090218,,,A*7E
arfcn: 807 rxLev: -89
arfcn: 879 rxLev: -89
$GPGGA,144235.000,4806.8744,N,00139.4603,W,1,04,4.0,-15.6,M,48.3,M,,0000*54
$GPGSA,M,3,15,13,17,28,,,,,,,,,7.9,4.0,6.8*30
$GPGSV,3,1,11,15,67,175,18,13,39,134,19,17,30,082,31,28,14,044,16*77
$GPGSV,3,2,11,19,26,108,22,24,62,285,18,33,33,198,,18,31,277,*70
$GPGSV,3,3,11,12,30,209,,10,22,311,,20,17,215,*42
$GPRMC,144235.000,A,4806.8744,N,00139.4603,W,3.46,306.35,090218,,,A*76
$GPGGA,144236.000,4806.8751,N,00139.4612,W,0,00,,-15.6,M,48.3,M,,0000*7C
$GPGSA,M,1,,,,,,,,,,,,,,,*12
arfcn: 78 bsic: 12 rxLev: -89 ber: 5.09 mcc: FFF mnc: FF lac: 65535 cellId: 0 cellStatus: CELL_OTHER numArfcn: 0 arfcn: numChannels: 0 array:
$GPRMC,144236.000,V,4806.8751,N,00139.4612,W,,,090218,,,N*6B
arfcn: 89 rxLev: -89
arfcn: 58 rxLev: -89
arfcn: 53 rxLev: -89
arfcn: 55 rxLev: -89
arfcn: 46 rxLev: -89
arfcn: 54 rxLev: -90
arfcn: 59 rxLev: -90
arfcn: 90 rxLev: -90
arfcn: 70 rxLev: -90
$GPGGA,144237.000,4806.8760,N,00139.4619,W,1,04,4.0,-15.4,M,48.3,M,,0000*59
arfcn: 123 rxLev: -90
$GPGSA,M,3,15,13,17,28,,,,,,,,,7.9,4.0,6.8*30
$GPRMC,144237.000,A,4806.8760,N,00139.4619,W,4.71,311.94,090218,,,A*77
$GPGGA,144238.020,4806.8771,N,00139.4631,W,0,00,,-15.3,M,48.3,M,,0000*76
$GPGSA,M,1,,,,,,,,,,,,,,,*12
$GPRMC,144238.020,V,4806.8771,N,00139.4631,W,,,090218,,,N*64
$GPGGA,144239.000,4806.8773,N,00139.4626,W,1,04,4.0,-14.7,M,48.3,M,,0000*5B
$GPGSA,M,3,15,13,17,28,,,,,,,,,7.8,4.0,6.8*31
arfcn: 115 bsic: 43 rxLev: -90 ber: 14.07 mcc: 208 mnc: 10 lac: 49415 cellId: 55710 cellStatus: CELL_FORBIDDEN numArfcn: 2 arfcn: 87 115 numChannels: 22 array: 76 77 78 79 80 82 83 84 85 86 113 114 115 116 117 118 119 120 121 122 123 124 pbcch: 0 nom: 2 rac: 31 spgc: 0 pat: 6 nco: 0 t3168: 1000 t3192: 500 drxmax: 4 ctrlAck: 1 bsCVmax: 9 alpha: 10 pcMeasCh: 0 
arfcn: 61 rxLev: -90
$GPRMC,144239.000,A,4806.8773,N,00139.4626,W,2.99,314.28,090218,,,A*75
arfcn: 808 rxLev: -90
arfcn: 716 rxLev: -91
arfcn: 717 rxLev: -91
arfcn: 721 rxLev: -91
arfcn: 723 rxLev: -91
arfcn: 724 rxLev: -91
arfcn: 730 rxLev: -91
arfcn: 732 rxLev: -91
arfcn: 733 rxLev: -91
$GPGGA,144240.020,4806.8770,N,00139.4621,W,1,04,4.0,-15.3,M,48.3,M,,0000*56
arfcn: 734 rxLev: -91
$GPGSA,M,3,15,13,17,28,,,,,,,,,7.8,4.0,6.7*3E
arfcn: 738 rxLev: -91
arfcn: 740 rxLev: -91
$GPGSV,3,1,11,15,67,175,12,13,39,134,18,17,30,082,31,28,14,044,16*7C
arfcn: 742 rxLev: -91
arfcn: 60 rxLev: -91
$GPGSV,3,2,11,19,26,108,22,24,62,285,17,33,33,198,,18,31,277,*7F
$GPGSV,3,3,11,12,30,209,,10,22,311,,20,17,215,*42
arfcn: 9 rxLev: -91
arfcn: 25 rxLev: -91
$GPRMC,144240.020,A,4806.8770,N,00139.4621,W,1.60,314.76,090218,,,A*73
$GPGGA,144241.000,4806.8772,N,00139.4619,W,1,04,4.0,-15.5,M,48.3,M,,0000*5A
$GPGSA,M,3,15,13,17,28,,,,,,,,,7.8,4.0,6.7*3E
$GPRMC,144241.000,A,4806.8772,N,00139.4619,W,2.98,316.30,090218,,,A*7D
$GPGGA,144242.000,4806.8774,N,00139.4617,W,1,04,4.0,-15.8,M,48.3,M,,0000*5C
$GPGSA,M,3,15,13,17,28,,,,,,,,,7.8,4.0,6.7*3E
$GPRMC,144242.000,A,4806.8774,N,00139.4617,W,3.12,320.28,090218,,,A*79
arfcn: 604 bsic: 20 rxLev: -91 ber: 0.00 mcc: 208 mnc: 01 lac: 10300 cellId: 39915 cellStatus: CELL_FORBIDDEN numArfcn: 16 arfcn: 519 520 521 522 523 524 525 526 596 597 598 599 600 601 602 603 numChannels: 13 array: 5 6 10 15 16 512 514 516 517 518 608 609 610 pbcch: 0 nom: 2 rac: 1 spgc: 0 pat: 6 nco: 0 t3168: 1000 t3192: 500 drxmax: 2 ctrlAck: 0 bsCVmax: 9 alpha: 5 pcMeasCh: 1 
arfcn: 741 rxLev: -91
arfcn: 746 rxLev: -91
arfcn: 735 rxLev: -91
arfcn: 737 rxLev: -91
$GPGGA,144243.000,4806.8776,N,00139.4607,W,1,04,4.0,-15.1,M,48.3,M,,0000*57
arfcn: 719 rxLev: -91
arfcn: 718 rxLev: -92
$GPGSA,M,3,15,13,17,28,,,,,,,,,7.8,4.0,6.7*3E
arfcn: 720 rxLev: -92
arfcn: 715 rxLev: -92
$GPRMC,144243.000,A,4806.8776,N,00139.4607,W,1.23,320.42,090218,,,A*77
arfcn: 731 rxLev: -92
arfcn: 729 rxLev: -92
arfcn: 739 rxLev: -92
arfcn: 743 rxLev: -92
arfcn: 744 rxLev: -92
arfcn: 758 rxLev: -92
arfcn: 759 rxLev: -92
arfcn: 763 rxLev: -92
$GPGGA,144244.000,4806.8769,N,00139.4591,W,1,04,4.0,-15.2,M,48.3,M,,0000*51
arfcn: 881 rxLev: -92
arfcn: 1 rxLev: -92
$GPGSA,M,3,15,13,17,28,,,,,,,,,7.8,4.0,6.7*3E
arfcn: 52 rxLev: -92
arfcn: 761 rxLev: -92
$GPRMC,144244.000,A,4806.8769,N,00139.4591,W,0.45,320.42,090218,,,A*73
arfcn: 745 rxLev: -92
arfcn: 748 rxLev: -92
arfcn: 750 rxLev: -92
arfcn: 728 rxLev: -92
arfcn: 726 rxLev: -92
arfcn: 725 rxLev: -92
arfcn: 722 rxLev: -92
$GPGGA,144245.000,4806.8765,N,00139.4582,W,1,04,4.0,-15.1,M,48.3,M,,0000*5D
arfcn: 736 rxLev: -92
$GPGSA,M,3,15,13,17,28,,,,,,,,,7.8,4.0,6.7*3E
arfcn: 749 rxLev: -93
arfcn: 747 rxLev: -93
$GPGSV,3,1,11,15,67,175,16,13,39,134,18,17,30,082,31,28,14,044,17*79
arfcn: 760 rxLev: -93
arfcn: 757 rxLev: -93
$GPGSV,3,2,11,19,26,108,23,24,62,285,17,33,33,198,,18,31,277,*7E
arfcn: 762 rxLev: -93
$GPGSV,3,3,11,12,30,209,,10,22,311,,20,17,215,*42
arfcn: 765 rxLev: -93
arfcn: 773 rxLev: -93
$GPRMC,144245.000,A,4806.8765,N,00139.4582,W,0.44,320.42,090218,,,A*7D
arfcn: 110 rxLev: -93
arfcn: 71 rxLev: -93
$GPGGA,144246.000,4806.8756,N,00139.4568,W,1,04,4.0,-15.8,M,48.3,M,,0000*53
$GPGSA,M,3,15,13,17,28,,,,,,,,,7.8,4.0,6.7*3E
$GPRMC,144246.000,A,4806.8756,N,00139.4568,W,0.40,320.42,090218,,,A*7E
$GPGGA,144247.000,4806.8744,N,00139.4551,W,1,04,4.0,-16.4,M,48.3,M,,0000*54
$GPGSA,M,3,15,13,17,28,,,,,,,,,7.8,4.0,6.7*3E
$GPRMC,144247.000,A,4806.8744,N,00139.4551,W,1.59,302.63,090218,,,A*7C
arfcn: 513 bsic: 27 rxLev: -93 ber: 13.07 mcc: FFF mnc: FF lac: 65535 cellId: 0 cellStatus: CELL_OTHER numArfcn: 0 arfcn: numChannels: 0 array:
arfcn: 772 rxLev: -93
arfcn: 770 rxLev: -93
$GPGGA,144248.000,4806.8731,N,00139.4537,W,1,04,4.0,-17.3,M,48.3,M,,0000*5F
arfcn: 771 rxLev: -93
$GPGSA,M,3,15,13,17,28,,,,,,,,,7.8,4.0,6.7*3E
arfcn: 774 rxLev: -93
arfcn: 764 rxLev: -93
$GPRMC,144248.000,A,4806.8731,N,00139.4537,W,2.15,279.82,090218,,,A*78
arfcn: 766 rxLev: -93
arfcn: 767 rxLev: -93
arfcn: 756 rxLev: -93
arfcn: 755 rxLev: -93
arfcn: 751 rxLev: -93
arfcn: 753 rxLev: -94
arfcn: 768 rxLev: -94
arfcn: 769 rxLev: -94
$GPGGA,144249.000,4806.8719,N,00139.4524,W,1,04,4.0,-17.7,M,48.3,M,,0000*52
arfcn: 775 rxLev: -94
$GPGSA,M,3,15,13,17,28,,,,,,,,,7.8,4.0,6.7*3E
arfcn: 778 rxLev: -94
arfcn: 112 rxLev: -94
$GPRMC,144249.000,A,4806.8719,N,00139.4524,W,1.71,273.14,090218,,,A*75
arfcn: 7 rxLev: -94
$GPGGA,144250.000,4806.8709,N,00139.4518,W,1,04,4.0,-19.2,M,48.3,M,,0000*5F
$GPGSA,M,3,15,13,17,28,,,,,,,,,7.8,4.0,6.7*3E
$GPGSV,3,1,11,15,67,175,17,13,39,134,18,17,30,082,31,28,14,044,17*78
$GPGSV,3,2,11,19,26,108,23,24,62,285,18,33,33,198,,18,31,277,*71
$GPGSV,3,3,11,12,30,209,,10,22,311,,20,17,215,*42
$GPRMC,144250.000,A,4806.8709,N,00139.4518,W,1.45,270.64,090218,,,A*70
arfcn: 3 bsic: 0 rxLev: -94 ber: 0.07 mcc: 208 mnc: 01 lac: 10300 cellId: 2686 cellStatus: CELL_FORBIDDEN numArfcn: 13 arfcn: 3 17 18 19 20 21 22 23 24 25 47 48 49 numChannels: 13 array: 1 5 6 7 10 12 14 512 515 517 604 606 608 pbcch: 0 nom: 2 rac: 1 spgc: 0 pat: 6 nco: 0 t3168: 1000 t3192: 500 drxmax: 2 ctrlAck: 0 bsCVmax: 9 alpha: 5 pcMeasCh: 1 
$GPGGA,144251.000,4806.8698,N,00139.4503,W,1,04,4.0,-20.8,M,48.3,M,,0000*5D
$GPGSA,M,3,15,13,17,28,,,,,,,,,7.8,4.0,6.7*3E
$GPRMC,144251.000,A,4806.8698,N,00139.4503,W,0.22,270.64,090218,,,A*72
$GPGGA,144252.000,4806.8697,N,00139.4488,W,1,04,4.0,-21.5,M,48.3,M,,0000*5F
$GPGSA,M,3,15,13,17,28,,,,,,,,,7.8,4.0,6.7*3E
$GPRMC,144252.000,A,4806.8697,N,00139.4488,W,0.89,270.64,090218,,,A*7D
$GPGGA,144253.000,4806.8699,N,00139.4474,W,1,04,4.0,-21.6,M,48.3,M,,0000*50
$GPGSA,M,3,15,13,17,28,,,,,,,,,7.8,4.0,6.7*3E
$GPRMC,144253.000,A,4806.8699,N,00139.4474,W,0.61,270.64,090218,,,A*77
$GPGGA,144254.000,4806.8707,N,00139.4467,W,1,04,4.0,-21.0,M,48.3,M,,0000*55
$GPGSA,M,3,15,13,17,28,,,,,,,,,7.8,4.0,6.7*3E
$GPRMC,144254.000,A,4806.8707,N,00139.4467,W,2.04,284.18,090218,,,A*75
$GPGGA,144255.000,4806.8713,N,00139.4460,W,1,04,4.0,-20.3,M,48.3,M,,0000*54
$GPGSA,M,3,15,13,17,28,,,,,,,,,7.8,4.0,6.7*3E
$GPGSV,3,1,11,15,67,175,16,13,39,134,19,17,30,082,31,28,14,044,18*77
$GPGSV,3,2,11,19,26,108,23,24,62,285,19,33,33,198,,18,31,277,*70
$GPGSV,3,3,11,12,30,209,,10,22,311,,20,17,215,*42
$GPRMC,144255.000,A,4806.8713,N,00139.4460,W,0.91,284.18,090218,,,A*78
$GPGGA,144256.000,4806.8712,N,00139.4447,W,1,04,4.0,-20.4,M,48.3,M,,0000*54
arfcn: 1021 bsic: 35 rxLev: -94 ber: 5.08 mcc: 208 mnc: 20 lac: 418 cellId: 20102 cellStatus: CELL_SUITABLE numArfcn: 3 arfcn: 975 982 1021 numChannels: 21 array: 788 790 880 885 975 976 977 978 980 981 982 986 987 1011 1012 1015 1017 1019 1020 1021 1022 pbcch: 0 nom: 2 rac: 7 spgc: 0 pat: 6 nco: 0 t3168: 1500 t3192: 500 drxmax: 4 ctrlAck: 1 bsCVmax: 8 alpha: 6 pcMeasCh: 1 
arfcn: 779 rxLev: -94
$GPGSA,M,3,15,13,17,28,,,,,,,,,7.8,4.0,6.7*3E
arfcn: 754 rxLev: -94
arfcn: 752 rxLev: -94
$GPRMC,144256.000,A,4806.8712,N,00139.4447,W,0.53,284.18,090218,,,A*71
arfcn: 727 rxLev: -95
arfcn: 780 rxLev: -95
arfcn: 776 rxLev: -95
$GPGGA,144257.000,4806.8706,N,00139.4438,W,1,04,4.0,-21.4,M,48.3,M,,0000*59
$GPGSA,M,3,15,13,17,28,,,,,,,,,7.7,4.0,6.7*31
$GPRMC,144257.000,A,4806.8706,N,00139.4438,W,1.17,277.81,090218,,,A*70
$GPGGA,144258.000,4806.8703,N,00139.4431,W,1,04,4.0,-21.1,M,48.3,M,,0000*5F
$GPGSA,M,3,15,13,17,28,,,,,,,,,7.7,4.0,6.6*30
$GPRMC,144258.000,A,4806.8703,N,00139.4431,W,1.32,270.40,090218,,,A*7E
$GPGGA,144259.000,4806.8706,N,00139.4437,W,1,04,4.0,-20.1,M,48.3,M,,0000*5C
$GPGSA,M,3,15,13,17,28,,,,,,,,,7.7,4.0,6.6*30
$GPRMC,144259.000,A,4806.8706,N,00139.4437,W,0.44,270.40,090218,,,A*7C
$GPGGA,144300.000,4806.8714,N,00139.4458,W,1,04,4.0,-18.7,M,48.3,M,,0000*56
$GPGSA,M,3,15,13,17,28,,,,,,,,,7.7,4.0,6.6*30
arfcn: 608 bsic: 46 rxLev: -95 ber: 0.00 mcc: 208 mnc: 01 lac: 10300 cellId: 36733 cellStatus: CELL_FORBIDDEN numArfcn: 16 arfcn: 519 520 521 522 523 524 525 526 596 597 598 599 600 601 602 603 numChannels: 15 array: 1 3 6 7 10 12 14 512 513 514 515 517 604 605 606 pbcch: 0 nom: 2 rac: 1 spgc: 0 pat: 6 nco: 0 t3168: 1000 t3192: 500 drxmax: 2 ctrlAck: 0 bsCVmax: 9 alpha: 5 pcMeasCh: 1 
arfcn: 984 rxLev: -95
$GPGSV,3,1,11,15,67,175,14,13,39,134,20,17,30,082,31,28,14,044,19*7E
arfcn: 6 rxLev: -95
arfcn: 121 rxLev: -95
$GPGSV,3,2,11,19,26,108,23,24,62,285,20,33,33,198,,18,31,277,*7A
arfcn: 72 rxLev: -95
$GPGSV,3,3,11,12,30,209,,10,22,311,,20,17,215,*42
arfcn: 987 rxLev: -95
arfcn: 781 rxLev: -95
$GPRMC,144300.000,A,4806.8714,N,00139.4458,W,1.52,274.10,090218,,,A*7C
arfcn: 777 rxLev: -96
arfcn: 47 rxLev: -96
arfcn: 15 rxLev: -96
$GPGGA,144301.000,4806.8718,N,00139.4462,W,0,00,,-18.8,M,48.3,M,,0000*72
$GPGSA,M,1,,,,,,,,,,,,,,,*12
$GPRMC,144301.000,V,4806.8718,N,00139.4462,W,,,090218,,,N*66
$GPGGA,144302.000,4806.8721,N,00139.4465,W,0,00,,-18.8,M,48.3,M,,0000*7C
$GPGSA,M,1,,,,,,,,,,,,,,,*12
$GPRMC,144302.000,V,4806.8721,N,00139.4465,W,,,090218,,,N*68
$GPGGA,144303.020,4806.8725,N,00139.4469,W,0,00,,-18.9,M,48.3,M,,0000*76
$GPGSA,M,1,,,,,,,,,,,,,,,*12
$GPRMC,144303.020,V,4806.8725,N,00139.4469,W,,,090218,,,N*63
$GPGGA,144304.020,4806.8728,N,00139.4472,W,0,00,,-18.9,M,48.3,M,,0000*76
$GPGSA,M,1,,,,,,,,,,,,,,,*12
$GPRMC,144304.020,V,4806.8728,N,00139.4472,W,,,090218,,,N*63
$GPGGA,144305.020,4806.8732,N,00139.4476,W,0,00,,-19.0,M,48.3,M,,0000*70
$GPGSA,M,1,,,,,,,,,,,,,,,*12
$GPGSV,3,1,11,13,39,134,21,15,67,175,07,17,30,082,31,19,26,108,23*7E
$GPGSV,3,2,11,24,62,285,20,28,14,044,19,37,27,150,,18,31,277,*7C
$GPGSV,3,3,11,12,30,209,,10,22,311,,20,17,215,*42
$GPRMC,144305.020,V,4806.8732,N,00139.4476,W,,,090218,,,N*6D
$GPGGA,144306.020,4806.8711,N,00139.4482,W,1,04,3.9,-20.1,M,48.3,M,,0000*53
$GPGSA,M,3,15,13,17,28,,,,,,,,,7.7,3.9,6.6*3E
$GPRMC,144306.020,A,4806.8711,N,00139.4482,W,2.31,268.82,090218,,,A*7A
$GPGGA,144307.020,4806.8707,N,00139.4482,W,1,04,3.9,-20.5,M,48.3,M,,0000*51
$GPGSA,M,3,15,13,17,28,,,,,,,,,7.7,3.9,6.6*3E
$GPRMC,144307.020,A,4806.8707,N,00139.4482,W,2.39,256.97,090218,,,A*7D
arfcn: 1016 bsic: 41 rxLev: -96 ber: 11.06 mcc: 208 mnc: 20 lac: 418 cellId: 23623 cellStatus: CELL_SUITABLE numArfcn: 1 arfcn: 1016 numChannels: 17 array: 975 977 978 979 981 982 983 986 987 1011 1012 1017 1018 1019 1020 1021 1022
$GPGGA,144308.000,4806.8702,N,00139.4460,W,1,04,3.9,-22.6,M,48.3,M,,0000*54
$GPGSA,M,3,15,13,17,28,,,,,,,,,7.7,3.9,6.6*3E
$GPRMC,144308.000,A,4806.8702,N,00139.4460,W,1.63,260.54,090218,,,A*7F
$GPGGA,144309.000,4806.8700,N,00139.4436,W,1,04,3.9,-23.5,M,48.3,M,,0000*56
$GPGSA,M,3,15,13,17,28,,,,,,,,,7.7,3.9,6.6*3E
$GPRMC,144309.000,A,4806.8700,N,00139.4436,W,0.77,260.54,090218,,,A*7B
$GPGGA,144310.000,4806.8697,N,00139.4425,W,1,04,3.9,-26.3,M,48.3,M,,0000*50
$GPGSA,M,3,15,13,17,28,,,,,,,,,7.7,3.9,6.6*3E
$GPGSV,3,1,11,15,67,175,11,13,39,134,22,17,30,082,31,28,14,044,19*79
arfcn: 1011 bsic: 26 rxLev: -96 ber: 5.05 mcc: 208 mnc: 20 lac: 418 cellId: 17727 cellStatus: CELL_SUITABLE numArfcn: 1 arfcn: 1011 numChannels: 22 array: 790 880 882 976 978 979 980 981 982 984 985 987 1012 1013 1014 1015 1016 1017 1018 1019 1020 1021 pbcch: 0 nom: 2 rac: 6 spgc: 0 pat: 6 nco: 0 t3168: 1500 t3192: 500 drxmax: 0 ctrlAck: 0 bsCVmax: 8 alpha: 6 pcMeasCh: 1 
arfcn: 782 rxLev: -96
arfcn: 617 rxLev: -97
$GPGSV,3,2,11,19,26,108,24,24,62,285,21,37,27,150,,18,31,277,*79
arfcn: 2 rxLev: -97
$GPGSV,3,3,11,12,30,209,,10,22,311,,20,17,215,*42
arfcn: 83 rxLev: -97
arfcn: 516 rxLev: -97
$GPRMC,144310.000,A,4806.8697,N,00139.4425,W,1.19,265.95,090218,,,A*7F
arfcn: 1018 rxLev: -98
arfcn: 87 rxLev: -98
$GPGGA,144311.000,4806.8695,N,00139.4413,W,1,04,3.9,-28.0,M,48.3,M,,0000*5B
$GPGSA,M,3,15,13,17,28,,,,,,,,,7.7,3.9,6.6*3E
$GPRMC,144311.000,A,4806.8695,N,00139.4413,W,1.09,265.95,090218,,,A*78
$GPGGA,144312.000,4806.8694,N,00139.4408,W,1,04,3.9,-29.9,M,48.3,M,,0000*5B
$GPGSA,M,3,15,13,17,28,,,,,,,,,7.7,3.9,6.6*3E
$GPRMC,144312.000,A,4806.8694,N,00139.4408,W,1.18,271.18,090218,,,A*70
$GPGGA,144313.000,4806.8694,N,00139.4392,W,1,04,3.9,-30.9,M,48.3,M,,0000*56
$GPGSA,M,3,15,13,17,28,,,,,,,,,7.7,3.9,6.6*3E
$GPRMC,144313.000,A,4806.8694,N,00139.4392,W,0.53,271.18,090218,,,A*7B
arfcn: 1013 bsic: 63 rxLev: -98 ber: 0.03 mcc: 208 mnc: 20 lac: 418 cellId: 38979 cellStatus: CELL_SUITABLE numArfcn: 2 arfcn: 988 1013 numChannels: 27 array: 787 788 790 794 879 880 881 882 885 975 976 977 978 979 981 983 984 985 986 1012 1014 1016 1017 1018 1019 1020 1022 pbcch: 0 nom: 2 rac: 6 spgc: 0 pat: 6 nco: 0 t3168: 1500 t3192: 500 drxmax: 0 ctrlAck: 0 bsCVmax: 8 alpha: 6 pcMeasCh: 1 
arfcn: 609 rxLev: -98
$GPGGA,144314.000,4806.8692,N,00139.4378,W,1,04,3.9,-31.3,M,48.3,M,,0000*58
arfcn: 661 rxLev: -99
$GPGSA,M,3,15,13,17,28,,,,,,,,,7.6,3.9,6.6*3F
arfcn: 75 rxLev: -99
arfcn: 77 rxLev: -99
$GPRMC,144314.000,A,4806.8692,N,00139.4378,W,0.52,271.18,090218,,,A*7F
arfcn: 988 rxLev: -99
arfcn: 1019 rxLev: -100
arfcn: 662 rxLev: -100
arfcn: 654 rxLev: -100
arfcn: 643 rxLev: -100
arfcn: 645 rxLev: -100
arfcn: 647 rxLev: -100
$GPGGA,144315.000,4806.8685,N,00139.4367,W,1,04,3.9,-32.7,M,48.3,M,,0000*56
arfcn: 88 rxLev: -100
$GPGSA,M,3,15,13,17,28,,,,,,,,,7.6,3.9,6.6*3F
arfcn: 51 rxLev: -100
arfcn: 119 rxLev: -100
$GPGSV,3,1,11,15,67,175,13,13,39,134,22,17,30,082,31,28,14,044,19*7B
arfcn: 111 rxLev: -100
arfcn: 644 rxLev: -100
$GPGSV,3,2,11,19,26,108,24,24,62,285,22,37,27,150,,18,31,277,*7A
arfcn: 637 rxLev: -100
$GPGSV,3,3,11,12,30,209,,10,22,311,,20,17,215,*42
arfcn: 638 rxLev: -100
arfcn: 641 rxLev: -100
$GPRMC,144315.000,A,4806.8685,N,00139.4367,W,0.11,271.18,090218,,,A*71
arfcn: 627 rxLev: -100
arfcn: 633 rxLev: -100
arfcn: 657 rxLev: -100
arfcn: 653 rxLev: -100
$GPGGA,144316.000,4806.8672,N,00139.4353,W,1,04,3.9,-35.6,M,48.3,M,,0000*5C
arfcn: 658 rxLev: -100
$GPGSA,M,3,15,13,17,28,,,,,,,,,7.6,3.9,6.6*3F
arfcn: 669 rxLev: -100
arfcn: 678 rxLev: -100
$GPRMC,144316.000,A,4806.8672,N,00139.4353,W,1.41,251.10,090218,,,A*73
arfcn: 673 rxLev: -101
arfcn: 660 rxLev: -101
arfcn: 652 rxLev: -101
arfcn: 650 rxLev: -101
arfcn: 655 rxLev: -101
arfcn: 632 rxLev: -101
arfcn: 631 rxLev: -101
$GPGGA,144317.000,4806.8655,N,00139.4342,W,1,04,3.9,-39.3,M,48.3,M,,0000*51
arfcn: 628 rxLev: -101
arfcn: 620 rxLev: -101
$GPGSA,M,3,15,13,17,28,,,,,,,,,7.6,3.9,6.5*3C
arfcn: 621 rxLev: -101
arfcn: 624 rxLev: -101
$GPRMC,144317.000,A,4806.8655,N,00139.4342,W,0.71,251.10,090218,,,A*75
arfcn: 634 rxLev: -101
arfcn: 635 rxLev: -101
arfcn: 648 rxLev: -101
arfcn: 116 rxLev: -101
arfcn: 113 rxLev: -101
arfcn: 977 rxLev: -101
$GPGGA,144318.000,4806.8637,N,00139.4331,W,1,04,3.9,-43.4,M,48.3,M,,0000*54
$GPGSA,M,3,15,13,17,28,,,,,,,,,7.6,3.9,6.5*3C
$GPRMC,144318.000,A,4806.8637,N,00139.4331,W,1.62,236.78,090218,,,A*76
$GPGGA,144319.000,4806.8633,N,00139.4330,W,0,00,,-44.2,M,48.3,M,,0000*70
$GPGSA,M,1,,,,,,,,,,,,,,,*12
$GPRMC,144319.000,V,4806.8633,N,00139.4330,W,,,090218,,,N*67
$GPGGA,144320.000,4806.8629,N,00139.4329,W,0,00,,-45.0,M,48.3,M,,0000*7A
$GPGSA,M,1,,,,,,,,,,,,,,,*12
$GPGSV,3,1,11,12,30,209,16,13,39,134,22,15,67,175,04,17,30,082,31*76
$GPGSV,3,2,11,19,26,108,25,24,62,285,22,28,14,044,19,37,27,150,*75
$GPGSV,3,3,11,18,31,277,,10,22,311,,20,17,215,*40
$GPRMC,144320.000,V,4806.8629,N,00139.4329,W,,,090218,,,N*6E
$GPGGA,144321.020,4806.8624,N,00139.4328,W,0,00,,-45.8,M,48.3,M,,0000*7D
$GPGSA,M,1,,,,,,,,,,,,,,,*12
$GPRMC,144321.020,V,4806.8624,N,00139.4328,W,,,090218,,,N*61
$GPGGA,144322.020,4806.8620,N,00139.4327,W,0,00,,-46.6,M,48.3,M,,0000*78
$GPGSA,M,1,,,,,,,,,,,,,,,*12
$GPRMC,144322.020,V,4806.8620,N,00139.4327,W,,,090218,,,N*69
$GPGGA,144323.020,4806.8615,N,00139.4326,W,0,00,,-47.4,M,48.3,M,,0000*7D
$GPGSA,M,1,,,,,,,,,,,,,,,*12
$GPRMC,144323.020,V,4806.8615,N,00139.4326,W,,,090218,,,N*6F
$GPGGA,144324.020,4806.8617,N,00139.4247,W,1,05,2.1,-37.3,M,48.3,M,,0000*57
$GPGSA,M,3,15,13,17,12,28,,,,,,,,3.4,2.1,2.7*36
$GPRMC,144324.020,A,4806.8617,N,00139.4247,W,1.77,220.47,090218,,,A*76
$GPGGA,144325.020,4806.8604,N,00139.4211,W,1,05,2.1,-34.4,M,48.3,M,,0000*53
$GPGSA,M,3,15,13,17,12,28,,,,,,,,3.4,2.1,2.7*36
$GPGSV,3,1,11,15,67,175,10,13,39,134,21,17,30,082,31,12,30,209,12*74
$GPGSV,3,2,11,28,14,044,19,19,26,108,25,24,62,285,22,37,27,150,*75
$GPGSV,3,3,11,18,31,277,,10,22,311,,20,17,215,*40
$GPRMC,144325.020,A,4806.8604,N,00139.4211,W,2.96,202.62,090218,,,A*7D
$GPGGA,144326.000,4806.8587,N,00139.4189,W,1,05,2.1,-34.2,M,48.3,M,,0000*5E
$GPGSA,M,3,15,13,17,12,28,,,,,,,,3.4,2.1,2.7*36
$GPRMC,144326.000,A,4806.8587,N,00139.4189,W,3.13,190.44,090218,,,A*76
$GPGGA,144327.000,4806.8582,N,00139.4178,W,1,05,2.1,-36.1,M,48.3,M,,0000*55
$GPGSA,M,3,15,13,17,12,28,,,,,,,,3.4,2.1,2.7*36
$GPRMC,144327.000,A,4806.8582,N,00139.4178,W,1.40,187.87,090218,,,A*71
$GPGGA,144328.000,4806.8577,N,00139.4184,W,1,05,2.1,-40.9,M,48.3,M,,0000*5A
$GPGSA,M,3,15,13,17,12,28,,,,,,,,3.4,2.1,2.7*36
arfcn: 82 bsic: 63 rxLev: -101 ber: 14.04 mcc: 208 mnc: 10 lac: 49415 cellId: 53517 cellStatus: CELL_FORBIDDEN numArfcn: 0 arfcn: numChannels: 17 array: 76 77 78 79 80 82 85 86 114 115 118 119 120 121 122 123 124 pbcch: 0 nom: 2 rac: 31 spgc: 0 pat: 6 nco: 0 t3168: 1000 t3192: 500 drxmax: 4 ctrlAck: 1 bsCVmax: 9 alpha: 10 pcMeasCh: 0 
arfcn: 73 rxLev: -101
arfcn: 706 rxLev: -101
$GPRMC,144328.000,A,4806.8577,N,00139.4184,W,0.84,187.87,090218,,,A*7E
arfcn: 975 rxLev: -101
arfcn: 118 rxLev: -101
arfcn: 48 rxLev: -101
arfcn: 649 rxLev: -101
arfcn: 646 rxLev: -101
arfcn: 642 rxLev: -101
arfcn: 639 rxLev: -101
arfcn: 630 rxLev: -101
$GPGGA,144329.000,4806.8576,N,00139.4177,W,1,05,2.1,-40.1,M,48.3,M,,0000*5E
arfcn: 656 rxLev: -101
arfcn: 659 rxLev: -101
$GPGSA,M,3,15,13,17,12,28,,,,,,,,3.4,2.1,2.7*36
$GPRMC,144329.000,A,4806.8576,N,00139.4177,W,0.43,187.87,090218,,,A*79
arfcn: 665 rxLev: -101
arfcn: 672 rxLev: -101
arfcn: 666 rxLev: -101
arfcn: 667 rxLev: -101
arfcn: 680 rxLev: -101
arfcn: 674 rxLev: -101
$GPGGA,144330.000,4806.8573,N,00139.4165,W,1,05,2.1,-37.7,M,48.3,M,,0000*56
$GPGSA,M,3,15,13,17,12,28,,,,,,,,3.4,2.1,2.7*36
$GPGSV,3,1,11,15,67,175,13,13,39,134,21,17,30,082,31,12,30,209,11*74
$GPGSV,3,2,11,28,14,044,19,19,26,108,25,24,62,285,22,37,27,150,*75
$GPGSV,3,3,11,18,31,277,,10,22,311,,20,17,215,*40
$GPRMC,144330.000,A,4806.8573,N,00139.4165,W,0.66,187.87,090218,,,A*70
$GPGGA,144331.000,4806.8569,N,00139.4156,W,1,05,2.1,-36.1,M,48.3,M,,0000*5B
$GPGSA,M,3,15,13,17,12,28,,,,,,,,3.4,2.1,2.7*36
arfcn: 517 bsic: 57 rxLev: -101 ber: 2.02 mcc: FFF mnc: FF lac: 65535 cellId: 0 cellStatus: CELL_OTHER numArfcn: 0 arfcn: numChannels: 0 array:
$GPRMC,144331.000,A,4806.8569,N,00139.4156,W,0.06,187.87,090218,,,A*7C
arfcn: 675 rxLev: -102
arfcn: 676 rxLev: -102
arfcn: 664 rxLev: -102
arfcn: 651 rxLev: -102
arfcn: 629 rxLev: -102
arfcn: 626 rxLev: -102
arfcn: 640 rxLev: -102
arfcn: 636 rxLev: -102
$GPGGA,144332.000,4806.8565,N,00139.4153,W,1,05,2.1,-36.0,M,48.3,M,,0000*50
arfcn: 682 rxLev: -102
$GPGSA,M,3,15,13,17,12,28,,,,,,,,3.4,2.1,2.7*36
arfcn: 692 rxLev: -102
arfcn: 696 rxLev: -102
$GPRMC,144332.000,A,4806.8565,N,00139.4153,W,0.81,187.87,090218,,,A*79
arfcn: 697 rxLev: -102
arfcn: 698 rxLev: -102
arfcn: 704 rxLev: -102
arfcn: 625 rxLev: -102
arfcn: 623 rxLev: -102
arfcn: 671 rxLev: -102
arfcn: 24 rxLev: -102
arfcn: 20 rxLev: -102
arfcn: 16 rxLev: -103
$GPGGA,144333.000,4806.8562,N,00139.4149,W,1,05,2.1,-35.7,M,48.3,M,,0000*59
arfcn: 668 rxLev: -103
$GPGSA,M,3,15,13,17,12,28,,,,,,,,3.4,2.1,2.7*36
$GPRMC,144333.000,A,4806.8562,N,00139.4149,W,1.18,205.54,090218,,,A*72
$GPGGA,144334.000,4806.8565,N,00139.4143,W,1,05,2.1,-34.7,M,48.3,M,,0000*52
$GPGSA,M,3,15,13,17,12,28,,,,,,,,3.4,2.1,2.7*36
$GPRMC,144334.000,A,4806.8565,N,00139.4143,W,0.34,205.54,090218,,,A*77
arfcn: 1012 bsic: 19 rxLev: -103 ber: 8.04 mcc: FFF mnc: FF lac: 65535 cellId: 0 cellStatus: CELL_OTHER numArfcn: 0 arfcn: numChannels: 0 array:
arfcn: 1015 rxLev: -103
$GPGGA,144335.000,4806.8563,N,00139.4141,W,1,05,2.1,-35.3,M,48.3,M,,0000*52
arfcn: 705 rxLev: -103
$GPGSA,M,3,15,13,17,12,28,,,,,,,,3.4,2.1,2.7*36
arfcn: 703 rxLev: -103
arfcn: 699 rxLev: -103
$GPGSV,3,1,11,15,67,175,14,13,39,134,20,17,30,082,30,12,30,209,12*70
arfcn: 694 rxLev: -103
arfcn: 691 rxLev: -103
$GPGSV,3,2,11,28,14,044,18,19,26,108,25,24,62,285,22,39,31,144,*78
arfcn: 687 rxLev: -103
$GPGSV,3,3,11,18,31,277,,10,22,311,,20,17,215,*40
arfcn: 689 rxLev: -103
$GPRMC,144335.000,A,4806.8563,N,00139.4141,W,1.13,205.54,090218,,,A*76
arfcn: 683 rxLev: -103
arfcn: 700 rxLev: -103
arfcn: 1023 rxLev: -103
arfcn: 670 rxLev: -103
$GPGGA,144336.000,4806.8558,N,00139.4143,W,1,05,2.1,-36.0,M,48.3,M,,0000*5B
arfcn: 663 rxLev: -103
$GPGSA,M,3,15,13,17,12,28,,,,,,,,3.4,2.1,2.7*36
arfcn: 622 rxLev: -103
arfcn: 619 rxLev: -103
$GPRMC,144336.000,A,4806.8558,N,00139.4143,W,1.01,205.54,090218,,,A*7C
arfcn: 21 rxLev: -103
arfcn: 976 rxLev: -103
arfcn: 23 rxLev: -104
arfcn: 618 rxLev: -104
arfcn: 677 rxLev: -104
arfcn: 701 rxLev: -104
arfcn: 702 rxLev: -104
arfcn: 690 rxLev: -104
$GPGGA,144337.000,4806.8560,N,00139.4147,W,1,05,2.1,-36.7,M,48.3,M,,0000*52
arfcn: 693 rxLev: -104
$GPGSA,M,3,15,13,17,12,28,,,,,,,,3.4,2.1,2.7*36
arfcn: 695 rxLev: -104
arfcn: 684 rxLev: -104
$GPRMC,144337.000,A,4806.8560,N,00139.4147,W,0.65,205.54,090218,,,A*71
arfcn: 685 rxLev: -104
arfcn: 688 rxLev: -104
arfcn: 686 rxLev: -104
arfcn: 681 rxLev: -104
arfcn: 679 rxLev: -104
arfcn: 1022 rxLev: -104
arfcn: 523 rxLev: -104
$GPGGA,144338.000,4806.8571,N,00139.4159,W,1,05,2.1,-36.4,M,48.3,M,,0000*51
arfcn: 607 rxLev: -104
$GPGSA,M,3,15,13,17,12,28,,,,,,,,3.4,2.1,2.7*36
arfcn: 50 rxLev: -104
arfcn: 49 rxLev: -105
$GPRMC,144338.000,A,4806.8571,N,00139.4159,W,1.03,205.54,090218,,,A*70
arfcn: 17 rxLev: -105
arfcn: 18 rxLev: -105
arfcn: 0 rxLev: -105
arfcn: 610 rxLev: -105
arfcn: 518 rxLev: -106
arfcn: 19 rxLev: -106
arfcn: 22 rxLev: -106
arfcn: 74 rxLev: -106
$GPGGA,144339.000,4806.8585,N,00139.4171,W,1,05,2.1,-35.6,M,48.3,M,,0000*50
arfcn: 603 rxLev: -106
arfcn: 1010 rxLev: -106
$GPGSA,M,3,15,13,17,12,28,,,,,,,,3.4,2.1,2.7*36
arfcn: 549 rxLev: -107
arfcn: 789 rxLev: -107
$GPRMC,144339.000,A,4806.8585,N,00139.4171,W,3.24,268.98,090218,,,A*7C
Network survey ended
Survey end at #CCLK: "18/02/09,15:43:39+04"
Survey duration: 152 seconds, 39 bases detected over 441 freqs scanned.
