$GPGSA,M,1,,,,,,,,,,,,,,,*12
$GPRMC,120142.814,V,,,,,,,181111,,,N*4D
Survey start at #CCLK: "17/12/29,13:01:42+04"
at#csurv
Network survey started ...
Survey end at #CCLK: "17/12/29,13:01:42+04"
Survey duration: 0 seconds, 0 bases detected over 0 freqs scanned.
$GPGGA,120143.814,,,,,0,00,,,M,0.0,M,,0000*5E
$GPGSA,M,1,,,,,,,,,,,,,,,*12
$GPGSV,3,1,12,02,00,000,34,05,00,000,36,06,00,000,45,07,00,000,39*77
$GPGSV,3,2,12,09,00,000,36,16,00,000,28,23,00,000,30,30,00,000,40*7F
$GPGSV,3,3,12,01,00,000,,03,00,000,,04,00,000,,08,00,000,*74
$GPRMC,120143.814,V,,,,,,,181111,,,N*4C
$GPGGA,120144.814,,,,,0,00,,,M,0.0,M,,0000*59
$GPGSA,M,1,,,,,,,,,,,,,,,*12
$GPRMC,120144.814,V,,,,,,,181111,,,N*4B
$GPGGA,120145.814,,,,,0,00,,,M,0.0,M,,0000*58
$GPGSA,M,1,,,,,,,,,,,,,,,*12
Survey start at #CCLK: "17/12/29,13:01:44+04"
at#csurv
Network survey started ...
$GPRMC,120145.814,V,,,,,,,181111,,,N*4A
$GPGGA,120146.814,,,,,0,00,,,M,0.0,M,,0000*5B
$GPGSA,M,1,,,,,,,,,,,,,,,*12
$GPRMC,120146.814,V,,,,,,,181111,,,N*49
$GPGGA,120147.814,,,,,0,00,,,M,0.0,M,,0000*5A
$GPGSA,M,1,,,,,,,,,,,,,,,*12
$GPRMC,120147.814,V,,,,,,,181111,,,N*48
$GPGGA,120148.814,,,,,0,00,,,M,0.0,M,,0000*55
$GPGSA,M,1,,,,,,,,,,,,,,,*12
$GPGSV,3,1,12,02,00,000,34,05,00,000,37,06,00,000,45,07,00,000,39*76
$GPGSV,3,2,12,09,00,000,37,16,00,000,29,23,00,000,30,30,00,000,41*7E
$GPGSV,3,3,12,01,00,000,,03,00,000,,04,00,000,,08,00,000,*74
$GPRMC,120148.814,V,,,,,,,181111,,,N*47
$GPGGA,120149.814,,,,,0,00,,,M,0.0,M,,0000*54
$GPGSA,M,1,,,,,,,,,,,,,,,*12
$GPRMC,120149.814,V,,,,,,,291217,,,N*41
$PSRF156,23,1,0*09
$GPGGA,120150.814,,,,,0,00,,,M,0.0,M,,0000*5C
$GPGSA,M,1,,,,,,,,,,,,,,,*12
$GPRMC,120150.814,V,,,,,,,291217,,,N*49
arfcn: 124 rxLev: -89
$GPGGA,120151.814,,,,,0,00,,,M,0.0,M,,0000*5D
$GPGSA,M,1,,,,,,,,,,,,,,,*12
$GPRMC,120151.814,V,,,,,,,291217,,,N*48
$GPGGA,120152.814,,,,,0,00,,,M,0.0,M,,0000*5E
$GPGSA,M,1,,,,,,,,,,,,,,,*12
$GPRMC,120152.814,V,,,,,,,291217,,,N*4B
$GPGGA,120153.814,,,,,0,00,,,M,0.0,M,,0000*5F
$GPGSA,M,1,,,,,,,,,,,,,,,*12
$GPGSV,3,1,12,02,60,247,35,05,40,288,37,06,45,182,45,07,46,120,39*7D
$GPGSV,3,2,12,09,48,063,37,16,06,037,29,23,16,060,30,30,32,153,42*71
$GPGSV,3,3,12,04,49,288,,29,17,315,,13,07,231,,26,02,010,*79
$GPRMC,120153.814,V,,,,,,,291217,,,N*4A
$GPGGA,120154.814,,,,,0,00,,,M,0.0,M,,0000*58
$GPGSA,M,1,,,,,,,,,,,,,,,*12
$GPRMC,120154.814,V,,,,,,,291217,,,N*4D
$GPGGA,120155.814,,,,,0,00,,,M,0.0,M,,0000*59
$GPGSA,M,1,,,,,,,,,,,,,,,*12
$GPRMC,120155.814,V,,,,,,,291217,,,N*4C
$GPGGA,120156.814,,,,,0,00,,,M,0.0,M,,0000*5A
$GPGSA,M,1,,,,,,,,,,,,,,,*12
$GPRMC,120156.814,V,,,,,,,291217,,,N*4F
$GPGGA,120157.814,,,,,0,00,,,M,0.0,M,,0000*5B
$GPGSA,M,1,,,,,,,,,,,,,,,*12
$GPRMC,120157.814,V,,,,,,,291217,,,N*4E
$GPGGA,120158.814,,,,,0,00,,,M,0.0,M,,0000*54
$GPGSA,M,1,,,,,,,,,,,,,,,*12
$GPGSV,3,1,12,02,60,247,35,05,40,288,37,06,45,182,45,07,46,120,39*7D
$GPGSV,3,2,12,09,48,063,36,16,06,037,29,23,15,060,30,30,32,153,42*73
$GPGSV,3,3,12,04,49,288,,29,17,315,,13,07,231,,26,02,010,*79
$GPRMC,120158.814,V,,,,,,,291217,,,N*41
$GPGGA,120159.814,,,,,0,00,,,M,0.0,M,,0000*55
$GPGSA,M,1,,,,,,,,,,,,,,,*12
$GPRMC,120159.814,V,,,,,,,291217,,,N*40
$GPGGA,120200.814,,,,,0,00,,,M,0.0,M,,0000*5A
$GPGSA,M,1,,,,,,,,,,,,,,,*12
$GPRMC,120200.814,V,,,,,,,291217,,,N*4F
$GPGGA,120201.816,4758.1047,N,00124.0388,W,1,07,1.4,63.8,M,48.1,M,,0000*7B
$GPGSA,M,3,02,09,07,06,30,23,16,,,,,,2.6,1.4,2.1*33
$GPRMC,120201.816,A,4758.1047,N,00124.0388,W,0.43,339.61,291217,,,A*7C
$GPGGA,120202.816,,,,,0,07,1.4,,M,0.0,M,,0000*76
$GPGSA,M,1,,,,,,,,,,,,,,,*12
$GPRMC,120202.816,V,,,,,,,291217,,,N*4F
$GPGGA,120203.816,4758.1014,N,00124.0375,W,1,07,1.4,64.8,M,48.1,M,,0000*7A
$GPGSA,M,3,07,09,02,06,30,23,16,,,,,,2.6,1.4,2.1*33
$GPGSV,3,1,12,07,58,139,39,09,57,061,36,02,49,267,35,06,45,208,44*7D
$GPGSV,3,2,12,30,38,174,42,23,24,067,30,16,11,045,29,05,29,298,37*76
$GPGSV,3,3,12,33,33,198,,04,37,298,,29,08,324,,26,02,018,*70
$GPRMC,120203.816,A,4758.1014,N,00124.0375,W,0.18,339.61,291217,,,A*74
$GPGGA,120205.000,4758.1014,N,00124.0375,W,1,07,1.4,64.6,M,48.1,M,,0000*7D
$GPGSA,M,3,07,09,02,06,30,23,16,,,,,,2.6,1.4,2.1*33
$GPRMC,120205.000,A,4758.1014,N,00124.0375,W,0.28,339.61,291217,,,A*7E
$GPGGA,120206.000,4758.1019,N,00124.0394,W,1,07,1.4,64.5,M,48.1,M,,0000*7F
$GPGSA,M,3,07,09,02,06,30,23,16,,,,,,2.6,1.4,2.1*33
$GPRMC,120206.000,A,4758.1019,N,00124.0394,W,0.09,339.61,291217,,,A*7C
$GPGGA,120207.000,4758.1021,N,00124.0398,W,1,07,1.4,64.5,M,48.1,M,,0000*79
$GPGSA,M,3,07,09,02,06,30,23,16,,,,,,2.6,1.4,2.1*33
arfcn: 977 bsic: 33 rxLev: -93 ber: 2.02 mcc: 208 mnc: 20 lac: 413 cellId: 20368 cellStatus: CELL_SUITABLE numArfcn: 1 arfcn: 977 numChannels: 20 array: 880 884 975 976 979 980 982 983 984 985 986 987 1011 1013 1014 1015 1018 1019 1021 1022 pbcch: 0 nom: 2 rac: 1 spgc: 0 pat: 6 nco: 0 t3168: 1500 t3192: 500 drxmax: 0 ctrlAck: 0 bsCVmax: 8 alpha: 6 pcMeasCh: 1 
$GPRMC,120207.000,A,4758.1021,N,00124.0398,W,0.10,339.61,291217,,,A*72
$GPGGA,120208.000,4758.1022,N,00124.0400,W,1,07,1.4,64.5,M,48.1,M,,0000*73
$GPGSA,M,3,07,09,02,06,30,23,16,,,,,,2.6,1.4,2.1*33
$GPRMC,120208.000,A,4758.1022,N,00124.0400,W,0.09,339.61,291217,,,A*70
$GPGGA,120209.000,4758.1022,N,00124.0401,W,1,07,1.4,64.5,M,48.1,M,,0000*73
$GPGSA,M,3,07,09,02,06,30,23,16,,,,,,2.6,1.4,2.1*33
$GPGSV,3,1,12,07,58,139,39,09,57,061,35,02,49,267,35,06,45,208,44*7E
$GPGSV,3,2,12,30,38,174,42,23,24,067,30,16,11,045,29,05,29,298,37*76
$GPGSV,3,3,12,33,33,198,,04,37,298,,29,08,324,,26,02,018,*70
$GPRMC,120209.000,A,4758.1022,N,00124.0401,W,0.10,339.61,291217,,,A*78
$GPGGA,120210.000,4758.1022,N,00124.0402,W,1,07,1.4,64.5,M,48.1,M,,0000*78
$GPGSA,M,3,07,09,02,06,30,23,16,,,,,,2.6,1.4,2.1*33
$GPRMC,120210.000,A,4758.1022,N,00124.0402,W,0.10,339.61,291217,,,A*73
$GPGGA,120211.000,4758.1023,N,00124.0402,W,1,07,1.4,64.6,M,48.1,M,,0000*7B
$GPGSA,M,3,07,09,02,06,30,23,16,,,,,,2.6,1.4,2.1*33
$GPRMC,120211.000,A,4758.1023,N,00124.0402,W,0.10,339.61,291217,,,A*73
$GPGGA,120212.000,4758.1023,N,00124.0403,W,1,07,1.4,64.6,M,48.1,M,,0000*79
$GPGSA,M,3,07,09,02,06,30,23,16,,,,,,2.6,1.4,2.1*33
$GPRMC,120212.000,A,4758.1023,N,00124.0403,W,0.08,339.61,291217,,,A*78
$GPGGA,120213.000,4758.1023,N,00124.0403,W,1,07,1.4,64.7,M,48.1,M,,0000*79
$GPGSA,M,3,07,09,02,06,30,23,16,,,,,,2.6,1.4,2.1*33
$GPRMC,120213.000,A,4758.1023,N,00124.0403,W,0.07,339.61,291217,,,A*76
$GPGGA,120214.000,4758.1023,N,00124.0403,W,1,07,1.4,64.8,M,48.1,M,,0000*71
$GPGSA,M,3,07,09,02,06,30,23,16,,,,,,2.6,1.4,2.1*33
$GPGSV,3,1,12,07,58,139,39,09,57,061,34,02,49,267,35,06,45,208,45*7E
$GPGSV,3,2,12,30,38,174,42,23,24,067,30,16,11,045,29,05,29,298,37*76
$GPGSV,3,3,12,33,33,198,,04,37,298,,29,08,324,,26,02,018,*70
$GPRMC,120214.000,A,4758.1023,N,00124.0403,W,0.10,339.61,291217,,,A*77
$GPGGA,120215.000,4758.1023,N,00124.0403,W,1,07,1.4,64.9,M,48.1,M,,0000*71
$GPGSA,M,3,07,09,02,06,30,23,16,,,,,,2.6,1.4,2.1*33
$GPRMC,120215.000,A,4758.1023,N,00124.0403,W,0.09,339.61,291217,,,A*7E
$GPGGA,120216.000,4758.1024,N,00124.0403,W,1,07,1.4,65.0,M,48.1,M,,0000*7D
$GPGSA,M,3,07,09,02,06,30,23,16,,,,,,2.6,1.4,2.1*33
$GPRMC,120216.000,A,4758.1024,N,00124.0403,W,0.09,339.61,291217,,,A*7A
$GPGGA,120217.000,4758.1024,N,00124.0403,W,1,07,1.4,65.1,M,48.1,M,,0000*7D
arfcn: 975 bsic: 60 rxLev: -94 ber: 8.03 mcc: 208 mnc: 20 lac: 413 cellId: 20247 cellStatus: CELL_SUITABLE numArfcn: 1 arfcn: 975 numChannels: 20 array: 977 978 979 980 981 982 983 984 985 987 1011 1013 1014 1015 1017 1018 1019 1020 1021 1022 pbcch: 0 nom: 2 rac: 1 spgc: 0 pat: 6 nco: 0 t3168: 1500 t3192: 500 drxmax: 0 ctrlAck: 0 bsCVmax: 8 alpha: 6 pcMeasCh: 1 
$GPGSA,M,3,07,09,02,06,30,23,16,,,,,,2.6,1.4,2.1*33
$GPRMC,120217.000,A,4758.1024,N,00124.0403,W,0.10,339.61,291217,,,A*73
$GPGGA,120218.000,4758.1024,N,00124.0403,W,1,07,1.4,65.3,M,48.1,M,,0000*70
$GPGSA,M,3,07,09,02,06,30,23,16,,,,,,2.6,1.4,2.1*33
$GPRMC,120218.000,A,4758.1024,N,00124.0403,W,0.10,339.61,291217,,,A*7C
arfcn: 115 bsic: 8 rxLev: -94 ber: 0.00 mcc: 208 mnc: 10 lac: 6001 cellId: 30875 cellStatus: CELL_FORBIDDEN numArfcn: 2 arfcn: 111 115 numChannels: 16 array: 77 78 79 80 81 82 83 85 87 113 114 117 118 120 122 124 pbcch: 0 nom: 2 rac: 61 spgc: 0 pat: 6 nco: 0 t3168: 1000 t3192: 500 drxmax: 2 ctrlAck: 0 bsCVmax: 9 alpha: 7 pcMeasCh: 1 
arfcn: 79 rxLev: -94
$GPGGA,120219.000,4758.1024,N,00124.0403,W,1,07,1.4,65.3,M,48.1,M,,0000*71
$GPGSA,M,3,07,09,02,06,30,23,16,,,,,,2.6,1.4,2.1*33
$GPGSV,3,1,12,07,58,139,38,09,57,061,34,02,49,267,35,06,45,208,45*7F
$GPGSV,3,2,12,30,38,174,43,23,24,067,30,16,11,045,29,05,29,298,37*77
$GPGSV,3,3,12,33,33,198,30,04,37,298,,29,08,324,,26,02,018,*73
$GPRMC,120219.000,A,4758.1024,N,00124.0403,W,0.08,339.61,291217,,,A*74
$GPGGA,120220.000,4758.1026,N,00124.0405,W,1,08,1.1,65.2,M,48.1,M,,0000*74
$GPGSA,M,3,07,09,02,06,30,23,16,05,,,,,2.4,1.1,2.1*31
$GPRMC,120220.000,A,4758.1026,N,00124.0405,W,0.04,339.61,291217,,,A*76
arfcn: 11 bsic: 30 rxLev: -94 ber: 0.00 mcc: 208 mnc: 01 lac: 10300 cellId: 12921 cellStatus: CELL_FORBIDDEN numArfcn: 13 arfcn: 11 17 18 19 20 21 22 23 24 25 47 48 49 numChannels: 13 array: 1 2 3 4 5 6 7 9 11 12 13 14 15 pbcch: 0 nom: 2 rac: 1 spgc: 1 pat: 6 nco: 0 t3168: 1000 t3192: 500 drxmax: 4 ctrlAck: 1 bsCVmax: 9 alpha: 7 pcMeasCh: 0 
arfcn: 67 rxLev: -94
$GPGGA,120221.000,4758.1026,N,00124.0405,W,1,08,1.1,65.1,M,48.1,M,,0000*76
$GPGSA,M,3,07,09,02,06,30,05,23,16,,,,,2.4,1.1,2.1*31
$GPRMC,120221.000,A,4758.1026,N,00124.0405,W,0.00,339.61,291217,,,A*73
$GPGGA,120222.000,4758.1026,N,00124.0405,W,1,08,1.1,65.1,M,48.1,M,,0000*75
$GPGSA,M,3,07,09,02,06,30,05,23,16,,,,,2.4,1.1,2.1*31
$GPRMC,120222.000,A,4758.1026,N,00124.0405,W,0.00,339.61,291217,,,A*70
arfcn: 81 bsic: 11 rxLev: -95 ber: 6.01 mcc: 208 mnc: 10 lac: 6001 cellId: 49645 cellStatus: CELL_FORBIDDEN numArfcn: 2 arfcn: 81 83 numChannels: 17 array: 77 78 79 80 82 83 85 86 87 113 114 115 117 118 120 122 124 pbcch: 0 nom: 2 rac: 61 spgc: 0 pat: 6 nco: 0 t3168: 1000 t3192: 500 drxmax: 2 ctrlAck: 0 bsCVmax: 9 alpha: 7 pcMeasCh: 1 
$GPGGA,120223.000,4758.1026,N,00124.0405,W,1,08,1.1,65.1,M,48.1,M,,0000*74
$GPGSA,M,3,07,09,02,06,30,05,23,16,,,,,2.4,1.1,2.1*31
$GPRMC,120223.000,A,4758.1026,N,00124.0405,W,0.00,339.61,291217,,,A*71
$GPGGA,120224.000,4758.1026,N,00124.0405,W,1,08,1.1,65.1,M,48.1,M,,0000*73
$GPGSA,M,3,07,09,02,06,30,05,23,16,,,,,2.4,1.1,2.1*31
$GPGSV,3,1,12,07,58,138,39,09,57,061,33,02,49,267,35,06,45,208,45*78
$GPGSV,3,2,12,30,38,174,43,05,29,298,38,23,24,067,30,16,11,045,28*79
$GPGSV,3,3,12,33,33,198,30,04,37,298,,29,08,324,,26,02,018,*73
$GPRMC,120224.000,A,4758.1026,N,00124.0405,W,0.00,339.61,291217,,,A*76
$GPGGA,120225.000,4758.1026,N,00124.0405,W,1,08,1.1,65.1,M,48.1,M,,0000*72
$GPGSA,M,3,07,09,02,06,30,05,23,16,,,,,2.4,1.1,2.1*31
$GPRMC,120225.000,A,4758.1026,N,00124.0405,W,0.00,339.61,291217,,,A*77
arfcn: 87 bsic: 34 rxLev: -95 ber: 2.03 mcc: 208 mnc: 10 lac: 30514 cellId: 20354 cellStatus: CELL_FORBIDDEN numArfcn: 2 arfcn: 84 87 numChannels: 15 array: 77 78 79 80 81 82 83 86 113 114 115 117 120 123 124 pbcch: 0 nom: 2 rac: 1 spgc: 0 pat: 6 nco: 0 t3168: 1500 t3192: 500 drxmax: 0 ctrlAck: 0 bsCVmax: 8 alpha: 6 pcMeasCh: 1 
arfcn: 123 rxLev: -95
$GPGGA,120226.000,4758.1026,N,00124.0405,W,1,08,1.1,65.1,M,48.1,M,,0000*71
arfcn: 122 rxLev: -96
$GPGSA,M,3,07,09,02,06,30,05,23,16,,,,,2.4,1.1,2.1*31
arfcn: 93 rxLev: -96
arfcn: 94 rxLev: -96
$GPRMC,120226.000,A,4758.1026,N,00124.0405,W,0.00,339.61,291217,,,A*74
arfcn: 95 rxLev: -96
arfcn: 92 rxLev: -97
arfcn: 66 rxLev: -97
arfcn: 73 rxLev: -97
arfcn: 96 rxLev: -97
arfcn: 97 rxLev: -97
arfcn: 99 rxLev: -97
arfcn: 103 rxLev: -97
$GPGGA,120227.000,4758.1026,N,00124.0405,W,1,08,1.1,65.1,M,48.1,M,,0000*70
arfcn: 104 rxLev: -97
$GPGSA,M,3,07,09,02,06,30,05,23,16,,,,,2.4,1.1,2.1*31
arfcn: 105 rxLev: -97
$GPRMC,120227.000,A,4758.1026,N,00124.0405,W,0.00,339.61,291217,,,A*75
arfcn: 107 rxLev: -97
arfcn: 106 rxLev: -97
arfcn: 108 rxLev: -97
arfcn: 102 rxLev: -97
arfcn: 100 rxLev: -97
arfcn: 101 rxLev: -97
arfcn: 98 rxLev: -97
arfcn: 121 rxLev: -97
arfcn: 78 rxLev: -97
$GPGGA,120228.000,4758.1026,N,00124.0405,W,1,08,1.1,65.1,M,48.1,M,,0000*7F
$GPGSA,M,3,07,09,02,06,30,05,23,16,,,,,2.4,1.1,2.1*31
$GPRMC,120228.000,A,4758.1026,N,00124.0405,W,0.00,339.61,291217,,,A*7A
$GPGGA,120229.000,4758.1026,N,00124.0405,W,1,08,1.1,65.1,M,48.1,M,,0000*7E
$GPGSA,M,3,07,09,02,06,30,05,23,16,,,,,2.4,1.1,2.1*31
$GPGSV,3,1,12,07,58,138,39,09,57,061,32,02,49,267,35,06,45,208,45*79
$GPGSV,3,2,12,30,38,174,43,05,29,298,38,23,24,067,29,16,11,045,28*71
$GPGSV,3,3,12,33,33,198,29,04,37,298,,29,08,324,,26,02,018,*7B
arfcn: 82 bsic: 4 rxLev: -97 ber: 4.05 mcc: FFF mnc: FF lac: 65535 cellId: 0 cellStatus: CELL_OTHER numArfcn: 0 arfcn: numChannels: 0 array:
$GPRMC,120229.000,A,4758.1026,N,00124.0405,W,0.00,339.61,291217,,,A*7B
$GPGGA,120230.000,4758.1026,N,00124.0405,W,1,08,1.1,65.1,M,48.1,M,,0000*76
$GPGSA,M,3,07,09,02,06,30,05,23,16,,,,,2.4,1.1,2.1*31
$GPRMC,120230.000,A,4758.1026,N,00124.0405,W,0.00,339.61,291217,,,A*73
$GPGGA,120231.000,4758.1026,N,00124.0405,W,1,08,1.1,65.1,M,48.1,M,,0000*77
$GPGSA,M,3,07,09,02,06,30,05,23,16,,,,,2.4,1.1,2.1*31
$GPRMC,120231.000,A,4758.1026,N,00124.0405,W,0.00,339.61,291217,,,A*72
$GPGGA,120232.000,4758.1026,N,00124.0405,W,1,08,1.1,65.1,M,48.1,M,,0000*74
$GPGSA,M,3,07,09,02,06,30,05,23,16,,,,,2.4,1.1,2.1*31
$GPRMC,120232.000,A,4758.1026,N,00124.0405,W,0.00,339.61,291217,,,A*71
$GPGGA,120233.000,4758.1026,N,00124.0405,W,1,08,1.1,65.1,M,48.1,M,,0000*75
$GPGSA,M,3,07,09,02,06,30,05,23,16,,,,,2.4,1.1,2.1*31
$GPRMC,120233.000,A,4758.1026,N,00124.0405,W,0.00,339.61,291217,,,A*70
arfcn: 13 bsic: 59 rxLev: -97 ber: 2.07 mcc: 208 mnc: 01 lac: 10300 cellId: 1558 cellStatus: CELL_FORBIDDEN numArfcn: 13 arfcn: 13 17 18 19 20 21 22 23 24 25 47 48 49 numChannels: 14 array: 1 2 3 4 5 6 7 9 11 12 13 14 15 16 pbcch: 0 nom: 2 rac: 1 spgc: 1 pat: 6 nco: 0 t3168: 1000 t3192: 500 drxmax: 4 ctrlAck: 1 bsCVmax: 9 alpha: 7 pcMeasCh: 0 
arfcn: 63 rxLev: -97
$GPGGA,120234.000,4758.1026,N,00124.0405,W,1,08,1.1,65.1,M,48.1,M,,0000*72
$GPGSA,M,3,07,09,02,06,30,05,23,16,,,,,2.4,1.1,2.1*31
$GPGSV,3,1,12,07,58,138,39,09,57,061,32,02,49,267,35,06,45,208,45*79
$GPGSV,3,2,12,30,38,174,43,05,29,298,38,23,24,067,29,16,11,045,29*70
$GPGSV,3,3,12,37,28,151,,04,37,298,,29,08,324,,26,02,018,*7B
$GPRMC,120234.000,A,4758.1026,N,00124.0405,W,0.00,339.61,291217,,,A*77
$GPGGA,120235.000,4758.1026,N,00124.0405,W,1,08,1.1,65.1,M,48.1,M,,0000*73
$GPGSA,M,3,07,09,02,06,30,05,23,16,,,,,2.4,1.1,2.1*31
$GPRMC,120235.000,A,4758.1026,N,00124.0405,W,0.00,339.61,291217,,,A*76
$GPGGA,120236.000,4758.1026,N,00124.0405,W,1,08,1.1,65.1,M,48.1,M,,0000*70
$GPGSA,M,3,07,09,02,06,30,05,23,16,,,,,2.4,1.1,2.1*31
$GPRMC,120236.000,A,4758.1026,N,00124.0405,W,0.00,339.61,291217,,,A*75
$GPGGA,120237.000,4758.1026,N,00124.0405,W,1,08,1.1,65.1,M,48.1,M,,0000*71
$GPGSA,M,3,07,09,02,06,30,05,23,16,,,,,2.4,1.1,2.1*31
$GPRMC,120237.000,A,4758.1026,N,00124.0405,W,0.00,339.61,291217,,,A*74
arfcn: 1017 bsic: 9 rxLev: -97 ber: 0.02 mcc: 208 mnc: 20 lac: 284 cellId: 22570 cellStatus: CELL_SUITABLE numArfcn: 1 arfcn: 1017 numChannels: 20 array: 787 789 881 885 975 978 980 981 982 983 985 987 1011 1014 1015 1016 1018 1020 1021 1022 pbcch: 0 nom: 2 rac: 6 spgc: 0 pat: 6 nco: 0 t3168: 1500 t3192: 500 drxmax: 0 ctrlAck: 0 bsCVmax: 8 alpha: 6 pcMeasCh: 1 
arfcn: 91 rxLev: -98
arfcn: 68 rxLev: -98
arfcn: 120 rxLev: -98
arfcn: 976 rxLev: -98
arfcn: 72 rxLev: -98
$GPGGA,120238.000,4758.1026,N,00124.0405,W,1,08,1.1,65.1,M,48.1,M,,0000*7E
arfcn: 987 rxLev: -98
arfcn: 64 rxLev: -99
$GPGSA,M,3,07,09,02,06,30,05,23,16,,,,,2.4,1.1,2.1*31
arfcn: 109 rxLev: -99
arfcn: 62 rxLev: -99
$GPRMC,120238.000,A,4758.1026,N,00124.0405,W,0.00,339.61,291217,,,A*7B
arfcn: 61 rxLev: -99
arfcn: 60 rxLev: -99
arfcn: 8 rxLev: -99
arfcn: 70 rxLev: -99
arfcn: 71 rxLev: -99
arfcn: 74 rxLev: -99
arfcn: 90 rxLev: -99
arfcn: 983 rxLev: -99
$GPGGA,120239.000,4758.1026,N,00124.0405,W,1,08,1.1,65.1,M,48.1,M,,0000*7F
arfcn: 609 rxLev: -99
arfcn: 729 rxLev: -100
$GPGSA,M,3,07,09,02,06,30,05,23,16,,,,,2.4,1.1,2.1*31
arfcn: 849 rxLev: -100
arfcn: 980 rxLev: -100
$GPGSV,3,1,12,07,58,138,39,09,57,061,32,02,49,267,35,06,45,208,45*79
arfcn: 1022 bsic: 45 rxLev: -100 ber: 5.04 mcc: 208 mnc: 20 lac: 284 cellId: 38538 cellStatus: CELL_SUITABLE numArfcn: 1 arfcn: 1022 numChannels: 23 array: 975 976 979 980 981 982 984 986 987 1011 1012 1013 1014 1015 1017 1018 1020 1021 1022 788 876 881 884 pbcch: 0 nom: 2 rac: 6 spgc: 0 pat: 6 nco: 0 t3168: 1500 t3192: 500 drxmax: 0 ctrlAck: 0 bsCVmax: 8 alpha: 6 pcMeasCh: 1 
arfcn: 80 rxLev: -100
$GPGSV,3,2,12,30,38,174,43,05,29,298,38,23,24,067,29,16,11,045,30*78
arfcn: 75 rxLev: -100
arfcn: 119 rxLev: -100
$GPGSV,3,3,12,37,28,151,,04,37,298,,29,08,324,,26,02,018,*7B
arfcn: 7 rxLev: -100
arfcn: 59 rxLev: -100
$GPRMC,120239.000,A,4758.1026,N,00124.0405,W,0.00,339.61,291217,,,A*7A
arfcn: 58 rxLev: -101
arfcn: 12 rxLev: -101
$GPGGA,120240.000,4758.1026,N,00124.0405,W,1,08,1.1,65.1,M,48.1,M,,0000*71
arfcn: 76 rxLev: -101
$GPGSA,M,3,07,09,02,06,30,05,23,16,,,,,2.4,1.1,2.1*31
arfcn: 77 rxLev: -101
arfcn: 69 rxLev: -101
$GPRMC,120240.000,A,4758.1026,N,00124.0405,W,0.00,339.61,291217,,,A*74
arfcn: 65 rxLev: -101
arfcn: 978 rxLev: -101
arfcn: 110 rxLev: -101
arfcn: 111 rxLev: -101
arfcn: 14 rxLev: -101
arfcn: 4 rxLev: -101
arfcn: 2 rxLev: -101
arfcn: 56 rxLev: -101
$GPGGA,120241.000,4758.1026,N,00124.0405,W,1,08,1.1,65.1,M,48.1,M,,0000*70
arfcn: 57 rxLev: -101
arfcn: 54 rxLev: -101
$GPGSA,M,3,07,09,02,06,30,05,23,16,,,,,2.4,1.1,2.1*31
arfcn: 55 rxLev: -101
arfcn: 53 rxLev: -102
$GPRMC,120241.000,A,4758.1026,N,00124.0405,W,0.00,339.61,291217,,,A*75
arfcn: 41 rxLev: -102
arfcn: 42 rxLev: -102
arfcn: 5 rxLev: -102
arfcn: 6 rxLev: -102
arfcn: 18 rxLev: -102
arfcn: 118 rxLev: -102
arfcn: 84 rxLev: -102
$GPGGA,120242.000,4758.1026,N,00124.0405,W,1,08,1.1,65.1,M,48.1,M,,0000*73
arfcn: 89 rxLev: -102
$GPGSA,M,3,07,09,02,06,30,05,23,16,,,,,2.4,1.1,2.1*31
arfcn: 979 rxLev: -102
arfcn: 981 rxLev: -102
$GPRMC,120242.000,A,4758.1026,N,00124.0405,W,0.00,339.61,291217,,,A*76
arfcn: 982 rxLev: -102
arfcn: 990 rxLev: -102
arfcn: 991 rxLev: -102
arfcn: 993 rxLev: -102
arfcn: 994 rxLev: -102
arfcn: 1001 rxLev: -102
arfcn: 1003 rxLev: -102
arfcn: 1004 rxLev: -102
arfcn: 1005 rxLev: -102
$GPGGA,120243.000,4758.1026,N,00124.0405,W,1,08,1.1,65.1,M,48.1,M,,0000*72
arfcn: 1006 rxLev: -102
$GPGSA,M,3,07,09,02,06,30,05,23,16,,,,,2.4,1.1,2.1*31
arfcn: 86 rxLev: -102
arfcn: 19 rxLev: -102
$GPRMC,120243.000,A,4758.1026,N,00124.0405,W,0.00,339.61,291217,,,A*77
arfcn: 24 rxLev: -102
arfcn: 1 rxLev: -102
arfcn: 43 rxLev: -102
arfcn: 44 rxLev: -102
arfcn: 38 rxLev: -102
arfcn: 39 rxLev: -102
arfcn: 37 rxLev: -103
arfcn: 32 rxLev: -103
$GPGGA,120244.000,4758.1026,N,00124.0405,W,1,08,1.1,65.1,M,48.1,M,,0000*75
$GPGSA,M,3,07,09,02,06,30,05,23,16,,,,,2.4,1.1,2.1*31
arfcn: 33 rxLev: -103
arfcn: 34 rxLev: -103
$GPGSV,3,1,12,07,58,138,39,09,57,061,32,02,49,267,35,06,45,208,45*79
arfcn: 45 rxLev: -103
arfcn: 40 rxLev: -103
$GPGSV,3,2,12,30,38,174,43,05,29,298,38,23,23,067,29,16,11,044,29*76
arfcn: 15 rxLev: -103
arfcn: 10 rxLev: -103
$GPGSV,3,3,12,37,28,151,,04,37,298,,29,08,323,,26,02,018,*7C
arfcn: 27 rxLev: -103
arfcn: 28 rxLev: -103
$GPRMC,120244.000,A,4758.1026,N,00124.0405,W,0.00,339.61,291217,,,A*70
arfcn: 29 rxLev: -103
arfcn: 30 rxLev: -103
$GPGGA,120245.000,4758.1026,N,00124.0405,W,1,08,1.1,65.1,M,48.1,M,,0000*74
arfcn: 31 rxLev: -103
arfcn: 117 rxLev: -103
$GPGSA,M,3,07,09,02,06,30,05,23,16,,,,,2.4,1.1,2.1*31
arfcn: 1007 rxLev: -103
arfcn: 1002 rxLev: -103
$GPRMC,120245.000,A,4758.1026,N,00124.0405,W,0.00,339.61,291217,,,A*71
arfcn: 998 rxLev: -103
arfcn: 995 rxLev: -103
arfcn: 992 rxLev: -103
arfcn: 988 rxLev: -103
arfcn: 989 rxLev: -103
arfcn: 996 rxLev: -103
arfcn: 997 rxLev: -103
arfcn: 999 rxLev: -103
arfcn: 1000 rxLev: -103
$GPGGA,120246.000,4758.1026,N,00124.0405,W,1,08,1.1,65.1,M,48.1,M,,0000*77
arfcn: 1008 rxLev: -103
$GPGSA,M,3,07,09,02,06,30,05,23,16,,,,,2.4,1.1,2.1*31
arfcn: 1019 rxLev: -103
$GPRMC,120246.000,A,4758.1026,N,00124.0405,W,0.00,339.61,291217,,,A*72
arfcn: 1021 rxLev: -103
arfcn: 1013 rxLev: -103
arfcn: 116 rxLev: -103
arfcn: 83 rxLev: -103
arfcn: 88 rxLev: -103
arfcn: 25 rxLev: -103
arfcn: 17 rxLev: -103
arfcn: 46 rxLev: -103
$GPGGA,120247.000,4758.1026,N,00124.0405,W,1,08,1.1,65.1,M,48.1,M,,0000*76
arfcn: 36 rxLev: -103
arfcn: 52 rxLev: -103
$GPGSA,M,3,07,09,02,06,30,05,23,16,,,,,2.4,1.1,2.1*31
arfcn: 48 rxLev: -103
arfcn: 51 rxLev: -103
$GPRMC,120247.000,A,4758.1026,N,00124.0405,W,0.00,339.61,291217,,,A*73
arfcn: 50 rxLev: -104
arfcn: 49 rxLev: -104
arfcn: 35 rxLev: -104
arfcn: 47 rxLev: -104
arfcn: 21 rxLev: -104
arfcn: 9 rxLev: -104
arfcn: 3 rxLev: -104
arfcn: 114 rxLev: -104
$GPGGA,120248.000,4758.1026,N,00124.0405,W,1,08,1.1,65.1,M,48.1,M,,0000*79
arfcn: 1016 rxLev: -104
$GPGSA,M,3,07,09,02,06,30,05,23,16,,,,,2.4,1.1,2.1*31
arfcn: 986 rxLev: -104
arfcn: 985 rxLev: -104
$GPRMC,120248.000,A,4758.1026,N,00124.0405,W,0.00,339.61,291217,,,A*7C
arfcn: 984 rxLev: -104
arfcn: 1018 rxLev: -104
arfcn: 1023 rxLev: -104
arfcn: 85 rxLev: -104
arfcn: 23 rxLev: -104
arfcn: 16 rxLev: -104
arfcn: 26 rxLev: -104
arfcn: 1010 rxLev: -105
$GPGGA,120249.000,4758.1026,N,00124.0405,W,1,08,1.1,65.1,M,48.1,M,,0000*78
arfcn: 1011 rxLev: -105
$GPGSA,M,3,07,09,02,06,30,05,23,16,,,,,2.4,1.1,2.1*31
arfcn: 1015 rxLev: -105
arfcn: 546 rxLev: -105
$GPGSV,3,1,12,07,58,138,39,09,57,061,32,02,49,267,34,06,45,208,45*78
arfcn: 113 rxLev: -105
arfcn: 112 rxLev: -106
$GPGSV,3,2,12,30,38,174,42,05,29,298,38,23,23,067,30,16,11,044,25*73
arfcn: 20 rxLev: -106
arfcn: 0 rxLev: -106
$GPGSV,3,3,12,37,28,151,,04,37,298,,29,08,323,,26,02,018,*7C
arfcn: 1012 rxLev: -106
arfcn: 607 rxLev: -106
$GPRMC,120249.000,A,4758.1026,N,00124.0405,W,0.00,339.61,291217,,,A*7D
arfcn: 1009 rxLev: -106
arfcn: 789 rxLev: -106
$GPGGA,120250.000,4758.1026,N,00124.0405,W,1,08,1.1,65.1,M,48.1,M,,0000*70
arfcn: 1014 rxLev: -106
arfcn: 1020 rxLev: -106
$GPGSA,M,3,07,09,02,06,30,05,23,16,,,,,2.4,1.1,2.1*31
arfcn: 22 rxLev: -106
arfcn: 605 rxLev: -107
$GPRMC,120250.000,A,4758.1026,N,00124.0405,W,0.00,339.61,291217,,,A*75
arfcn: 665 rxLev: -107
arfcn: 666 rxLev: -107
arfcn: 606 rxLev: -107
arfcn: 611 rxLev: -107
Network survey ended
Survey end at #CCLK: "17/12/29,13:02:49+04"
Survey duration: 64 seconds, 10 bases detected over 185 freqs scanned.
$GPGGA,120251.000,4758.1027,N,00124.0405,W,1,08,1.1,65.0,M,48.1,M,,0000*71
$GPGSA,M,3,07,09,02,06,30,05,23,16,,,,,2.4,1.1,2.1*31
$GPRMC,120251.000,A,4758.1027,N,00124.0405,W,0.03,339.61,291217,,,A*76
$GPGGA,120252.000,4758.1027,N,00124.0405,W,1,08,1.1,65.0,M,48.1,M,,0000*72
$GPGSA,M,3,07,09,02,06,30,05,23,16,,,,,2.4,1.1,2.1*31
$GPRMC,120252.000,A,4758.1027,N,00124.0405,W,0.00,339.61,291217,,,A*76
Survey start at #CCLK: "17/12/29,13:02:52+04"
at#csurv
$GPGGA,120253.000,4758.1027,N,00124.0405,W,1,08,1.1,65.0,M,48.1,M,,0000*73
Network survey started ...
$GPGSA,M,3,07,09,02,06,30,05,23,16,,,,,2.4,1.1,2.1*31
$GPRMC,120253.000,A,4758.1027,N,00124.0405,W,0.00,339.61,291217,,,A*77
$GPGGA,120254.000,4758.1027,N,00124.0405,W,1,08,1.1,65.0,M,48.1,M,,0000*74
$GPGSA,M,3,07,09,02,06,30,05,23,16,,,,,2.4,1.1,2.1*31
$GPGSV,3,1,12,07,58,138,39,09,57,061,32,02,49,267,30,06,45,208,44*7D
$GPGSV,3,2,12,30,38,174,42,05,29,298,38,23,23,067,31,16,11,044,27*70
$GPGSV,3,3,12,37,28,151,,04,37,298,,29,08,323,,26,02,018,*7C
$GPRMC,120254.000,A,4758.1027,N,00124.0405,W,0.00,339.61,291217,,,A*70
$GPGGA,120255.000,4758.1027,N,00124.0406,W,1,08,1.1,64.9,M,48.1,M,,0000*7E
$GPGSA,M,3,07,09,02,06,30,05,23,16,,,,,2.4,1.1,2.1*31
$GPRMC,120255.000,A,4758.1027,N,00124.0406,W,0.02,339.61,291217,,,A*70
$GPGGA,120256.000,4758.1028,N,00124.0406,W,1,08,1.1,64.8,M,48.1,M,,0000*73
$GPGSA,M,3,07,09,02,06,30,05,23,16,,,,,2.4,1.1,2.1*31
$GPRMC,120256.000,A,4758.1028,N,00124.0406,W,0.04,339.61,291217,,,A*7A
$GPGGA,120257.000,4758.1028,N,00124.0406,W,1,08,1.1,64.8,M,48.1,M,,0000*72
$GPGSA,M,3,07,09,02,06,30,05,23,16,,,,,2.4,1.1,2.1*31
$GPRMC,120257.000,A,4758.1028,N,00124.0406,W,0.00,339.61,291217,,,A*7F
$GPGGA,120258.000,4758.1028,N,00124.0406,W,1,08,1.1,64.8,M,48.1,M,,0000*7D
$GPGSA,M,3,07,09,02,06,30,05,23,16,,,,,2.4,1.1,2.1*31
$GPRMC,120258.000,A,4758.1028,N,00124.0406,W,0.00,339.61,291217,,,A*70
$GPGGA,120259.000,4758.1028,N,00124.0406,W,1,08,1.1,64.8,M,48.1,M,,0000*7C
$GPGSA,M,3,07,09,02,06,30,05,23,16,,,,,2.4,1.1,2.1*31
arfcn: 124 rxLev: -89
$GPGSV,3,1,12,07,58,138,38,09,57,061,32,02,49,267,32,06,45,208,44*7E
arfcn: 975 rxLev: -94
$GPGSV,3,2,12,30,38,174,41,05,29,298,39,23,23,067,30,16,11,044,27*73
arfcn: 123 rxLev: -94
arfcn: 67 rxLev: -94
$GPGSV,3,3,12,37,28,151,,04,37,298,,29,08,323,,26,02,018,*7C
arfcn: 1022 bsic: 45 rxLev: -94 ber: 0.00 mcc: 208 mnc: 20 lac: 284 cellId: 38538 cellStatus: CELL_SUITABLE numArfcn: 1 arfcn: 1022 numChannels: 23 array: 975 976 979 980 981 982 984 986 987 1011 1012 1013 1014 1015 1017 1018 1020 1021 1022 788 876 881 884 pbcch: 0 nom: 2 rac: 6 spgc: 0 pat: 6 nco: 0 t3168: 1500 t3192: 500 drxmax: 0 ctrlAck: 0 bsCVmax: 8 alpha: 6 pcMeasCh: 1 
$GPRMC,120259.000,A,4758.1028,N,00124.0406,W,0.00,339.61,291217,,,A*71
$GPGGA,120300.000,4758.1027,N,00124.0408,W,1,08,1.1,64.7,M,48.1,M,,0000*7F
$GPGSA,M,3,07,09,02,06,30,05,23,16,,,,,2.4,1.1,2.1*31
$GPRMC,120300.000,A,4758.1027,N,00124.0408,W,0.90,339.61,291217,,,A*74
$GPGGA,120301.000,4758.1027,N,00124.0407,W,1,08,1.1,64.7,M,48.1,M,,0000*71
$GPGSA,M,3,07,09,02,06,30,05,23,16,,,,,2.4,1.1,2.1*31
$GPRMC,120301.000,A,4758.1027,N,00124.0407,W,0.01,339.61,291217,,,A*72
$GPGGA,120302.000,4758.1028,N,00124.0408,W,1,08,1.1,64.6,M,48.1,M,,0000*73
$GPGSA,M,3,07,09,02,06,30,05,23,16,,,,,2.4,1.1,2.1*31
$GPRMC,120302.000,A,4758.1028,N,00124.0408,W,0.18,339.61,291217,,,A*79
$GPGGA,120303.000,4758.1028,N,00124.0407,W,1,08,1.1,64.8,M,48.1,M,,0000*73
$GPGSA,M,3,07,09,02,06,30,05,23,16,,,,,2.4,1.1,2.1*31
arfcn: 79 bsic: 56 rxLev: -94 ber: 0.04 mcc: 208 mnc: 10 lac: 30514 cellId: 20244 cellStatus: CELL_FORBIDDEN numArfcn: 1 arfcn: 79 numChannels: 19 array: 76 77 78 79 81 82 83 85 86 87 113 114 115 117 118 119 121 122 124 pbcch: 0 nom: 2 rac: 1 spgc: 0 pat: 6 nco: 0 t3168: 1500 t3192: 500 drxmax: 0 ctrlAck: 0 bsCVmax: 8 alpha: 6 pcMeasCh: 1 
$GPRMC,120303.000,A,4758.1028,N,00124.0407,W,0.06,339.61,291217,,,A*78
$GPGGA,120304.000,4758.1029,N,00124.0408,W,1,08,1.1,64.6,M,48.1,M,,0000*74
$GPGSA,M,3,07,09,02,06,30,05,23,16,,,,,2.4,1.1,2.1*31
$GPGSV,3,1,12,07,58,138,33,09,57,061,35,02,49,267,32,06,45,208,45*73
$GPGSV,3,2,12,30,38,174,41,05,29,298,40,23,23,067,32,16,11,044,23*7B
$GPGSV,3,3,12,39,31,144,,04,37,298,,29,08,323,,26,02,018,*7E
$GPRMC,120304.000,A,4758.1029,N,00124.0408,W,0.17,339.61,291217,,,A*71
$GPGGA,120305.000,4758.1030,N,00124.0408,W,1,08,1.1,64.7,M,48.1,M,,0000*7C
$GPGSA,M,3,07,09,02,06,30,05,23,16,,,,,2.4,1.1,2.1*31
$GPRMC,120305.000,A,4758.1030,N,00124.0408,W,0.06,339.61,291217,,,A*78
$GPGGA,120306.000,4758.1030,N,00124.0408,W,1,08,1.1,64.6,M,48.1,M,,0000*7E
$GPGSA,M,3,07,09,02,06,30,05,23,16,,,,,2.4,1.1,2.1*31
$GPRMC,120306.000,A,4758.1030,N,00124.0408,W,0.00,339.61,291217,,,A*7D
$GPGGA,120307.000,4758.1030,N,00124.0407,W,1,08,1.1,64.8,M,48.1,M,,0000*7E
arfcn: 115 bsic: 8 rxLev: -94 ber: 3.06 mcc: 208 mnc: 10 lac: 6001 cellId: 30875 cellStatus: CELL_FORBIDDEN numArfcn: 2 arfcn: 111 115 numChannels: 16 array: 77 78 79 80 81 82 83 85 87 113 114 117 118 120 122 124 pbcch: 0 nom: 2 rac: 61 spgc: 0 pat: 6 nco: 0 t3168: 1000 t3192: 500 drxmax: 2 ctrlAck: 0 bsCVmax: 9 alpha: 7 pcMeasCh: 1 
$GPGSA,M,3,07,09,02,06,30,05,23,16,,,,,2.4,1.1,2.1*31
arfcn: 66 rxLev: -95
$GPRMC,120307.000,A,4758.1030,N,00124.0407,W,0.03,339.61,291217,,,A*70
$GPGGA,120308.000,4758.1030,N,00124.0407,W,1,08,1.1,64.8,M,48.1,M,,0000*71
$GPGSA,M,3,07,09,02,06,30,05,23,16,,,,,2.4,1.1,2.1*31
$GPRMC,120308.000,A,4758.1030,N,00124.0407,W,0.00,339.61,291217,,,A*7C
$GPGGA,120309.000,4758.1030,N,00124.0407,W,1,08,1.1,64.8,M,48.1,M,,0000*70
$GPGSA,M,3,07,09,02,06,30,05,23,16,,,,,2.4,1.1,2.1*31
arfcn: 11 bsic: 30 rxLev: -95 ber: 0.00 mcc: 208 mnc: 01 lac: 10300 cellId: 12921 cellStatus: CELL_FORBIDDEN numArfcn: 13 arfcn: 11 17 18 19 20 21 22 23 24 25 47 48 49 numChannels: 13 array: 1 2 3 4 5 6 7 9 11 12 13 14 15 pbcch: 0 nom: 2 rac: 1 spgc: 1 pat: 6 nco: 0 t3168: 1000 t3192: 500 drxmax: 4 ctrlAck: 1 bsCVmax: 9 alpha: 7 pcMeasCh: 0 
arfcn: 68 rxLev: -96
arfcn: 95 rxLev: -96
$GPGSV,3,1,12,07,58,138,35,09,57,061,28,02,49,267,32,06,45,208,44*78
arfcn: 94 rxLev: -96
$GPGSV,3,2,12,30,38,174,42,05,29,298,40,23,23,067,33,16,11,044,24*7E
arfcn: 92 rxLev: -96
$GPGSV,3,3,12,39,31,144,,04,37,298,,29,08,323,,26,02,018,*7E
arfcn: 93 rxLev: -96
$GPRMC,120309.000,A,4758.1030,N,00124.0407,W,0.00,339.61,291217,,,A*7D
arfcn: 97 rxLev: -96
arfcn: 96 rxLev: -97
arfcn: 977 rxLev: -97
$GPGGA,120310.000,4758.1030,N,00124.0407,W,1,08,1.1,64.8,M,48.1,M,,0000*78
arfcn: 122 rxLev: -97
arfcn: 98 rxLev: -97
$GPGSA,M,3,07,09,02,06,30,05,23,16,,,,,2.4,1.1,2.1*31
arfcn: 100 rxLev: -97
$GPRMC,120310.000,A,4758.1030,N,00124.0407,W,0.00,339.61,291217,,,A*75
$GPGGA,120311.000,4758.1030,N,00124.0407,W,1,08,1.1,64.8,M,48.1,M,,0000*79
$GPGSA,M,3,07,09,02,06,30,05,23,16,,,,,2.4,1.1,2.1*31
$GPRMC,120311.000,A,4758.1030,N,00124.0407,W,0.00,339.61,291217,,,A*74
$GPGGA,120312.000,4758.1030,N,00124.0407,W,1,08,1.1,64.8,M,48.1,M,,0000*7A
$GPGSA,M,3,07,09,02,06,30,05,23,16,,,,,2.4,1.1,2.1*31
$GPRMC,120312.000,A,4758.1030,N,00124.0407,W,0.00,339.61,291217,,,A*77
arfcn: 82 bsic: 4 rxLev: -97 ber: 16.08 mcc: FFF mnc: FF lac: 65535 cellId: 0 cellStatus: CELL_OTHER numArfcn: 3 arfcn: 78 80 82 numChannels: 0 array:
arfcn: 8 rxLev: -97
arfcn: 63 rxLev: -97
$GPGGA,120313.000,4758.1030,N,00124.0407,W,1,08,1.1,64.8,M,48.1,M,,0000*7B
arfcn: 91 rxLev: -98
$GPGSA,M,3,07,09,02,06,30,05,23,16,,,,,2.4,1.1,2.1*31
arfcn: 99 rxLev: -98
arfcn: 101 rxLev: -98
$GPRMC,120313.000,A,4758.1030,N,00124.0407,W,0.00,339.61,291217,,,A*76
arfcn: 108 rxLev: -98
arfcn: 120 rxLev: -98
$GPGGA,120314.000,4758.1030,N,00124.0407,W,1,08,1.1,64.8,M,48.1,M,,0000*7C
$GPGSA,M,3,07,09,02,06,30,05,23,16,,,,,2.4,1.1,2.1*31
$GPGSV,3,1,12,07,58,138,36,09,57,062,27,02,49,266,33,06,45,208,44*77
$GPGSV,3,2,12,30,39,174,42,05,29,298,39,23,23,068,33,16,11,044,24*7E
$GPGSV,3,3,12,39,31,144,,04,37,297,,29,08,323,,26,02,018,*71
$GPRMC,120314.000,A,4758.1030,N,00124.0407,W,0.00,339.61,291217,,,A*71
$GPGGA,120315.000,4758.1030,N,00124.0407,W,1,08,1.1,64.9,M,48.1,M,,0000*7C
$GPGSA,M,3,07,09,02,06,30,05,23,16,,,,,2.4,1.1,2.1*31
$GPRMC,120315.000,A,4758.1030,N,00124.0407,W,0.00,339.61,291217,,,A*70
$GPGGA,120316.000,4758.1030,N,00124.0407,W,1,08,1.1,64.9,M,48.1,M,,0000*7F
$GPGSA,M,3,07,09,02,06,30,05,23,16,,,,,2.4,1.1,2.1*31
$GPRMC,120316.000,A,4758.1030,N,00124.0407,W,0.00,339.61,291217,,,A*73
$GPGGA,120317.000,4758.1031,N,00124.0406,W,1,08,1.1,65.7,M,48.1,M,,0000*71
$GPGSA,M,3,07,09,02,06,30,05,23,16,,,,,2.4,1.1,2.1*31
$GPRMC,120317.000,A,4758.1031,N,00124.0406,W,0.02,339.61,291217,,,A*70
$GPGGA,120318.000,4758.1031,N,00124.0406,W,1,08,1.1,65.7,M,48.1,M,,0000*7E
$GPGSA,M,3,07,09,02,06,30,05,23,16,,,,,2.4,1.1,2.1*31
$GPRMC,120318.000,A,4758.1031,N,00124.0406,W,0.00,339.61,291217,,,A*7D
arfcn: 87 bsic: 34 rxLev: -98 ber: 4.02 mcc: 208 mnc: 10 lac: 30514 cellId: 20354 cellStatus: CELL_FORBIDDEN numArfcn: 2 arfcn: 84 87 numChannels: 15 array: 77 78 79 80 81 82 83 86 113 114 115 117 120 123 124 pbcch: 0 nom: 2 rac: 1 spgc: 0 pat: 6 nco: 0 t3168: 1500 t3192: 500 drxmax: 0 ctrlAck: 0 bsCVmax: 8 alpha: 6 pcMeasCh: 1 
arfcn: 78 rxLev: -98
arfcn: 73 rxLev: -98
$GPGGA,120319.000,4758.1031,N,00124.0406,W,1,08,1.1,65.7,M,48.1,M,,0000*7F
$GPGSA,M,3,07,09,02,06,30,05,23,16,,,,,2.4,1.1,2.1*31
$GPGSV,3,1,12,07,58,138,37,09,57,062,28,02,49,266,33,06,45,208,44*79
$GPGSV,3,2,12,30,39,174,43,05,29,298,39,23,23,068,33,16,11,044,24*7F
$GPGSV,3,3,12,39,31,144,,04,37,297,,29,08,323,,26,02,018,*71
$GPRMC,120319.000,A,4758.1031,N,00124.0406,W,0.00,339.61,291217,,,A*7C
$GPGGA,120320.000,4758.1031,N,00124.0406,W,1,08,1.1,65.7,M,48.1,M,,0000*75
$GPGSA,M,3,07,09,02,06,30,05,23,16,,,,,2.4,1.1,2.1*31
$GPRMC,120320.000,A,4758.1031,N,00124.0406,W,0.00,339.61,291217,,,A*76
arfcn: 13 bsic: 59 rxLev: -98 ber: 2.10 mcc: 208 mnc: 01 lac: 10300 cellId: 1558 cellStatus: CELL_FORBIDDEN numArfcn: 13 arfcn: 13 17 18 19 20 21 22 23 24 25 47 48 49 numChannels: 14 array: 1 2 3 4 5 6 7 9 11 12 13 14 15 16 pbcch: 0 nom: 2 rac: 1 spgc: 1 pat: 6 nco: 0 t3168: 1000 t3192: 500 drxmax: 4 ctrlAck: 1 bsCVmax: 9 alpha: 7 pcMeasCh: 0 
$GPGGA,120321.000,4758.1031,N,00124.0406,W,1,08,1.1,65.7,M,48.1,M,,0000*74
$GPGSA,M,3,07,09,02,06,30,05,23,16,,,,,2.4,1.1,2.1*31
$GPRMC,120321.000,A,4758.1031,N,00124.0406,W,0.00,339.61,291217,,,A*77
$GPGGA,120322.000,4758.1031,N,00124.0406,W,1,08,1.1,65.7,M,48.1,M,,0000*77
$GPGSA,M,3,07,09,02,06,30,05,23,16,,,,,2.4,1.1,2.1*31
$GPRMC,120322.000,A,4758.1031,N,00124.0406,W,0.00,339.61,291217,,,A*74
arfcn: 1017 bsic: 9 rxLev: -98 ber: 0.01 mcc: 208 mnc: 20 lac: 284 cellId: 22570 cellStatus: CELL_SUITABLE numArfcn: 1 arfcn: 1017 numChannels: 20 array: 787 789 881 885 975 978 980 981 982 983 985 987 1011 1014 1015 1016 1018 1020 1021 1022 pbcch: 0 nom: 2 rac: 6 spgc: 0 pat: 6 nco: 0 t3168: 1500 t3192: 500 drxmax: 0 ctrlAck: 0 bsCVmax: 8 alpha: 6 pcMeasCh: 1 
arfcn: 982 rxLev: -99
$GPGGA,120323.000,4758.1031,N,00124.0406,W,1,08,1.1,65.7,M,48.1,M,,0000*76
$GPGSA,M,3,07,09,02,06,30,05,23,16,,,,,2.4,1.1,2.1*31
$GPRMC,120323.000,A,4758.1031,N,00124.0406,W,0.00,339.61,291217,,,A*75
$GPGGA,120324.000,4758.1031,N,00124.0406,W,1,08,1.1,65.7,M,48.1,M,,0000*71
$GPGSA,M,3,07,09,02,06,30,05,23,16,,,,,2.4,1.1,2.1*31
$GPGSV,3,1,12,07,58,138,38,09,57,062,28,02,49,266,33,06,45,208,45*77
$GPGSV,3,2,12,30,39,174,43,05,29,298,39,23,23,068,33,16,11,044,24*7F
$GPGSV,3,3,12,39,31,144,,04,37,297,,29,08,323,,26,02,018,*71
$GPRMC,120324.000,A,4758.1031,N,00124.0406,W,0.00,339.61,291217,,,A*72
$GPGGA,120325.000,4758.1031,N,00124.0406,W,1,08,1.1,65.7,M,48.1,M,,0000*70
$GPGSA,M,3,07,09,02,06,30,05,23,16,,,,,2.4,1.1,2.1*31
$GPRMC,120325.000,A,4758.1031,N,00124.0406,W,0.00,339.61,291217,,,A*73
$GPGGA,120326.000,4758.1031,N,00124.0405,W,1,08,1.1,65.7,M,48.1,M,,0000*70
$GPGSA,M,3,07,09,02,06,30,05,23,16,,,,,2.4,1.1,2.1*31
$GPRMC,120326.000,A,4758.1031,N,00124.0405,W,0.00,339.61,291217,,,A*73
arfcn: 987 bsic: 46 rxLev: -99 ber: 0.02 mcc: 208 mnc: 20 lac: 284 cellId: 22571 cellStatus: CELL_SUITABLE numArfcn: 2 arfcn: 987 1010 numChannels: 24 array: 787 789 792 794 881 885 975 976 977 978 980 981 982 983 987 1013 1014 1015 1016 1017 1018 1020 1021 1022 pbcch: 0 nom: 2 rac: 6 spgc: 0 pat: 6 nco: 0 t3168: 1500 t3192: 500 drxmax: 0 ctrlAck: 0 bsCVmax: 8 alpha: 6 pcMeasCh: 1 
arfcn: 75 rxLev: -99
arfcn: 104 rxLev: -99
arfcn: 105 rxLev: -99
arfcn: 106 rxLev: -99
arfcn: 107 rxLev: -99
arfcn: 102 rxLev: -99
$GPGGA,120327.000,4758.1031,N,00124.0405,W,1,08,1.1,65.7,M,48.1,M,,0000*71
arfcn: 103 rxLev: -99
$GPGSA,M,3,07,09,02,06,30,05,23,16,,,,,2.4,1.1,2.1*31
arfcn: 121 rxLev: -99
arfcn: 74 rxLev: -99
$GPRMC,120327.000,A,4758.1031,N,00124.0405,W,0.00,339.61,291217,,,A*72
arfcn: 76 rxLev: -99
arfcn: 90 rxLev: -99
arfcn: 5 rxLev: -99
arfcn: 61 rxLev: -99
arfcn: 980 rxLev: -99
arfcn: 609 rxLev: -99
arfcn: 849 rxLev: -99
arfcn: 976 rxLev: -100
$GPGGA,120328.000,4758.1031,N,00124.0405,W,1,08,1.1,65.7,M,48.1,M,,0000*7E
arfcn: 109 rxLev: -100
$GPGSA,M,3,07,09,02,06,30,05,23,16,,,,,2.4,1.1,2.1*31
$GPRMC,120328.000,A,4758.1031,N,00124.0405,W,0.00,339.61,291217,,,A*7D
$GPGGA,120329.000,4758.1031,N,00124.0405,W,1,08,1.1,65.7,M,48.1,M,,0000*7F
$GPGSA,M,3,07,09,02,06,30,05,23,16,,,,,2.4,1.1,2.1*31
$GPGSV,3,1,12,07,58,138,38,09,57,062,28,02,49,266,33,06,45,208,45*77
$GPGSV,3,2,12,30,39,174,43,05,29,298,40,23,23,068,33,16,11,044,24*71
$GPGSV,3,3,12,39,31,144,,04,37,297,,29,08,323,,26,02,018,*71
$GPRMC,120329.000,A,4758.1031,N,00124.0405,W,0.00,339.61,291217,,,A*7C
$GPGGA,120330.000,4758.1031,N,00124.0405,W,1,08,1.1,65.7,M,48.1,M,,0000*77
$GPGSA,M,3,07,09,02,06,30,05,23,16,,,,,2.4,1.1,2.1*31
arfcn: 81 bsic: 11 rxLev: -100 ber: 0.01 mcc: 208 mnc: 10 lac: 6001 cellId: 49645 cellStatus: CELL_FORBIDDEN numArfcn: 2 arfcn: 81 83 numChannels: 17 array: 77 78 79 80 82 83 85 86 87 113 114 115 117 118 120 122 124 pbcch: 0 nom: 2 rac: 61 spgc: 0 pat: 6 nco: 0 t3168: 1000 t3192: 500 drxmax: 2 ctrlAck: 0 bsCVmax: 9 alpha: 7 pcMeasCh: 1 
arfcn: 77 rxLev: -100
arfcn: 64 rxLev: -100
$GPRMC,120330.000,A,4758.1031,N,00124.0405,W,0.00,339.61,291217,,,A*74
arfcn: 60 rxLev: -100
$GPGGA,120331.000,4758.1031,N,00124.0405,W,1,08,1.1,65.7,M,48.1,M,,0000*76
$GPGSA,M,3,07,09,02,06,30,05,23,16,,,,,2.4,1.1,2.1*31
$GPRMC,120331.000,A,4758.1031,N,00124.0405,W,0.00,339.61,291217,,,A*75
$GPGGA,120332.000,4758.1031,N,00124.0405,W,1,08,1.1,65.7,M,48.1,M,,0000*75
$GPGSA,M,3,07,09,02,06,30,05,23,16,,,,,2.4,1.1,2.1*31
$GPRMC,120332.000,A,4758.1031,N,00124.0405,W,0.00,339.61,291217,,,A*76
$GPGGA,120333.000,4758.1031,N,00124.0405,W,1,08,1.1,65.7,M,48.1,M,,0000*74
$GPGSA,M,3,07,09,02,06,30,05,23,16,,,,,2.4,1.1,2.1*31
$GPRMC,120333.000,A,4758.1031,N,00124.0405,W,0.00,339.61,291217,,,A*77
arfcn: 12 bsic: 8 rxLev: -100 ber: 12.02 mcc: FFF mnc: FF lac: 65535 cellId: 0 cellStatus: CELL_OTHER numArfcn: 13 arfcn: 12 17 18 19 20 21 22 23 24 25 47 48 49 numChannels: 14 array: 1 2 3 4 5 6 7 9 10 11 12 13 14 15
arfcn: 729 rxLev: -100
arfcn: 981 rxLev: -100
arfcn: 978 rxLev: -100
arfcn: 983 rxLev: -101
arfcn: 7 rxLev: -101
arfcn: 62 rxLev: -101
arfcn: 58 rxLev: -101
arfcn: 59 rxLev: -101
$GPGGA,120334.000,4758.1031,N,00124.0405,W,1,08,1.1,65.7,M,48.1,M,,0000*73
arfcn: 70 rxLev: -101
arfcn: 72 rxLev: -101
$GPGSA,M,3,07,09,02,06,30,05,23,16,,,,,2.4,1.1,2.1*31
arfcn: 80 rxLev: -101
$GPGSV,3,1,12,07,58,138,38,09,57,062,29,02,49,266,33,06,45,208,45*76
arfcn: 89 rxLev: -101
arfcn: 118 rxLev: -101
$GPGSV,3,2,12,30,39,174,43,05,29,298,40,23,23,068,33,16,11,044,18*7E
arfcn: 119 rxLev: -101
arfcn: 65 rxLev: -101
$GPGSV,3,3,12,33,33,198,,04,37,297,,29,08,323,,26,02,018,*78
arfcn: 47 rxLev: -101
arfcn: 6 rxLev: -101
$GPRMC,120334.000,A,4758.1031,N,00124.0405,W,0.00,339.61,291217,,,A*70
arfcn: 18 rxLev: -101
$GPGGA,120335.000,4758.1031,N,00124.0405,W,1,08,1.1,65.7,M,48.1,M,,0000*72
arfcn: 20 rxLev: -102
arfcn: 4 rxLev: -102
$GPGSA,M,3,07,09,02,06,30,05,23,16,,,,,2.4,1.1,2.1*31
arfcn: 55 rxLev: -102
arfcn: 69 rxLev: -102
$GPRMC,120335.000,A,4758.1031,N,00124.0405,W,0.00,339.61,291217,,,A*71
arfcn: 110 rxLev: -102
arfcn: 979 rxLev: -102
arfcn: 984 rxLev: -102
arfcn: 985 rxLev: -102
arfcn: 996 rxLev: -102
arfcn: 71 rxLev: -102
arfcn: 54 rxLev: -102
arfcn: 53 rxLev: -102
$GPGGA,120336.000,4758.1031,N,00124.0405,W,1,08,1.1,65.7,M,48.1,M,,0000*71
arfcn: 49 rxLev: -102
arfcn: 56 rxLev: -102
$GPGSA,M,3,07,09,02,06,30,05,23,16,,,,,2.4,1.1,2.1*31
arfcn: 24 rxLev: -102
arfcn: 29 rxLev: -103
$GPRMC,120336.000,A,4758.1031,N,00124.0405,W,0.00,339.61,291217,,,A*72
arfcn: 14 rxLev: -103
arfcn: 15 rxLev: -103
arfcn: 9 rxLev: -103
arfcn: 57 rxLev: -103
arfcn: 48 rxLev: -103
arfcn: 51 rxLev: -103
arfcn: 52 rxLev: -103
$GPGGA,120337.000,4758.1031,N,00124.0405,W,1,08,1.1,65.7,M,48.1,M,,0000*70
$GPGSA,M,3,07,09,02,06,30,05,23,16,,,,,2.4,1.1,2.1*31
arfcn: 44 rxLev: -103
arfcn: 45 rxLev: -103
$GPRMC,120337.000,A,4758.1031,N,00124.0405,W,0.00,339.61,291217,,,A*73
arfcn: 42 rxLev: -103
arfcn: 32 rxLev: -103
arfcn: 33 rxLev: -103
arfcn: 86 rxLev: -103
arfcn: 111 rxLev: -103
arfcn: 994 rxLev: -103
arfcn: 995 rxLev: -103
arfcn: 999 rxLev: -103
arfcn: 1000 rxLev: -103
$GPGGA,120338.000,4758.1031,N,00124.0405,W,1,08,1.1,65.7,M,48.1,M,,0000*7F
arfcn: 1001 rxLev: -103
$GPGSA,M,3,07,09,02,06,30,05,23,16,,,,,2.4,1.1,2.1*31
arfcn: 1002 rxLev: -103
arfcn: 1004 rxLev: -103
$GPRMC,120338.000,A,4758.1031,N,00124.0405,W,0.00,339.61,291217,,,A*7C
arfcn: 990 rxLev: -103
arfcn: 991 rxLev: -103
arfcn: 993 rxLev: -103
arfcn: 992 rxLev: -103
arfcn: 988 rxLev: -103
arfcn: 1005 rxLev: -103
arfcn: 1003 rxLev: -103
arfcn: 998 rxLev: -103
arfcn: 997 rxLev: -103
$GPGGA,120339.000,4758.1031,N,00124.0405,W,1,08,1.1,65.7,M,48.1,M,,0000*7E
arfcn: 1016 rxLev: -103
$GPGSA,M,3,07,09,02,06,30,05,23,16,,,,,2.4,1.1,2.1*31
arfcn: 116 rxLev: -103
$GPGSV,3,1,12,07,58,138,38,09,57,062,30,02,49,266,33,06,45,208,45*7E
arfcn: 84 rxLev: -103
arfcn: 88 rxLev: -103
$GPGSV,3,2,12,30,39,174,43,05,29,298,40,23,23,068,33,16,11,044,19*7F
arfcn: 35 rxLev: -103
$GPGSV,3,3,12,33,33,198,,04,37,297,,29,08,323,,26,02,018,*78
arfcn: 41 rxLev: -103
$GPRMC,120339.000,A,4758.1031,N,00124.0405,W,0.00,339.61,291217,,,A*7D
arfcn: 50 rxLev: -103
arfcn: 3 rxLev: -103
arfcn: 17 rxLev: -103
$GPGGA,120340.000,4758.1031,N,00124.0405,W,1,08,1.1,65.7,M,48.1,M,,0000*70
arfcn: 28 rxLev: -104
arfcn: 30 rxLev: -104
$GPGSA,M,3,07,09,02,06,30,05,23,16,,,,,2.4,1.1,2.1*31
arfcn: 31 rxLev: -104
arfcn: 27 rxLev: -104
$GPRMC,120340.000,A,4758.1031,N,00124.0405,W,0.00,339.61,291217,,,A*73
arfcn: 1 rxLev: -104
arfcn: 40 rxLev: -104
arfcn: 34 rxLev: -104
arfcn: 36 rxLev: -104
arfcn: 39 rxLev: -104
arfcn: 85 rxLev: -104
arfcn: 83 rxLev: -104
arfcn: 117 rxLev: -104
$GPGGA,120341.000,4758.1031,N,00124.0405,W,1,08,1.1,65.7,M,48.1,M,,0000*71
arfcn: 1013 rxLev: -104
$GPGSA,M,3,07,09,02,06,30,05,23,16,,,,,2.4,1.1,2.1*31
arfcn: 606 rxLev: -104
arfcn: 1006 rxLev: -104
$GPRMC,120341.000,A,4758.1031,N,00124.0405,W,0.00,339.61,291217,,,A*72
arfcn: 989 rxLev: -104
arfcn: 986 rxLev: -104
arfcn: 1008 rxLev: -104
arfcn: 607 rxLev: -104
arfcn: 1011 rxLev: -104
arfcn: 114 rxLev: -104
arfcn: 38 rxLev: -104
arfcn: 37 rxLev: -104
$GPGGA,120342.000,4758.1031,N,00124.0405,W,1,08,1.1,65.7,M,48.1,M,,0000*72
arfcn: 43 rxLev: -104
arfcn: 46 rxLev: -104
$GPGSA,M,3,07,09,02,06,30,05,23,16,,,,,2.4,1.1,2.1*31
arfcn: 16 rxLev: -104
arfcn: 19 rxLev: -104
$GPRMC,120342.000,A,4758.1031,N,00124.0405,W,0.00,339.61,291217,,,A*71
arfcn: 22 rxLev: -104
arfcn: 21 rxLev: -105
arfcn: 2 rxLev: -105
arfcn: 10 rxLev: -105
arfcn: 1015 rxLev: -105
arfcn: 546 rxLev: -105
arfcn: 1019 rxLev: -105
arfcn: 1007 rxLev: -105
$GPGGA,120343.000,4758.1031,N,00124.0405,W,1,08,1.1,65.7,M,48.1,M,,0000*73
arfcn: 1009 rxLev: -105
arfcn: 1018 rxLev: -105
$GPGSA,M,3,07,09,02,06,30,05,23,16,,,,,2.4,1.1,2.1*31
arfcn: 1023 rxLev: -105
$GPRMC,120343.000,A,4758.1031,N,00124.0405,W,0.00,339.61,291217,,,A*70
arfcn: 1010 rxLev: -105
arfcn: 605 rxLev: -105
arfcn: 666 rxLev: -105
arfcn: 23 rxLev: -105
arfcn: 0 rxLev: -106
arfcn: 112 rxLev: -106
arfcn: 113 rxLev: -106
arfcn: 1014 rxLev: -106
$GPGGA,120344.000,4758.1031,N,00124.0405,W,1,08,1.1,65.7,M,48.1,M,,0000*74
arfcn: 1021 rxLev: -106
arfcn: 1012 rxLev: -106
$GPGSA,M,3,07,09,02,06,30,05,23,16,,,,,2.4,1.1,2.1*31
arfcn: 611 rxLev: -106
arfcn: 26 rxLev: -106
$GPGSV,3,1,12,07,58,138,38,09,57,062,30,02,49,266,33,06,44,207,45*70
arfcn: 25 rxLev: -106
arfcn: 789 rxLev: -107
$GPGSV,3,2,12,30,39,174,44,05,29,299,41,23,23,068,33,16,11,044,19*78
arfcn: 1020 rxLev: -107
$GPGSV,3,3,12,33,33,198,,04,37,297,,29,08,323,,26,02,018,*78
arfcn: 547 rxLev: -107
arfcn: 665 rxLev: -107
$GPRMC,120344.000,A,4758.1031,N,00124.0405,W,0.00,339.61,291217,,,A*77
arfcn: 608 rxLev: -108
Network survey ended
Survey end at #CCLK: "17/12/29,13:03:44+04"
Survey duration: 51 seconds, 11 bases detected over 187 freqs scanned.
$GPGGA,120345.000,4758.1031,N,00124.0405,W,1,08,1.1,65.7,M,48.1,M,,0000*75
$GPGSA,M,3,07,09,02,06,30,05,23,16,,,,,2.4,1.1,2.1*31
$GPRMC,120345.000,A,4758.1031,N,00124.0405,W,0.00,339.61,291217,,,A*76
$GPGGA,120346.000,4758.1031,N,00124.0405,W,1,08,1.1,65.7,M,48.1,M,,0000*76
$GPGSA,M,3,07,09,02,06,30,05,23,16,,,,,2.4,1.1,2.1*31
$GPRMC,120346.000,A,4758.1031,N,00124.0405,W,0.00,339.61,291217,,,A*75
$GPGGA,120347.000,4758.1031,N,00124.0405,W,1,08,1.1,65.7,M,48.1,M,,0000*77
Survey start at #CCLK: "17/12/29,13:03:46+04"
at#csurv
Network survey started ...
$GPGSA,M,3,07,09,02,06,30,05,23,16,,,,,2.4,1.1,2.1*31
$GPRMC,120347.000,A,4758.1031,N,00124.0405,W,0.00,339.61,291217,,,A*74
$GPGGA,120348.000,4758.1031,N,00124.0405,W,1,08,1.1,65.7,M,48.1,M,,0000*78
$GPGSA,M,3,07,09,02,06,30,05,23,16,,,,,2.4,1.1,2.1*31
$GPRMC,120348.000,A,4758.1031,N,00124.0405,W,0.00,339.61,291217,,,A*7B
$GPGGA,120349.000,4758.1031,N,00124.0405,W,1,08,1.1,65.7,M,48.1,M,,0000*79
$GPGSA,M,3,07,09,02,06,30,05,23,16,,,,,2.4,1.1,2.1*31
$GPGSV,3,1,12,07,58,138,38,09,57,062,31,02,49,266,34,06,44,207,45*76
$GPGSV,3,2,12,30,39,174,43,05,29,299,41,23,23,068,33,16,11,044,18*7E
$GPGSV,3,3,12,33,33,198,,04,37,297,,29,08,323,,26,02,018,*78
$GPRMC,120349.000,A,4758.1031,N,00124.0405,W,0.00,339.61,291217,,,A*7A
$GPGGA,120350.000,4758.1031,N,00124.0405,W,1,08,1.1,65.7,M,48.1,M,,0000*71
$GPGSA,M,3,07,09,02,06,30,05,23,16,,,,,2.4,1.1,2.1*31
$GPRMC,120350.000,A,4758.1031,N,00124.0405,W,0.00,339.61,291217,,,A*72
$GPGGA,120351.000,4758.1031,N,00124.0405,W,1,08,1.1,65.7,M,48.1,M,,0000*70
$GPGSA,M,3,07,09,02,06,30,05,23,16,,,,,2.4,1.1,2.1*31
$GPRMC,120351.000,A,4758.1031,N,00124.0405,W,0.00,339.61,291217,,,A*73
$GPGGA,120352.000,4758.1031,N,00124.0405,W,1,08,1.1,65.7,M,48.1,M,,0000*73
$GPGSA,M,3,07,09,02,06,30,05,23,16,,,,,2.4,1.1,2.1*31
$GPRMC,120352.000,A,4758.1031,N,00124.0405,W,0.00,339.61,291217,,,A*70
$GPGGA,120353.000,4758.1031,N,00124.0405,W,1,08,1.1,65.7,M,48.1,M,,0000*72
$GPGSA,M,3,07,09,02,06,30,05,23,16,,,,,2.4,1.1,2.1*31
$GPRMC,120353.000,A,4758.1031,N,00124.0405,W,0.00,339.61,291217,,,A*71
$GPGGA,120354.000,4758.1031,N,00124.0405,W,1,08,1.1,65.7,M,48.1,M,,0000*75
$GPGSA,M,3,07,09,02,06,30,05,23,16,,,,,2.4,1.1,2.1*31
$GPGSV,3,1,12,07,58,138,39,09,57,062,32,02,49,266,34,06,44,207,45*74
arfcn: 124 rxLev: -89
$GPGSV,3,2,12,30,39,174,44,05,29,299,40,23,23,068,33,16,11,044,18*78
$GPGSV,3,3,12,33,33,198,,04,37,297,,29,08,323,,26,02,018,*78
$GPRMC,120354.000,A,4758.1031,N,00124.0405,W,0.00,339.61,291217,,,A*76
$GPGGA,120355.000,4758.1031,N,00124.0405,W,1,08,1.1,65.7,M,48.1,M,,0000*74
$GPGSA,M,3,07,09,02,06,30,05,23,16,,,,,2.4,1.1,2.1*31
$GPRMC,120355.000,A,4758.1031,N,00124.0405,W,0.00,339.61,291217,,,A*77
$GPGGA,120356.000,4758.1031,N,00124.0405,W,1,08,1.1,65.7,M,48.1,M,,0000*77
$GPGSA,M,3,07,09,02,06,30,05,23,16,,,,,2.4,1.1,2.1*31
$GPRMC,120356.000,A,4758.1031,N,00124.0405,W,0.00,339.61,291217,,,A*74
$GPGGA,120357.000,4758.1031,N,00124.0405,W,1,08,1.1,65.7,M,48.1,M,,0000*76
$GPGSA,M,3,07,09,02,06,30,05,23,16,,,,,2.4,1.1,2.1*31
$GPRMC,120357.000,A,4758.1031,N,00124.0405,W,0.00,339.61,291217,,,A*75
$GPGGA,120358.000,4758.1031,N,00124.0405,W,1,08,1.1,65.7,M,48.1,M,,0000*79
$GPGSA,M,3,07,09,02,06,30,05,23,16,,,,,2.4,1.1,2.1*31
arfcn: 977 bsic: 33 rxLev: -94 ber: 2.09 mcc: 208 mnc: 20 lac: 413 cellId: 20368 cellStatus: CELL_SUITABLE numArfcn: 1 arfcn: 977 numChannels: 20 array: 880 884 975 976 979 980 982 983 984 985 986 987 1011 1013 1014 1015 1018 1019 1021 1022 pbcch: 0 nom: 2 rac: 1 spgc: 0 pat: 6 nco: 0 t3168: 1500 t3192: 500 drxmax: 0 ctrlAck: 0 bsCVmax: 8 alpha: 6 pcMeasCh: 1 
$GPRMC,120358.000,A,4758.1031,N,00124.0405,W,0.00,339.61,291217,,,A*7A
$GPGGA,120359.000,4758.1031,N,00124.0405,W,1,08,1.1,65.7,M,48.1,M,,0000*78
$GPGSA,M,3,07,09,02,06,30,05,23,16,,,,,2.4,1.1,2.1*31
$GPGSV,3,1,12,07,58,138,39,09,57,062,32,02,49,266,33,06,44,207,44*72
$GPGSV,3,2,12,30,39,174,44,05,29,299,40,23,23,068,33,16,11,044,18*78
$GPGSV,3,3,12,33,33,198,,04,37,297,,29,08,323,,26,02,018,*78
$GPRMC,120359.000,A,4758.1031,N,00124.0405,W,0.00,339.61,291217,,,A*7B
$GPGGA,120400.000,4758.1031,N,00124.0405,W,1,08,1.1,65.7,M,48.1,M,,0000*73
$GPGSA,M,3,07,09,02,06,30,05,23,16,,,,,2.4,1.1,2.1*31
$GPRMC,120400.000,A,4758.1031,N,00124.0405,W,0.00,339.61,291217,,,A*70
$GPGGA,120401.000,4758.1031,N,00124.0405,W,1,08,1.1,65.7,M,48.1,M,,0000*72
$GPGSA,M,3,07,09,02,06,30,05,23,16,,,,,2.4,1.1,2.1*31
$GPRMC,120401.000,A,4758.1031,N,00124.0405,W,0.00,339.61,291217,,,A*71
$GPGGA,120402.000,4758.1031,N,00124.0405,W,1,08,1.1,65.7,M,48.1,M,,0000*71
$GPGSA,M,3,07,09,02,06,30,05,23,16,,,,,2.4,1.1,2.1*31
arfcn: 1017 bsic: 9 rxLev: -94 ber: 0.00 mcc: 208 mnc: 20 lac: 284 cellId: 22570 cellStatus: CELL_SUITABLE numArfcn: 1 arfcn: 1017 numChannels: 20 array: 787 789 881 885 975 978 980 981 982 983 985 987 1011 1014 1015 1016 1018 1020 1021 1022 pbcch: 0 nom: 2 rac: 6 spgc: 0 pat: 6 nco: 0 t3168: 1500 t3192: 500 drxmax: 0 ctrlAck: 0 bsCVmax: 8 alpha: 6 pcMeasCh: 1 
arfcn: 1022 bsic: 45 rxLev: -94 ber: 0.00 mcc: 208 mnc: 20 lac: 284 cellId: 38538 cellStatus: CELL_SUITABLE numArfcn: 1 arfcn: 1022 numChannels: 23 array: 975 976 979 980 981 982 984 986 987 1011 1012 1013 1014 1015 1017 1018 1020 1021 1022 788 876 881 884 pbcch: 0 nom: 2 rac: 6 spgc: 0 pat: 6 nco: 0 t3168: 1500 t3192: 500 drxmax: 0 ctrlAck: 0 bsCVmax: 8 alpha: 6 pcMeasCh: 1 
arfcn: 123 rxLev: -94
$GPRMC,120402.000,A,4758.1031,N,00124.0405,W,0.00,339.61,291217,,,A*72
$GPGGA,120403.000,4758.1031,N,00124.0405,W,1,08,1.1,65.7,M,48.1,M,,0000*70
$GPGSA,M,3,07,09,02,06,30,05,23,16,,,,,2.4,1.1,2.1*31
$GPRMC,120403.000,A,4758.1031,N,00124.0405,W,0.00,339.61,291217,,,A*73
$GPGGA,120404.000,4758.1031,N,00124.0405,W,1,08,1.1,65.7,M,48.1,M,,0000*77
$GPGSA,M,3,07,09,02,06,30,05,23,16,,,,,2.4,1.1,2.1*31
$GPGSV,3,1,12,07,58,138,40,09,57,062,32,02,49,266,33,06,44,207,44*7C
$GPGSV,3,2,12,30,39,174,43,05,29,299,40,23,23,068,33,16,11,044,18*7F
$GPGSV,3,3,12,37,28,151,,04,37,297,,29,08,323,,26,02,018,*73
$GPRMC,120404.000,A,4758.1031,N,00124.0405,W,0.00,339.61,291217,,,A*74
$GPGGA,120405.000,4758.1031,N,00124.0405,W,1,08,1.1,65.7,M,48.1,M,,0000*76
$GPGSA,M,3,07,09,02,06,30,05,23,16,,,,,2.4,1.1,2.1*31
$GPRMC,120405.000,A,4758.1031,N,00124.0405,W,0.00,339.61,291217,,,A*75
$GPGGA,120406.000,4758.1031,N,00124.0405,W,1,08,1.1,65.7,M,48.1,M,,0000*75
$GPGSA,M,3,07,09,02,06,30,05,23,16,,,,,2.4,1.1,2.1*31
$GPRMC,120406.000,A,4758.1031,N,00124.0405,W,0.00,339.61,291217,,,A*76
$GPGGA,120407.000,4758.1031,N,00124.0405,W,1,08,1.1,65.7,M,48.1,M,,0000*74
$GPGSA,M,3,07,09,02,06,30,05,23,16,,,,,2.4,1.1,2.1*31
$GPRMC,120407.000,A,4758.1031,N,00124.0405,W,0.00,339.61,291217,,,A*77
$GPGGA,120408.000,4758.1031,N,00124.0405,W,1,08,1.1,65.7,M,48.1,M,,0000*7B
$GPGSA,M,3,07,09,02,06,30,05,23,16,,,,,2.4,1.1,2.1*31
$GPRMC,120408.000,A,4758.1031,N,00124.0405,W,0.00,339.61,291217,,,A*78
$GPGGA,120409.000,4758.1031,N,00124.0405,W,1,08,1.1,65.7,M,48.1,M,,0000*7A
arfcn: 975 bsic: 60 rxLev: -95 ber: 0.07 mcc: 208 mnc: 20 lac: 413 cellId: 20247 cellStatus: CELL_SUITABLE numArfcn: 1 arfcn: 975 numChannels: 20 array: 977 978 979 980 981 982 983 984 985 987 1011 1013 1014 1015 1017 1018 1019 1020 1021 1022 pbcch: 0 nom: 2 rac: 1 spgc: 0 pat: 6 nco: 0 t3168: 1500 t3192: 500 drxmax: 0 ctrlAck: 0 bsCVmax: 8 alpha: 6 pcMeasCh: 1 
arfcn: 96 rxLev: -95
$GPGSA,M,3,07,09,02,06,30,05,23,16,,,,,2.4,1.1,2.1*31
arfcn: 97 rxLev: -95
arfcn: 94 rxLev: -95
$GPGSV,3,1,12,07,58,138,40,09,57,062,32,02,49,266,33,06,44,207,44*7C
$GPGSV,3,2,12,30,39,174,43,05,29,299,40,23,23,068,33,16,11,044,18*7F
$GPGSV,3,3,12,37,28,151,,04,37,297,,29,08,323,,26,02,018,*73
$GPRMC,120409.000,A,4758.1031,N,00124.0405,W,0.00,339.61,291217,,,A*79
$GPGGA,120410.000,4758.1031,N,00124.0405,W,1,08,1.1,65.7,M,48.1,M,,0000*72
$GPGSA,M,3,07,09,02,06,30,05,23,16,,,,,2.4,1.1,2.1*31
$GPRMC,120410.000,A,4758.1031,N,00124.0405,W,0.00,339.61,291217,,,A*71
$GPGGA,120411.000,4758.1031,N,00124.0405,W,1,08,1.1,65.7,M,48.1,M,,0000*73
$GPGSA,M,3,07,09,02,06,30,05,23,16,,,,,2.4,1.1,2.1*31
$GPRMC,120411.000,A,4758.1031,N,00124.0405,W,0.00,339.61,291217,,,A*70
arfcn: 11 bsic: 30 rxLev: -95 ber: 0.00 mcc: 208 mnc: 01 lac: 10300 cellId: 12921 cellStatus: CELL_FORBIDDEN numArfcn: 13 arfcn: 11 17 18 19 20 21 22 23 24 25 47 48 49 numChannels: 13 array: 1 2 3 4 5 6 7 9 11 12 13 14 15 pbcch: 0 nom: 2 rac: 1 spgc: 1 pat: 6 nco: 0 t3168: 1000 t3192: 500 drxmax: 4 ctrlAck: 1 bsCVmax: 9 alpha: 7 pcMeasCh: 0 
arfcn: 92 rxLev: -95
arfcn: 93 rxLev: -95
arfcn: 67 rxLev: -95
arfcn: 79 rxLev: -95
arfcn: 98 rxLev: -95
arfcn: 99 rxLev: -95
arfcn: 101 rxLev: -95
arfcn: 100 rxLev: -96
$GPGGA,120412.000,4758.1031,N,00124.0405,W,1,08,1.1,65.7,M,48.1,M,,0000*70
arfcn: 102 rxLev: -96
$GPGSA,M,3,07,09,02,06,30,05,23,16,,,,,2.4,1.1,2.1*31
arfcn: 103 rxLev: -96
arfcn: 104 rxLev: -96
$GPRMC,120412.000,A,4758.1031,N,00124.0405,W,0.00,339.61,291217,,,A*73
arfcn: 105 rxLev: -96
arfcn: 66 rxLev: -96
arfcn: 95 rxLev: -96
arfcn: 91 rxLev: -96
arfcn: 63 rxLev: -96
$GPGGA,120413.000,4758.1031,N,00124.0405,W,1,08,1.1,65.7,M,48.1,M,,0000*71
$GPGSA,M,3,07,09,02,06,30,05,23,16,,,,,2.4,1.1,2.1*31
$GPRMC,120413.000,A,4758.1031,N,00124.0405,W,0.00,339.61,291217,,,A*72
$GPGGA,120414.000,4758.1031,N,00124.0405,W,1,08,1.1,65.7,M,48.1,M,,0000*76
$GPGSA,M,3,07,09,02,06,30,05,23,16,,,,,2.4,1.1,2.1*31
$GPGSV,3,1,12,07,59,137,39,09,56,062,33,02,49,266,33,06,44,207,44*7C
$GPGSV,3,2,12,30,39,174,42,05,30,299,40,23,23,068,34,16,11,044,19*70
$GPGSV,3,3,12,37,28,151,,04,37,297,,29,08,323,,26,02,018,*73
$GPRMC,120414.000,A,4758.1031,N,00124.0405,W,0.00,339.61,291217,,,A*75
$GPGGA,120415.000,4758.1031,N,00124.0405,W,1,08,1.1,65.7,M,48.1,M,,0000*77
$GPGSA,M,3,07,09,02,06,30,05,23,16,,,,,2.4,1.1,2.1*31
$GPRMC,120415.000,A,4758.1031,N,00124.0405,W,0.00,339.61,291217,,,A*74
arfcn: 987 bsic: 46 rxLev: -96 ber: 1.01 mcc: 208 mnc: 20 lac: 284 cellId: 22571 cellStatus: CELL_SUITABLE numArfcn: 2 arfcn: 987 1010 numChannels: 24 array: 787 789 792 794 881 885 975 976 977 978 980 981 982 983 987 1013 1014 1015 1016 1017 1018 1020 1021 1022 pbcch: 0 nom: 2 rac: 6 spgc: 0 pat: 6 nco: 0 t3168: 1500 t3192: 500 drxmax: 0 ctrlAck: 0 bsCVmax: 8 alpha: 6 pcMeasCh: 1 
arfcn: 68 rxLev: -97
arfcn: 73 rxLev: -97
arfcn: 106 rxLev: -97
arfcn: 107 rxLev: -97
arfcn: 108 rxLev: -97
arfcn: 82 rxLev: -97
arfcn: 8 rxLev: -97
arfcn: 13 rxLev: -98
$GPGGA,120416.000,4758.1031,N,00124.0405,W,1,08,1.1,65.7,M,48.1,M,,0000*74
$GPGSA,M,3,07,09,02,06,30,05,23,16,,,,,2.4,1.1,2.1*31
$GPRMC,120416.000,A,4758.1031,N,00124.0405,W,0.00,339.61,291217,,,A*77
$GPGGA,120417.000,4758.1031,N,00124.0405,W,1,08,1.1,65.7,M,48.1,M,,0000*75
$GPGSA,M,3,07,09,02,06,30,05,23,16,,,,,2.4,1.1,2.1*31
$GPRMC,120417.000,A,4758.1031,N,00124.0405,W,0.00,339.61,291217,,,A*76
$GPGGA,120418.000,4758.1031,N,00124.0405,W,1,08,1.1,65.7,M,48.1,M,,0000*7A
$GPGSA,M,3,07,09,02,06,30,05,23,16,,,,,2.4,1.1,2.1*31
$GPRMC,120418.000,A,4758.1031,N,00124.0405,W,0.00,339.61,291217,,,A*79
arfcn: 87 bsic: 34 rxLev: -98 ber: 8.06 mcc: 208 mnc: 10 lac: 30514 cellId: 20354 cellStatus: CELL_FORBIDDEN numArfcn: 2 arfcn: 84 87 numChannels: 15 array: 77 78 79 80 81 82 83 86 113 114 115 117 120 123 124 pbcch: 0 nom: 2 rac: 1 spgc: 0 pat: 6 nco: 0 t3168: 1500 t3192: 500 drxmax: 0 ctrlAck: 0 bsCVmax: 8 alpha: 6 pcMeasCh: 1 
arfcn: 90 rxLev: -98
$GPGGA,120419.000,4758.1031,N,00124.0405,W,1,08,1.1,65.7,M,48.1,M,,0000*7B
arfcn: 120 rxLev: -98
$GPGSA,M,3,07,09,02,06,30,05,23,16,,,,,2.4,1.1,2.1*31
arfcn: 115 rxLev: -98
arfcn: 609 rxLev: -98
$GPGSV,3,1,12,07,59,137,40,09,56,062,33,02,49,266,33,06,44,207,44*72
arfcn: 122 rxLev: -98
$GPGSV,3,2,12,30,39,174,42,05,30,299,40,23,23,068,34,16,11,044,19*70
arfcn: 109 rxLev: -98
arfcn: 111 rxLev: -98
$GPGSV,3,3,12,37,28,151,,04,37,297,,29,08,323,,26,02,018,*73
$GPRMC,120419.000,A,4758.1031,N,00124.0405,W,0.00,339.61,291217,,,A*78
$GPGGA,120420.000,4758.1031,N,00124.0405,W,1,08,1.1,65.7,M,48.1,M,,0000*71
$GPGSA,M,3,07,09,02,06,30,05,23,16,,,,,2.4,1.1,2.1*31
$GPRMC,120420.000,A,4758.1031,N,00124.0405,W,0.00,339.61,291217,,,A*72
$GPGGA,120421.000,4758.1031,N,00124.0405,W,1,08,1.1,65.7,M,48.1,M,,0000*70
$GPGSA,M,3,07,09,02,06,30,05,23,16,,,,,2.4,1.1,2.1*31
$GPRMC,120421.000,A,4758.1031,N,00124.0405,W,0.00,339.61,291217,,,A*73
arfcn: 81 bsic: 11 rxLev: -98 ber: 2.02 mcc: 208 mnc: 10 lac: 6001 cellId: 49645 cellStatus: CELL_FORBIDDEN numArfcn: 2 arfcn: 81 83 numChannels: 17 array: 77 78 79 80 82 83 85 86 87 113 114 115 117 118 120 122 124 pbcch: 0 nom: 2 rac: 61 spgc: 0 pat: 6 nco: 0 t3168: 1000 t3192: 500 drxmax: 2 ctrlAck: 0 bsCVmax: 9 alpha: 7 pcMeasCh: 1 
arfcn: 75 rxLev: -98
$GPGGA,120422.000,4758.1031,N,00124.0405,W,1,08,1.1,65.7,M,48.1,M,,0000*73
arfcn: 78 rxLev: -98
$GPGSA,M,3,07,09,02,06,30,05,23,16,,,,,2.4,1.1,2.1*31
arfcn: 76 rxLev: -98
arfcn: 72 rxLev: -99
$GPRMC,120422.000,A,4758.1031,N,00124.0405,W,0.00,339.61,291217,,,A*70
arfcn: 62 rxLev: -99
arfcn: 978 rxLev: -99
arfcn: 980 rxLev: -99
arfcn: 981 rxLev: -99
arfcn: 12 rxLev: -99
arfcn: 74 rxLev: -99
arfcn: 64 rxLev: -99
arfcn: 71 rxLev: -100
$GPGGA,120423.000,4758.1031,N,00124.0405,W,1,08,1.1,65.7,M,48.1,M,,0000*72
arfcn: 80 rxLev: -100
$GPGSA,M,3,07,09,02,06,30,05,23,16,,,,,2.4,1.1,2.1*31
arfcn: 121 rxLev: -100
arfcn: 976 rxLev: -100
$GPRMC,120423.000,A,4758.1031,N,00124.0405,W,0.00,339.61,291217,,,A*71
$GPGGA,120424.000,4758.1031,N,00124.0405,W,1,08,1.1,65.7,M,48.1,M,,0000*75
$GPGSA,M,3,07,09,02,06,30,05,23,16,,,,,2.4,1.1,2.1*31
$GPGSV,3,1,12,07,59,137,40,09,56,062,37,02,49,266,28,06,44,207,45*7D
$GPGSV,3,2,12,30,39,174,42,05,30,299,41,23,23,068,35,16,11,044,19*70
$GPGSV,3,3,12,37,28,151,,04,37,297,,29,08,323,,26,02,018,*73
$GPRMC,120424.000,A,4758.1031,N,00124.0405,W,0.00,339.61,291217,,,A*76
$GPGGA,120425.000,4758.1031,N,00124.0405,W,1,08,1.1,65.7,M,48.1,M,,0000*74
$GPGSA,M,3,07,09,02,06,30,05,23,16,,,,,2.4,1.1,2.1*31
$GPRMC,120425.000,A,4758.1031,N,00124.0405,W,0.00,339.61,291217,,,A*77
$GPGGA,120426.000,4758.1031,N,00124.0405,W,1,08,1.1,65.7,M,48.1,M,,0000*77
$GPGSA,M,3,07,09,02,06,30,05,23,16,,,,,2.4,1.1,2.1*31
$GPRMC,120426.000,A,4758.1031,N,00124.0405,W,0.00,339.61,291217,,,A*74
$GPGGA,120427.000,4758.1031,N,00124.0405,W,1,08,1.1,65.7,M,48.1,M,,0000*76
$GPGSA,M,3,07,09,02,06,30,05,23,16,,,,,2.4,1.1,2.1*31
$GPRMC,120427.000,A,4758.1031,N,00124.0405,W,0.00,339.61,291217,,,A*75
$GPGGA,120428.000,4758.1031,N,00124.0405,W,1,08,1.1,65.7,M,48.1,M,,0000*79
$GPGSA,M,3,07,09,02,06,30,05,23,16,,,,,2.4,1.1,2.1*31
$GPRMC,120428.000,A,4758.1031,N,00124.0405,W,0.00,339.61,291217,,,A*7A
$GPGGA,120429.000,4758.1031,N,00124.0405,W,1,08,1.1,65.7,M,48.1,M,,0000*78
$GPGSA,M,3,07,09,02,06,30,05,23,16,,,,,2.4,1.1,2.1*31
$GPGSV,3,1,12,07,59,137,40,09,56,062,37,02,49,266,29,06,44,207,44*7D
$GPGSV,3,2,12,30,39,174,42,05,30,299,42,23,23,068,36,16,11,044,22*78
$GPGSV,3,3,12,37,28,151,,04,37,297,,29,08,323,,26,02,018,*73
$GPRMC,120429.000,A,4758.1031,N,00124.0405,W,0.00,339.61,291217,,,A*7B
$GPGGA,120430.000,4758.1031,N,00124.0405,W,1,08,1.1,65.7,M,48.1,M,,0000*70
$GPGSA,M,3,07,09,02,06,30,05,23,16,,,,,2.4,1.1,2.1*31
$GPRMC,120430.000,A,4758.1031,N,00124.0405,W,0.00,339.61,291217,,,A*73
arfcn: 5 bsic: 43 rxLev: -100 ber: 1.08 mcc: 208 mnc: 01 lac: 10300 cellId: 57179 cellStatus: CELL_FORBIDDEN numArfcn: 13 arfcn: 5 17 18 19 20 21 22 23 24 25 47 48 49 numChannels: 14 array: 1 2 3 4 5 6 7 8 9 11 12 13 14 15 pbcch: 0 nom: 2 rac: 1 spgc: 1 pat: 6 nco: 0 t3168: 1000 t3192: 500 drxmax: 4 ctrlAck: 1 bsCVmax: 9 alpha: 7 pcMeasCh: 0 
arfcn: 60 rxLev: -100
arfcn: 729 rxLev: -100
arfcn: 849 rxLev: -100
arfcn: 982 rxLev: -100
arfcn: 61 rxLev: -100
arfcn: 59 rxLev: -100
arfcn: 89 rxLev: -100
$GPGGA,120431.000,4758.1031,N,00124.0405,W,1,08,1.1,65.7,M,48.1,M,,0000*71
arfcn: 65 rxLev: -100
$GPGSA,M,3,07,09,02,06,30,05,23,16,,,,,2.4,1.1,2.1*31
arfcn: 70 rxLev: -101
arfcn: 69 rxLev: -101
$GPRMC,120431.000,A,4758.1031,N,00124.0405,W,0.00,339.61,291217,,,A*72
arfcn: 77 rxLev: -101
arfcn: 110 rxLev: -101
arfcn: 58 rxLev: -101
arfcn: 7 rxLev: -101
arfcn: 18 rxLev: -101
arfcn: 979 rxLev: -101
arfcn: 983 rxLev: -101
$GPGGA,120432.000,4758.1031,N,00124.0405,W,1,08,1.1,65.7,M,48.1,M,,0000*72
arfcn: 118 rxLev: -101
$GPGSA,M,3,07,09,02,06,30,05,23,16,,,,,2.4,1.1,2.1*31
arfcn: 119 rxLev: -101
$GPRMC,120432.000,A,4758.1031,N,00124.0405,W,0.00,339.61,291217,,,A*71
arfcn: 6 rxLev: -102
arfcn: 14 rxLev: -102
arfcn: 48 rxLev: -102
arfcn: 55 rxLev: -102
arfcn: 15 rxLev: -102
arfcn: 4 rxLev: -102
arfcn: 83 rxLev: -102
arfcn: 86 rxLev: -102
arfcn: 993 rxLev: -102
$GPGGA,120433.000,4758.1031,N,00124.0405,W,1,08,1.1,65.7,M,48.1,M,,0000*73
arfcn: 994 rxLev: -102
$GPGSA,M,3,07,09,02,06,30,05,23,16,,,,,2.4,1.1,2.1*31
arfcn: 995 rxLev: -103
arfcn: 996 rxLev: -103
$GPRMC,120433.000,A,4758.1031,N,00124.0405,W,0.00,339.61,291217,,,A*70
arfcn: 997 rxLev: -103
arfcn: 985 rxLev: -103
$GPGGA,120434.000,4758.1031,N,00124.0405,W,1,08,1.1,65.7,M,48.1,M,,0000*74
$GPGSA,M,3,07,09,02,06,30,05,23,16,,,,,2.4,1.1,2.1*31
$GPGSV,3,1,12,07,59,137,40,09,56,062,38,02,49,266,35,06,44,207,44*7F
$GPGSV,3,2,12,30,39,174,43,05,30,299,40,23,23,068,35,16,11,044,21*7B
$GPGSV,3,3,12,39,31,144,,04,37,297,,29,08,323,,26,02,018,*71
