$GPGGA,095123.000,4758.1087,N,00124.0456,W,1,09,0.9,68.7,M,48.1,M,,0000*76
$GPGGA,095124.000,4758.1087,N,00124.0456,W,1,09,0.9,68.7,M,48.1,M,,0000*71
$GPGGA,095125.000,4758.1087,N,00124.0457,W,1,09,0.9,68.7,M,48.1,M,,0000*71
$GPGGA,095126.000,4758.1087,N,00124.0457,W,1,09,0.9,68.7,M,48.1,M,,0000*72
$GPGGA,095127.000,4758.1087,N,00124.0457,W,1,09,0.9,68.7,M,48.1,M,,0000*73
$GPGGA,095128.000,4758.1087,N,00124.0457,W,1,09,0.9,68.7,M,48.1,M,,0000*7C
$GPGGA,095129.000,4758.1087,N,00124.0457,W,1,09,0.9,68.7,M,48.1,M,,0000*7D
$GPGGA,095130.000,4758.1086,N,00124.0457,W,1,09,0.9,68.7,M,48.1,M,,0000*74
$GPGGA,095131.000,4758.1086,N,00124.0457,W,1,09,1.1,68.6,M,48.1,M,,0000*7D
$GPGGA,095132.000,4758.1086,N,00124.0457,W,1,10,0.9,68.6,M,48.1,M,,0000*7F
$GPGGA,095133.000,4758.1086,N,00124.0457,W,1,09,1.1,68.6,M,48.1,M,,0000*7F
$GPGGA,095134.000,4758.1086,N,00124.0457,W,1,09,1.1,68.6,M,48.1,M,,0000*78
$GPGGA,095135.000,4758.1086,N,00124.0457,W,1,09,1.1,68.6,M,48.1,M,,0000*79
$GPGGA,095136.000,4758.1086,N,00124.0457,W,1,09,1.1,68.6,M,48.1,M,,0000*7A
$GPGGA,095137.000,4758.1086,N,00124.0457,W,1,10,0.9,68.6,M,48.1,M,,0000*7A
$GPGGA,095138.000,4758.1085,N,00124.0457,W,1,10,0.9,68.6,M,48.1,M,,0000*76
$GPGGA,095139.000,4758.1085,N,00124.0457,W,1,10,0.9,68.6,M,48.1,M,,0000*77
$GPGGA,095140.000,4758.1085,N,00124.0457,W,1,10,0.9,68.6,M,48.1,M,,0000*79
$GPGGA,095141.000,4758.1085,N,00124.0457,W,1,10,0.9,68.6,M,48.1,M,,0000*78
$GPGGA,095142.000,4758.1085,N,00124.0457,W,1,10,0.9,68.6,M,48.1,M,,0000*7B
$GPGGA,095143.000,4758.1085,N,00124.0458,W,1,10,0.9,68.6,M,48.1,M,,0000*75
$GPGGA,095144.000,4758.1085,N,00124.0458,W,1,09,1.0,68.6,M,48.1,M,,0000*72
$GPGGA,095145.000,4758.1085,N,00124.0458,W,1,09,1.0,68.6,M,48.1,M,,0000*73
$GPGGA,095146.000,4758.1084,N,00124.0458,W,1,09,1.0,68.6,M,48.1,M,,0000*71
$GPGGA,095147.000,4758.1084,N,00124.0458,W,1,09,1.0,68.6,M,48.1,M,,0000*70
$GPGGA,095148.000,4758.1084,N,00124.0458,W,1,09,1.0,68.6,M,48.1,M,,0000*7F
$GPGGA,095149.000,4758.1084,N,00124.0458,W,1,09,1.0,68.6,M,48.1,M,,0000*7E
$GPGGA,095150.000,4758.1084,N,00124.0458,W,1,09,1.0,68.6,M,48.1,M,,0000*76
$GPGGA,095151.000,4758.1084,N,00124.0458,W,1,09,1.0,68.5,M,48.1,M,,0000*74
$GPGGA,095152.000,4758.1084,N,00124.0458,W,1,09,1.0,68.5,M,48.1,M,,0000*77
$GPGGA,095153.000,4758.1084,N,00124.0458,W,1,09,1.0,68.5,M,48.1,M,,0000*76
$GPGGA,095154.000,4758.1076,N,00124.0458,W,1,10,0.9,68.6,M,48.1,M,,0000*7F
$GPGGA,095155.000,4758.1073,N,00124.0456,W,1,09,1.1,68.8,M,48.1,M,,0000*7A
$GPGGA,095156.000,4758.1072,N,00124.0455,W,1,09,1.1,68.8,M,48.1,M,,0000*7B
$GPGGA,095157.000,4758.1073,N,00124.0454,W,1,09,1.1,68.9,M,48.1,M,,0000*7B
$GPGGA,095158.000,4758.1072,N,00124.0451,W,1,09,1.1,69.0,M,48.1,M,,0000*78
$GPGGA,095159.000,4758.1064,N,00124.0445,W,1,09,1.1,68.9,M,48.1,M,,0000*73
$GPGGA,095200.000,4758.1063,N,00124.0440,W,1,09,1.1,69.0,M,48.1,M,,0000*76
$GPGGA,095201.000,4758.1056,N,00124.0437,W,1,09,1.1,69.2,M,48.1,M,,0000*73
$GPGGA,095202.000,4758.1050,N,00124.0436,W,1,09,1.1,69.4,M,48.1,M,,0000*71
$GPGGA,095203.000,4758.1047,N,00124.0434,W,1,09,1.1,69.5,M,48.1,M,,0000*75
$GPGGA,095204.000,4758.1046,N,00124.0430,W,1,09,1.1,69.6,M,48.1,M,,0000*74
$GPGGA,095205.000,4758.1046,N,00124.0431,W,1,09,1.1,69.5,M,48.1,M,,0000*77
$GPGGA,095206.000,4758.1046,N,00124.0431,W,1,09,1.1,69.5,M,48.1,M,,0000*74
$GPGGA,095207.000,4758.1046,N,00124.0431,W,1,09,1.1,69.5,M,48.1,M,,0000*75
$GPGGA,095208.000,4758.1045,N,00124.0430,W,1,09,1.1,69.3,M,48.1,M,,0000*7E
$GPGGA,095209.000,4758.1043,N,00124.0430,W,1,09,1.1,69.1,M,48.1,M,,0000*7B
$GPGGA,095210.000,4758.1042,N,00124.0428,W,1,09,1.1,68.9,M,48.1,M,,0000*72
$GPGGA,095211.000,4758.1043,N,00124.0427,W,1,10,0.9,68.8,M,48.1,M,,0000*7D
$GPGGA,095212.000,4758.1047,N,00124.0425,W,1,10,0.9,68.4,M,48.1,M,,0000*74
$GPGGA,095213.000,4758.1047,N,00124.0425,W,1,10,0.9,68.4,M,48.1,M,,0000*75
$GPGGA,095214.000,4758.1047,N,00124.0424,W,1,10,0.9,68.2,M,48.1,M,,0000*75
$GPGGA,095215.000,4758.1048,N,00124.0423,W,1,10,0.9,68.1,M,48.1,M,,0000*7F
$GPGGA,095216.000,4758.1047,N,00124.0424,W,1,10,0.9,68.0,M,48.1,M,,0000*75
$GPGGA,095217.000,4758.1047,N,00124.0424,W,1,10,0.9,68.0,M,48.1,M,,0000*74
$GPGGA,095218.000,4758.1048,N,00124.0423,W,1,10,0.9,68.0,M,48.1,M,,0000*73
$GPGGA,095219.000,4758.1048,N,00124.0425,W,1,10,0.9,68.0,M,48.1,M,,0000*74
$GPGGA,095220.000,4758.1049,N,00124.0425,W,1,10,0.9,67.8,M,48.1,M,,0000*78
$GPGGA,095221.000,4758.1049,N,00124.0427,W,1,10,0.9,67.7,M,48.1,M,,0000*74
$GPGGA,095222.000,4758.1050,N,00124.0430,W,1,10,0.9,67.6,M,48.1,M,,0000*78
$GPGGA,095223.000,4758.1051,N,00124.0431,W,1,10,0.9,67.5,M,48.1,M,,0000*7A
$GPGGA,095224.000,4758.1051,N,00124.0431,W,1,10,0.9,67.6,M,48.1,M,,0000*7E
$GPGGA,095225.000,4758.1051,N,00124.0431,W,1,10,0.9,67.6,M,48.1,M,,0000*7F
$GPGGA,095226.000,4758.1051,N,00124.0431,W,1,10,0.9,67.6,M,48.1,M,,0000*7C
$GPGGA,095227.000,4758.1050,N,00124.0430,W,1,10,0.9,67.7,M,48.1,M,,0000*7C
$GPGGA,095228.000,4758.1050,N,00124.0430,W,1,10,0.9,67.7,M,48.1,M,,0000*73
$GPGGA,095229.000,4758.1050,N,00124.0430,W,1,10,0.9,67.7,M,48.1,M,,0000*72
$GPGGA,095230.000,4758.1050,N,00124.0431,W,1,10,0.9,67.4,M,48.1,M,,0000*78
$GPGGA,095231.000,4758.1050,N,00124.0432,W,1,10,0.9,67.2,M,48.1,M,,0000*7C
$GPGGA,095232.000,4758.1049,N,00124.0433,W,1,10,0.9,67.2,M,48.1,M,,0000*76
$GPGGA,095233.000,4758.1049,N,00124.0432,W,1,10,0.9,67.1,M,48.1,M,,0000*75
$GPGGA,095234.000,4758.1049,N,00124.0431,W,1,10,0.9,66.9,M,48.1,M,,0000*78
$GPGGA,095235.000,4758.1050,N,00124.0429,W,1,10,0.9,66.8,M,48.1,M,,0000*79
$GPGGA,095236.000,4758.1051,N,00124.0428,W,1,10,0.9,66.6,M,48.1,M,,0000*74
$GPGGA,095237.000,4758.1050,N,00124.0430,W,1,10,0.9,66.6,M,48.1,M,,0000*7D
$GPGGA,095238.000,4758.1048,N,00124.0430,W,1,10,0.9,66.8,M,48.1,M,,0000*75
$GPGGA,095239.000,4758.1047,N,00124.0430,W,1,10,0.9,66.9,M,48.1,M,,0000*7A
$GPGGA,095240.000,4758.1048,N,00124.0428,W,1,10,0.9,66.9,M,48.1,M,,0000*72
$GPGGA,095241.000,4758.1047,N,00124.0428,W,1,10,0.9,66.9,M,48.1,M,,0000*7C
$GPGGA,095242.000,4758.1046,N,00124.0429,W,1,10,0.9,67.0,M,48.1,M,,0000*77
$GPGGA,095243.000,4758.1045,N,00124.0430,W,1,10,0.9,67.0,M,48.1,M,,0000*7D
$GPGGA,095244.000,4758.1046,N,00124.0429,W,1,10,0.9,66.9,M,48.1,M,,0000*79
$GPGGA,095245.000,4758.1046,N,00124.0428,W,1,10,0.9,66.9,M,48.1,M,,0000*79
$GPGGA,095246.000,4758.1047,N,00124.0428,W,1,10,0.9,66.9,M,48.1,M,,0000*7B
$GPGGA,095247.000,4758.1047,N,00124.0426,W,1,10,0.9,66.9,M,48.1,M,,0000*74
$GPGGA,095248.000,4758.1047,N,00124.0423,W,1,10,0.9,67.0,M,48.1,M,,0000*76
$GPGGA,095249.000,4758.1047,N,00124.0421,W,1,10,0.9,67.1,M,48.1,M,,0000*74
$GPGGA,095250.000,4758.1048,N,00124.0419,W,1,10,0.9,67.1,M,48.1,M,,0000*78
$GPGGA,095251.000,4758.1048,N,00124.0415,W,1,10,0.9,67.2,M,48.1,M,,0000*76
$GPGGA,095252.000,4758.1049,N,00124.0409,W,1,10,0.9,67.4,M,48.1,M,,0000*7F
$GPGGA,095253.000,4758.1049,N,00124.0403,W,1,10,0.9,67.5,M,48.1,M,,0000*75
$GPGGA,095254.000,4758.1049,N,00124.0395,W,1,10,0.9,67.8,M,48.1,M,,0000*77
$GPGGA,095255.000,4758.1050,N,00124.0388,W,1,10,0.9,67.9,M,48.1,M,,0000*73
$GPGGA,095256.000,4758.1050,N,00124.0384,W,1,10,0.9,68.1,M,48.1,M,,0000*7B
$GPGGA,095257.000,4758.1050,N,00124.0384,W,1,10,0.9,68.0,M,48.1,M,,0000*7B
$GPGGA,095258.000,4758.1049,N,00124.0383,W,1,10,0.9,68.1,M,48.1,M,,0000*7A
$GPGGA,095259.000,4758.1049,N,00124.0383,W,1,10,0.9,68.1,M,48.1,M,,0000*7B
$GPGGA,095300.000,4758.1048,N,00124.0383,W,1,10,0.9,68.2,M,48.1,M,,0000*74
$GPGGA,095301.000,4758.1049,N,00124.0382,W,1,09,0.9,68.1,M,48.1,M,,0000*7E
$GPGGA,095302.000,4758.1049,N,00124.0382,W,1,09,0.9,68.1,M,48.1,M,,0000*7D
$GPGGA,095303.000,4758.1048,N,00124.0381,W,1,10,0.9,68.0,M,48.1,M,,0000*77
$GPGGA,095304.000,4758.1046,N,00124.0391,W,1,10,0.9,67.2,M,48.1,M,,0000*72
$GPGGA,095305.000,4758.1048,N,00124.0419,W,1,10,0.9,65.6,M,48.1,M,,0000*7C
$GPGGA,095306.000,4758.1044,N,00124.0423,W,1,10,0.9,65.4,M,48.1,M,,0000*78
$GPGGA,095307.000,4758.1040,N,00124.0426,W,1,10,0.9,65.0,M,48.1,M,,0000*7C
$GPGGA,095308.000,4758.1034,N,00124.0421,W,1,10,0.9,65.0,M,48.1,M,,0000*77
$GPGGA,095309.000,4758.1032,N,00124.0411,W,1,10,0.9,65.0,M,48.1,M,,0000*73
$GPGGA,095310.000,4758.1035,N,00124.0402,W,1,10,0.9,64.9,M,48.1,M,,0000*76
$GPGGA,095311.000,4758.1036,N,00124.0394,W,1,10,0.9,64.9,M,48.1,M,,0000*7C
$GPGGA,095312.000,4758.1035,N,00124.0389,W,1,10,0.9,64.9,M,48.1,M,,0000*70
$GPGGA,095313.000,4758.1035,N,00124.0387,W,1,10,0.9,64.8,M,48.1,M,,0000*7E
$GPGGA,095314.000,4758.1035,N,00124.0386,W,1,11,0.8,64.8,M,48.1,M,,0000*78
$GPGGA,095315.000,4758.1035,N,00124.0387,W,1,11,0.8,64.9,M,48.1,M,,0000*79
$GPGGA,095316.000,4758.1038,N,00124.0392,W,1,11,0.8,64.6,M,48.1,M,,0000*7C
$GPGGA,095317.000,4758.1040,N,00124.0394,W,1,11,0.8,64.3,M,48.1,M,,0000*71
$GPGGA,095318.000,4758.1043,N,00124.0396,W,1,11,0.8,64.1,M,48.1,M,,0000*7D
$GPGGA,095319.000,4758.1044,N,00124.0399,W,1,11,0.8,63.9,M,48.1,M,,0000*7B
$GPGGA,095320.000,4758.1044,N,00124.0399,W,1,11,0.8,63.9,M,48.1,M,,0000*71
$GPGGA,095321.000,4758.1041,N,00124.0400,W,1,11,0.8,63.9,M,48.1,M,,0000*72
$GPGGA,095322.000,4758.1039,N,00124.0402,W,1,11,0.8,64.0,M,48.1,M,,0000*72
$GPGGA,095323.000,4758.1037,N,00124.0402,W,1,11,0.8,64.1,M,48.1,M,,0000*7C
$GPGGA,095324.000,4758.1037,N,00124.0402,W,1,11,0.8,64.2,M,48.1,M,,0000*78
$GPGGA,095325.000,4758.1037,N,00124.0402,W,1,11,0.8,64.2,M,48.1,M,,0000*79
$GPGGA,095326.000,4758.1036,N,00124.0402,W,1,11,0.8,64.3,M,48.1,M,,0000*7A
$GPGGA,095327.000,4758.1036,N,00124.0402,W,1,11,0.8,64.3,M,48.1,M,,0000*7B
$GPGGA,095328.000,4758.1036,N,00124.0402,W,1,11,0.8,64.3,M,48.1,M,,0000*74
$GPGGA,095329.000,4758.1036,N,00124.0402,W,1,11,0.8,64.3,M,48.1,M,,0000*75
$GPGGA,095330.000,4758.1036,N,00124.0402,W,1,11,0.8,64.3,M,48.1,M,,0000*7D
$GPGGA,095331.000,4758.1036,N,00124.0402,W,1,11,0.8,64.3,M,48.1,M,,0000*7C
$GPGGA,095332.000,4758.1036,N,00124.0402,W,1,11,0.8,64.3,M,48.1,M,,0000*7F
$GPGGA,095333.000,4758.1036,N,00124.0402,W,1,11,0.8,64.3,M,48.1,M,,0000*7E
$GPGGA,095334.000,4758.1036,N,00124.0402,W,1,11,0.8,64.3,M,48.1,M,,0000*79
$GPGGA,095335.000,4758.1036,N,00124.0402,W,1,11,0.8,64.3,M,48.1,M,,0000*78
$GPGGA,095336.000,4758.1036,N,00124.0402,W,1,11,0.8,64.3,M,48.1,M,,0000*7B
$GPGGA,095337.000,4758.1036,N,00124.0402,W,1,11,0.8,64.3,M,48.1,M,,0000*7A
$GPGGA,095338.000,4758.1036,N,00124.0402,W,1,11,0.8,64.3,M,48.1,M,,0000*75
$GPGGA,095339.000,4758.1036,N,00124.0401,W,1,11,0.8,64.3,M,48.1,M,,0000*77
$GPGGA,095340.000,4758.1036,N,00124.0401,W,1,11,0.8,64.3,M,48.1,M,,0000*79
$GPGGA,095341.000,4758.1036,N,00124.0401,W,1,11,0.8,64.3,M,48.1,M,,0000*78
$GPGGA,095342.000,4758.1035,N,00124.0401,W,1,11,0.8,64.3,M,48.1,M,,0000*78
$GPGGA,095343.000,4758.1035,N,00124.0401,W,1,11,0.8,64.3,M,48.1,M,,0000*79
$GPGGA,095344.000,4758.1035,N,00124.0401,W,1,11,0.8,64.3,M,48.1,M,,0000*7E
$GPGGA,095345.000,4758.1035,N,00124.0401,W,1,10,0.9,64.3,M,48.1,M,,0000*7F
$GPGGA,095346.000,4758.1035,N,00124.0401,W,1,10,0.9,64.3,M,48.1,M,,0000*7C
$GPGGA,095347.000,4758.1035,N,00124.0401,W,1,09,1.0,64.3,M,48.1,M,,0000*7D
$GPGGA,095348.000,4758.1035,N,00124.0401,W,1,09,1.0,64.3,M,48.1,M,,0000*72
$GPGGA,095349.000,4758.1035,N,00124.0401,W,1,09,1.0,64.3,M,48.1,M,,0000*73
$GPGGA,095350.000,4758.1035,N,00124.0401,W,1,09,1.0,64.3,M,48.1,M,,0000*7B
$GPGGA,095351.000,4758.1035,N,00124.0401,W,1,09,1.0,64.3,M,48.1,M,,0000*7A
$GPGGA,095352.000,4758.1035,N,00124.0401,W,1,09,1.0,64.3,M,48.1,M,,0000*79
$GPGGA,095353.000,4758.1035,N,00124.0401,W,1,09,1.0,64.3,M,48.1,M,,0000*78
$GPGGA,095354.000,4758.1035,N,00124.0401,W,1,09,1.0,64.3,M,48.1,M,,0000*7F
$GPGGA,095355.000,4758.1035,N,00124.0401,W,1,09,1.0,64.3,M,48.1,M,,0000*7E
$GPGGA,095356.000,4758.1035,N,00124.0401,W,1,09,1.0,64.3,M,48.1,M,,0000*7D
$GPGGA,095357.000,4758.1035,N,00124.0401,W,1,09,1.0,64.3,M,48.1,M,,0000*7C
$GPGGA,095358.000,4758.1035,N,00124.0401,W,1,09,1.0,64.3,M,48.1,M,,0000*73
$GPGGA,095359.000,4758.1035,N,00124.0401,W,1,09,1.0,64.3,M,48.1,M,,0000*72
$GPGGA,095400.000,4758.1035,N,00124.0401,W,1,09,1.0,64.3,M,48.1,M,,0000*79
$GPGGA,095401.000,4758.1035,N,00124.0401,W,1,09,1.0,64.3,M,48.1,M,,0000*78
$GPGGA,095402.000,4758.1035,N,00124.0401,W,1,09,1.0,64.3,M,48.1,M,,0000*7B
$GPGGA,095403.000,4758.1035,N,00124.0401,W,1,09,1.0,64.3,M,48.1,M,,0000*7A
$GPGGA,095404.000,4758.1035,N,00124.0401,W,1,09,1.0,64.3,M,48.1,M,,0000*7D
$GPGGA,095405.000,4758.1035,N,00124.0401,W,1,09,1.0,64.3,M,48.1,M,,0000*7C
$GPGGA,095406.000,4758.1035,N,00124.0401,W,1,09,1.0,64.3,M,48.1,M,,0000*7F
$GPGGA,095407.000,4758.1035,N,00124.0401,W,1,09,1.0,64.3,M,48.1,M,,0000*7E
$GPGGA,095408.000,4758.1035,N,00124.0401,W,1,09,1.0,64.3,M,48.1,M,,0000*71
$GPGGA,095409.000,4758.1035,N,00124.0401,W,1,09,1.0,64.3,M,48.1,M,,0000*70
$GPGGA,095410.000,4758.1035,N,00124.0401,W,1,09,1.0,64.3,M,48.1,M,,0000*78
$GPGGA,095411.000,4758.1035,N,00124.0401,W,1,09,1.0,64.3,M,48.1,M,,0000*79
$GPGGA,095412.000,4758.1035,N,00124.0401,W,1,09,1.0,64.3,M,48.1,M,,0000*7A
$GPGGA,095413.000,4758.1035,N,00124.0401,W,1,09,1.0,64.3,M,48.1,M,,0000*7B
$GPGGA,095414.000,4758.1035,N,00124.0401,W,1,09,1.0,64.3,M,48.1,M,,0000*7C
$GPGGA,095415.000,4758.1035,N,00124.0401,W,1,09,1.0,64.3,M,48.1,M,,0000*7D
$GPGGA,095416.000,4758.1035,N,00124.0401,W,1,09,1.0,64.3,M,48.1,M,,0000*7E
$GPGGA,095417.000,4758.1035,N,00124.0401,W,1,09,1.0,64.3,M,48.1,M,,0000*7F
$GPGGA,095418.000,4758.1035,N,00124.0401,W,1,09,1.0,64.3,M,48.1,M,,0000*70
$GPGGA,095419.000,4758.1035,N,00124.0401,W,1,10,0.9,64.3,M,48.1,M,,0000*71
$GPGGA,095420.000,4758.1035,N,00124.0401,W,1,10,0.9,64.3,M,48.1,M,,0000*7B
$GPGGA,095421.000,4758.1035,N,00124.0401,W,1,10,0.9,64.3,M,48.1,M,,0000*7A
$GPGGA,095422.000,4758.1035,N,00124.0401,W,1,10,0.9,64.3,M,48.1,M,,0000*79
$GPGGA,095423.000,4758.1035,N,00124.0401,W,1,10,0.9,64.3,M,48.1,M,,0000*78
$GPGGA,095424.000,4758.1035,N,00124.0401,W,1,10,0.9,64.3,M,48.1,M,,0000*7F
$GPGGA,095425.000,4758.1035,N,00124.0401,W,1,10,0.9,64.3,M,48.1,M,,0000*7E
$GPGGA,095426.000,4758.1035,N,00124.0401,W,1,10,0.9,64.3,M,48.1,M,,0000*7D
$GPGGA,095427.000,4758.1035,N,00124.0401,W,1,10,0.9,64.3,M,48.1,M,,0000*7C
$GPGGA,095428.000,4758.1035,N,00124.0401,W,1,10,0.9,64.3,M,48.1,M,,0000*73
$GPGGA,095429.000,4758.1035,N,00124.0401,W,1,10,0.9,64.3,M,48.1,M,,0000*72
$GPGGA,095430.000,4758.1035,N,00124.0401,W,1,10,0.9,64.3,M,48.1,M,,0000*7A
$GPGGA,095431.000,4758.1035,N,00124.0401,W,1,10,0.9,64.3,M,48.1,M,,0000*7B
$GPGGA,095432.000,4758.1035,N,00124.0401,W,1,10,0.9,64.3,M,48.1,M,,0000*78
$GPGGA,095433.000,4758.1035,N,00124.0401,W,1,10,0.9,64.3,M,48.1,M,,0000*79
$GPGGA,095434.000,4758.1035,N,00124.0401,W,1,10,0.9,64.3,M,48.1,M,,0000*7E
$GPGGA,095435.000,4758.1035,N,00124.0401,W,1,10,0.9,64.3,M,48.1,M,,0000*7F
$GPGGA,095436.000,4758.1035,N,00124.0401,W,1,10,0.9,64.3,M,48.1,M,,0000*7C
$GPGGA,095437.000,4758.1035,N,00124.0401,W,1,10,0.9,64.3,M,48.1,M,,0000*7D
$GPGGA,095438.000,4758.1035,N,00124.0401,W,1,10,0.9,64.3,M,48.1,M,,0000*72
$GPGGA,095439.000,4758.1035,N,00124.0401,W,1,10,0.9,64.3,M,48.1,M,,0000*73
$GPGGA,095440.000,4758.1035,N,00124.0401,W,1,10,0.9,64.3,M,48.1,M,,0000*7D
$GPGGA,095441.000,4758.1035,N,00124.0401,W,1,10,0.9,64.3,M,48.1,M,,0000*7C
$GPGGA,095442.000,4758.1035,N,00124.0401,W,1,10,0.9,64.3,M,48.1,M,,0000*7F
$GPGGA,095443.000,4758.1035,N,00124.0401,W,1,10,0.9,64.3,M,48.1,M,,0000*7E
$GPGGA,095444.000,4758.1035,N,00124.0401,W,1,10,0.9,64.3,M,48.1,M,,0000*79
$GPGGA,095445.000,4758.1035,N,00124.0401,W,1,10,0.9,64.3,M,48.1,M,,0000*78
$GPGGA,095446.000,4758.1035,N,00124.0401,W,1,10,0.9,64.3,M,48.1,M,,0000*7B
$GPGGA,095447.000,4758.1035,N,00124.0401,W,1,10,0.9,64.3,M,48.1,M,,0000*7A
$GPGGA,095448.000,4758.1035,N,00124.0401,W,1,10,0.9,64.3,M,48.1,M,,0000*75
$GPGGA,095449.000,4758.1035,N,00124.0401,W,1,10,0.9,64.3,M,48.1,M,,0000*74
$GPGGA,095450.000,4758.1035,N,00124.0401,W,1,10,0.9,64.3,M,48.1,M,,0000*7C
$GPGGA,095451.000,4758.1035,N,00124.0401,W,1,10,0.9,64.3,M,48.1,M,,0000*7D
$GPGGA,095452.000,4758.1035,N,00124.0401,W,1,10,0.9,64.3,M,48.1,M,,0000*7E
$GPGGA,095453.000,4758.1035,N,00124.0401,W,1,10,0.9,64.3,M,48.1,M,,0000*7F
$GPGGA,095454.000,4758.1035,N,00124.0401,W,1,10,0.9,64.3,M,48.1,M,,0000*78
$GPGGA,095455.000,4758.1035,N,00124.0401,W,1,10,0.9,64.3,M,48.1,M,,0000*79
$GPGGA,095456.000,4758.1036,N,00124.0401,W,1,10,0.9,64.3,M,48.1,M,,0000*79
$GPGGA,095457.000,4758.1036,N,00124.0401,W,1,10,0.9,64.3,M,48.1,M,,0000*78
$GPGGA,095458.000,4758.1035,N,00124.0401,W,1,10,0.9,64.3,M,48.1,M,,0000*74
$GPGGA,095459.000,4758.1034,N,00124.0399,W,1,10,0.9,64.4,M,48.1,M,,0000*75
$GPGGA,095500.000,4758.1033,N,00124.0394,W,1,10,0.9,64.5,M,48.1,M,,0000*73
$GPGGA,095501.000,4758.1032,N,00124.0385,W,1,10,0.9,64.6,M,48.1,M,,0000*70
$GPGGA,095502.000,4758.1031,N,00124.0377,W,1,10,0.9,64.5,M,48.1,M,,0000*7E
$GPGGA,095503.000,4758.1029,N,00124.0371,W,1,10,0.9,64.3,M,48.1,M,,0000*76
$GPGGA,095504.000,4758.1029,N,00124.0371,W,1,10,0.9,64.3,M,48.1,M,,0000*71
$GPGGA,095505.000,4758.1032,N,00124.0375,W,1,10,0.9,64.2,M,48.1,M,,0000*7F
$GPGGA,095506.000,4758.1039,N,00124.0379,W,1,10,0.9,64.1,M,48.1,M,,0000*78
$GPGGA,095507.000,4758.1052,N,00124.0380,W,1,10,0.9,63.9,M,48.1,M,,0000*7D
$GPGGA,095508.000,4758.1067,N,00124.0372,W,1,10,0.9,63.6,M,48.1,M,,0000*76
$GPGGA,095509.000,4758.1080,N,00124.0354,W,1,10,0.9,63.5,M,48.1,M,,0000*79
$GPGGA,095510.000,4758.1091,N,00124.0335,W,1,11,0.8,63.4,M,48.1,M,,0000*77
$GPGGA,095511.000,4758.1099,N,00124.0322,W,1,11,0.8,63.3,M,48.1,M,,0000*7F
$GPGGA,095512.000,4758.1107,N,00124.0311,W,1,11,0.8,63.1,M,48.1,M,,0000*78
$GPGGA,095513.000,4758.1121,N,00124.0295,W,1,11,0.8,63.0,M,48.1,M,,0000*71
$GPGGA,095514.000,4758.1146,N,00124.0280,W,1,11,0.8,62.8,M,48.1,M,,0000*7A
$GPGGA,095515.000,4758.1172,N,00124.0265,W,1,11,0.8,62.7,M,48.1,M,,0000*78
$GPGGA,095516.000,4758.1208,N,00124.0255,W,1,11,0.8,62.3,M,48.1,M,,0000*72
$GPGGA,095517.000,4758.1253,N,00124.0251,W,1,10,0.9,62.1,M,48.1,M,,0000*7B
$GPGGA,095518.000,4758.1302,N,00124.0249,W,1,11,0.8,61.9,M,48.1,M,,0000*73
$GPGGA,095519.000,4758.1355,N,00124.0247,W,1,11,0.8,61.9,M,48.1,M,,0000*7E
$GPGGA,095520.000,4758.1408,N,00124.0246,W,1,11,0.8,61.9,M,48.1,M,,0000*7A
$GPGGA,095521.000,4758.1462,N,00124.0245,W,1,11,0.8,61.9,M,48.1,M,,0000*74
$GPGGA,095522.000,4758.1512,N,00124.0240,W,1,10,0.9,61.9,M,48.1,M,,0000*74
$GPGGA,095523.000,4758.1561,N,00124.0237,W,1,10,0.9,62.2,M,48.1,M,,0000*79
$GPGGA,095524.000,4758.1602,N,00124.0233,W,1,10,0.9,62.5,M,48.1,M,,0000*7B
$GPGGA,095525.000,4758.1631,N,00124.0231,W,1,11,0.8,62.6,M,48.1,M,,0000*7B
$GPGGA,095526.000,4758.1643,N,00124.0230,W,1,11,0.8,62.9,M,48.1,M,,0000*73
$GPGGA,095527.000,4758.1653,N,00124.0231,W,1,11,0.8,62.8,M,48.1,M,,0000*73
$GPGGA,095528.000,4758.1665,N,00124.0236,W,1,11,0.8,63.2,M,48.1,M,,0000*75
$GPGGA,095529.000,4758.1683,N,00124.0256,W,1,11,0.8,62.9,M,48.1,M,,0000*70
$GPGGA,095530.000,4758.1700,N,00124.0293,W,1,11,0.8,63.5,M,48.1,M,,0000*76
$GPGGA,095531.000,4758.1712,N,00124.0340,W,1,10,0.9,63.7,M,48.1,M,,0000*79
$GPGGA,095532.000,4758.1724,N,00124.0390,W,1,10,0.9,64.0,M,48.1,M,,0000*72
$GPGGA,095533.000,4758.1736,N,00124.0437,W,1,10,0.9,64.2,M,48.1,M,,0000*78
$GPGGA,095534.000,4758.1747,N,00124.0480,W,1,10,0.9,64.4,M,48.1,M,,0000*73
$GPGGA,095535.000,4758.1759,N,00124.0523,W,1,10,0.9,64.8,M,48.1,M,,0000*79
$GPGGA,095536.000,4758.1772,N,00124.0574,W,1,10,0.9,65.3,M,48.1,M,,0000*7B
$GPGGA,095537.000,4758.1786,N,00124.0630,W,1,10,0.9,65.7,M,48.1,M,,0000*76
$GPGGA,095538.000,4758.1802,N,00124.0690,W,1,10,0.9,66.0,M,48.1,M,,0000*74
$GPGGA,095539.000,4758.1823,N,00124.0752,W,1,10,0.9,66.3,M,48.1,M,,0000*7A
$GPGGA,095540.000,4758.1847,N,00124.0812,W,1,10,0.9,66.1,M,48.1,M,,0000*7F
$GPGGA,095541.000,4758.1876,N,00124.0870,W,1,10,0.9,65.7,M,48.1,M,,0000*7D
$GPGGA,095542.000,4758.1910,N,00124.0920,W,1,09,0.9,65.9,M,48.1,M,,0000*7D
$GPGGA,095543.000,4758.1954,N,00124.0966,W,1,08,1.1,66.5,M,48.1,M,,0000*79
$GPGGA,095544.000,4758.2005,N,00124.1009,W,1,07,1.3,66.5,M,48.1,M,,0000*7C
$GPGGA,095545.000,4758.2061,N,00124.1049,W,1,09,1.0,66.5,M,48.1,M,,0000*76
$GPGGA,095546.000,4758.2120,N,00124.1087,W,1,09,1.0,66.5,M,48.1,M,,0000*73
$GPGGA,095547.000,4758.2184,N,00124.1119,W,1,09,1.0,66.9,M,48.1,M,,0000*76
$GPGGA,095548.000,4758.2253,N,00124.1150,W,1,09,1.0,67.6,M,48.1,M,,0000*73
$GPGGA,095549.000,4758.2323,N,00124.1180,W,1,10,0.9,67.8,M,48.1,M,,0000*77
$GPGGA,095550.000,4758.2395,N,00124.1206,W,1,10,0.9,68.3,M,48.1,M,,0000*7B
$GPGGA,095551.000,4758.2470,N,00124.1227,W,1,10,0.9,68.5,M,48.1,M,,0000*73
$GPGGA,095552.000,4758.2547,N,00124.1245,W,1,10,0.9,68.2,M,48.1,M,,0000*76
$GPGGA,095553.000,4758.2625,N,00124.1253,W,1,10,0.9,68.1,M,48.1,M,,0000*74
$GPGGA,095554.000,4758.2703,N,00124.1251,W,1,10,0.9,67.6,M,48.1,M,,0000*7C
$GPGGA,095555.000,4758.2782,N,00124.1243,W,1,10,0.9,67.6,M,48.1,M,,0000*77
$GPGGA,095556.000,4758.2863,N,00124.1226,W,1,10,0.9,67.5,M,48.1,M,,0000*74
$GPGGA,095557.000,4758.2947,N,00124.1203,W,1,10,0.9,67.5,M,48.1,M,,0000*75
$GPGGA,095558.000,4758.3036,N,00124.1177,W,1,10,0.9,67.5,M,48.1,M,,0000*74
$GPGGA,095559.000,4758.3129,N,00124.1149,W,1,10,0.9,67.8,M,48.1,M,,0000*7A
$GPGGA,095600.000,4758.3226,N,00124.1120,W,1,10,0.9,68.2,M,48.1,M,,0000*73
$GPGGA,095601.000,4758.3327,N,00124.1090,W,1,10,0.9,68.6,M,48.1,M,,0000*7C
$GPGGA,095602.000,4758.3429,N,00124.1060,W,1,10,0.9,69.1,M,48.1,M,,0000*7F
$GPGGA,095603.000,4758.3532,N,00124.1030,W,1,10,0.9,69.5,M,48.1,M,,0000*74
$GPGGA,095604.000,4758.3637,N,00124.0998,W,1,10,0.9,69.9,M,48.1,M,,0000*73
$GPGGA,095605.000,4758.3741,N,00124.0967,W,1,10,0.9,70.4,M,48.1,M,,0000*77
$GPGGA,095606.000,4758.3844,N,00124.0936,W,1,10,0.9,70.8,M,48.1,M,,0000*76
$GPGGA,095607.000,4758.3942,N,00124.0907,W,1,10,0.9,71.1,M,48.1,M,,0000*7A
$GPGGA,095608.000,4758.4035,N,00124.0880,W,1,10,0.9,71.5,M,48.1,M,,0000*71
$GPGGA,095609.000,4758.4120,N,00124.0860,W,1,10,0.9,71.8,M,48.1,M,,0000*76
$GPGGA,095610.000,4758.4198,N,00124.0856,W,1,10,0.9,72.0,M,48.1,M,,0000*73
$GPGGA,095611.000,4758.4273,N,00124.0884,W,1,10,0.9,72.2,M,48.1,M,,0000*79
$GPGGA,095612.000,4758.4342,N,00124.0950,W,1,10,0.9,72.4,M,48.1,M,,0000*77
$GPGGA,095613.000,4758.4408,N,00124.1037,W,1,10,0.9,72.9,M,48.1,M,,0000*7B
$GPGGA,095614.000,4758.4473,N,00124.1134,W,1,10,0.9,73.3,M,48.1,M,,0000*79
$GPGGA,095615.000,4758.4542,N,00124.1238,W,1,10,0.9,73.6,M,48.1,M,,0000*71
$GPGGA,095616.000,4758.4614,N,00124.1349,W,1,10,0.9,73.8,M,48.1,M,,0000*7B
$GPGGA,095617.000,4758.4690,N,00124.1467,W,1,10,0.9,73.7,M,48.1,M,,0000*72
$GPGGA,095618.000,4758.4769,N,00124.1588,W,1,10,0.9,73.6,M,48.1,M,,0000*7B
$GPGGA,095619.000,4758.4850,N,00124.1712,W,1,10,0.9,73.4,M,48.1,M,,0000*7C
$GPGGA,095620.000,4758.4934,N,00124.1841,W,1,10,0.9,73.4,M,48.1,M,,0000*7C
$GPGGA,095621.000,4758.5021,N,00124.1971,W,1,10,0.9,73.3,M,48.1,M,,0000*74
$GPGGA,095622.000,4758.5114,N,00124.2095,W,1,10,0.9,73.3,M,48.1,M,,0000*70
$GPGGA,095623.000,4758.5215,N,00124.2211,W,1,10,0.9,73.3,M,48.1,M,,0000*7D
$GPGGA,095624.000,4758.5321,N,00124.2320,W,1,10,0.9,73.2,M,48.1,M,,0000*7E
$GPGGA,095625.000,4758.5430,N,00124.2421,W,1,10,0.9,73.2,M,48.1,M,,0000*7E
$GPGGA,095626.000,4758.5541,N,00124.2507,W,1,10,0.9,73.2,M,48.1,M,,0000*7F
$GPGGA,095627.000,4758.5659,N,00124.2571,W,1,10,0.9,72.7,M,48.1,M,,0000*71
$GPGGA,095628.000,4758.5784,N,00124.2602,W,1,10,0.9,73.3,M,48.1,M,,0000*7D
$GPGGA,095629.000,4758.5907,N,00124.2621,W,1,10,0.9,73.2,M,48.1,M,,0000*79
$GPGGA,095630.000,4758.6029,N,00124.2635,W,1,10,0.9,73.0,M,48.1,M,,0000*70
$GPGGA,095631.000,4758.6152,N,00124.2648,W,1,10,0.9,72.7,M,48.1,M,,0000*70
$GPGGA,095632.000,4758.6275,N,00124.2663,W,1,10,0.9,72.5,M,48.1,M,,0000*7E
$GPGGA,095633.000,4758.6396,N,00124.2679,W,1,10,0.9,72.2,M,48.1,M,,0000*7F
$GPGGA,095634.000,4758.6516,N,00124.2693,W,1,10,0.9,71.9,M,48.1,M,,0000*7A
$GPGGA,095635.000,4758.6633,N,00124.2703,W,1,10,0.9,71.3,M,48.1,M,,0000*7D
$GPGGA,095636.000,4758.6750,N,00124.2703,W,1,10,0.9,70.5,M,48.1,M,,0000*7D
$GPGGA,095637.000,4758.6866,N,00124.2687,W,1,10,0.9,69.5,M,48.1,M,,0000*73
$GPGGA,095638.000,4758.6981,N,00124.2663,W,1,10,0.9,68.7,M,48.1,M,,0000*7D
$GPGGA,095639.000,4758.7096,N,00124.2634,W,1,09,1.0,67.8,M,48.1,M,,0000*70
$GPGGA,095640.000,4758.7210,N,00124.2604,W,1,10,0.9,66.9,M,48.1,M,,0000*71
$GPGGA,095641.000,4758.7325,N,00124.2577,W,1,10,0.9,66.0,M,48.1,M,,0000*79
$GPGGA,095642.000,4758.7440,N,00124.2558,W,1,10,0.9,65.3,M,48.1,M,,0000*73
$GPGGA,095643.000,4758.7556,N,00124.2557,W,1,10,0.9,64.9,M,48.1,M,,0000*70
$GPGGA,095644.000,4758.7672,N,00124.2581,W,1,10,0.9,64.5,M,48.1,M,,0000*75
$GPGGA,095645.000,4758.7787,N,00124.2627,W,1,10,0.9,64.0,M,48.1,M,,0000*75
$GPGGA,095646.000,4758.7904,N,00124.2685,W,1,10,0.9,63.8,M,48.1,M,,0000*74
$GPGGA,095647.000,4758.8021,N,00124.2750,W,1,10,0.9,63.6,M,48.1,M,,0000*73
$GPGGA,095648.000,4758.8139,N,00124.2817,W,1,10,0.9,63.7,M,48.1,M,,0000*79
$GPGGA,095649.000,4758.8257,N,00124.2888,W,1,10,0.9,63.7,M,48.1,M,,0000*75
$GPGGA,095650.000,4758.8372,N,00124.2966,W,1,10,0.9,63.8,M,48.1,M,,0000*75
$GPGGA,095651.000,4758.8481,N,00124.3060,W,1,10,0.9,63.5,M,48.1,M,,0000*7C
$GPGGA,095652.000,4758.8583,N,00124.3169,W,1,10,0.9,63.6,M,48.1,M,,0000*77
$GPGGA,095653.000,4758.8681,N,00124.3292,W,1,10,0.9,63.3,M,48.1,M,,0000*75
$GPGGA,095654.000,4758.8776,N,00124.3427,W,1,10,0.9,63.1,M,48.1,M,,0000*71
$GPGGA,095655.000,4758.8870,N,00124.3568,W,1,10,0.9,62.9,M,48.1,M,,0000*7A
$GPGGA,095656.000,4758.8965,N,00124.3710,W,1,10,0.9,62.8,M,48.1,M,,0000*70
$GPGGA,095657.000,4758.9062,N,00124.3854,W,1,10,0.9,62.7,M,48.1,M,,0000*7E
$GPGGA,095658.000,4758.9158,N,00124.3998,W,1,10,0.9,62.8,M,48.1,M,,0000*77
$GPGGA,095659.000,4758.9256,N,00124.4143,W,1,10,0.9,62.9,M,48.1,M,,0000*73
$GPGGA,095700.000,4758.9353,N,00124.4288,W,1,10,0.9,62.9,M,48.1,M,,0000*7E
$GPGGA,095701.000,4758.9449,N,00124.4434,W,1,10,0.9,63.0,M,48.1,M,,0000*7A
$GPGGA,095702.000,4758.9544,N,00124.4576,W,1,10,0.9,63.0,M,48.1,M,,0000*72
$GPGGA,095703.000,4758.9639,N,00124.4716,W,1,10,0.9,62.9,M,48.1,M,,0000*76
$GPGGA,095704.000,4758.9732,N,00124.4854,W,1,10,0.9,62.6,M,48.1,M,,0000*7D
$GPGGA,095705.000,4758.9820,N,00124.4996,W,1,10,0.9,62.4,M,48.1,M,,0000*7D
$GPGGA,095706.000,4758.9898,N,00124.5143,W,1,10,0.9,62.1,M,48.1,M,,0000*79
$GPGGA,095707.000,4758.9967,N,00124.5296,W,1,10,0.9,61.8,M,48.1,M,,0000*78
$GPGGA,095708.000,4759.0027,N,00124.5457,W,1,10,0.9,61.5,M,48.1,M,,0000*74
$GPGGA,095709.000,4759.0075,N,00124.5623,W,1,10,0.9,60.6,M,48.1,M,,0000*71
$GPGGA,095710.000,4759.0119,N,00124.5780,W,1,10,0.9,59.9,M,48.1,M,,0000*7F
$GPGGA,095711.000,4759.0164,N,00124.5935,W,1,10,0.9,59.6,M,48.1,M,,0000*7B
$GPGGA,095712.000,4759.0217,N,00124.6085,W,1,10,0.9,59.2,M,48.1,M,,0000*7A
$GPGGA,095713.000,4759.0281,N,00124.6225,W,1,10,0.9,58.4,M,48.1,M,,0000*7B
$GPGGA,095714.000,4759.0360,N,00124.6357,W,1,10,0.9,57.8,M,48.1,M,,0000*75
$GPGGA,095715.000,4759.0446,N,00124.6475,W,1,10,0.9,57.0,M,48.1,M,,0000*78
$GPGGA,095716.000,4759.0543,N,00124.6586,W,1,10,0.9,57.1,M,48.1,M,,0000*73
$GPGGA,095717.000,4759.0644,N,00124.6698,W,1,10,0.9,57.2,M,48.1,M,,0000*79
$GPGGA,095718.000,4759.0745,N,00124.6813,W,1,10,0.9,57.5,M,48.1,M,,0000*7C
$GPGGA,095719.000,4759.0847,N,00124.6932,W,1,10,0.9,57.9,M,48.1,M,,0000*7E
$GPGGA,095720.000,4759.0948,N,00124.7052,W,1,10,0.9,58.2,M,48.1,M,,0000*70
$GPGGA,095721.000,4759.1050,N,00124.7172,W,1,10,0.9,58.5,M,48.1,M,,0000*74
$GPGGA,095722.000,4759.1152,N,00124.7292,W,1,10,0.9,58.9,M,48.1,M,,0000*75
$GPGGA,095723.000,4759.1253,N,00124.7412,W,1,10,0.9,59.5,M,48.1,M,,0000*75
$GPGGA,095724.000,4759.1352,N,00124.7535,W,1,10,0.9,60.2,M,48.1,M,,0000*7B
$GPGGA,095725.000,4759.1445,N,00124.7664,W,1,10,0.9,60.8,M,48.1,M,,0000*76
$GPGGA,095726.000,4759.1531,N,00124.7803,W,1,10,0.9,61.7,M,48.1,M,,0000*76
$GPGGA,095727.000,4759.1612,N,00124.7946,W,1,10,0.9,63.0,M,48.1,M,,0000*70
$GPGGA,095728.000,4759.1692,N,00124.8090,W,1,10,0.9,64.3,M,48.1,M,,0000*7E
$GPGGA,095729.000,4759.1769,N,00124.8233,W,1,10,0.9,65.5,M,48.1,M,,0000*76
$GPGGA,095730.000,4759.1845,N,00124.8374,W,1,10,0.9,66.6,M,48.1,M,,0000*7D
$GPGGA,095731.000,4759.1921,N,00124.8513,W,1,10,0.9,67.6,M,48.1,M,,0000*79
$GPGGA,095732.000,4759.1996,N,00124.8645,W,1,10,0.9,68.4,M,48.1,M,,0000*7B
$GPGGA,095733.000,4759.2073,N,00124.8771,W,1,10,0.9,68.7,M,48.1,M,,0000*7E
$GPGGA,095734.000,4759.2158,N,00124.8884,W,1,10,0.9,68.5,M,48.1,M,,0000*76
$GPGGA,095735.000,4759.2252,N,00124.8985,W,1,10,0.9,68.4,M,48.1,M,,0000*7F
$GPGGA,095736.000,4759.2355,N,00124.9069,W,1,10,0.9,68.1,M,48.1,M,,0000*75
$GPGGA,095737.000,4759.2465,N,00124.9139,W,1,10,0.9,67.6,M,48.1,M,,0000*7C
$GPGGA,095738.000,4759.2578,N,00124.9203,W,1,10,0.9,67.3,M,48.1,M,,0000*71
$GPGGA,095739.000,4759.2693,N,00124.9267,W,1,09,1.0,66.9,M,48.1,M,,0000*7F
$GPGGA,095740.000,4759.2809,N,00124.9332,W,1,09,1.0,66.7,M,48.1,M,,0000*73
$GPGGA,095741.000,4759.2925,N,00124.9398,W,1,09,1.0,66.6,M,48.1,M,,0000*7C
$GPGGA,095742.000,4759.3043,N,00124.9464,W,1,09,1.0,66.6,M,48.1,M,,0000*73
$GPGGA,095743.000,4759.3162,N,00124.9529,W,1,09,1.0,67.0,M,48.1,M,,0000*7F
$GPGGA,095744.000,4759.3282,N,00124.9596,W,1,10,0.9,67.2,M,48.1,M,,0000*73
$GPGGA,095745.000,4759.3403,N,00124.9662,W,1,10,0.9,67.4,M,48.1,M,,0000*73
$GPGGA,095746.000,4759.3524,N,00124.9730,W,1,10,0.9,67.4,M,48.1,M,,0000*72
$GPGGA,095747.000,4759.3646,N,00124.9798,W,1,10,0.9,67.4,M,48.1,M,,0000*76
$GPGGA,095748.000,4759.3769,N,00124.9868,W,1,10,0.9,67.3,M,48.1,M,,0000*72
$GPGGA,095749.000,4759.3893,N,00124.9941,W,1,10,0.9,67.3,M,48.1,M,,0000*73
$GPGGA,095750.000,4759.4015,N,00125.0020,W,1,10,0.9,67.3,M,48.1,M,,0000*7C
$GPGGA,095751.000,4759.4134,N,00125.0110,W,1,10,0.9,67.0,M,48.1,M,,0000*7E
$GPGGA,095752.000,4759.4249,N,00125.0213,W,1,10,0.9,67.1,M,48.1,M,,0000*75
$GPGGA,095753.000,4759.4358,N,00125.0325,W,1,10,0.9,67.0,M,48.1,M,,0000*70
$GPGGA,095754.000,4759.4466,N,00125.0448,W,1,10,0.9,67.4,M,48.1,M,,0000*75
$GPGGA,095755.000,4759.4572,N,00125.0575,W,1,10,0.9,67.7,M,48.1,M,,0000*7C
$GPGGA,095756.000,4759.4678,N,00125.0702,W,1,10,0.9,67.9,M,48.1,M,,0000*7A
$GPGGA,095757.000,4759.4784,N,00125.0830,W,1,10,0.9,68.0,M,48.1,M,,0000*71
$GPGGA,095758.000,4759.4890,N,00125.0956,W,1,10,0.9,68.1,M,48.1,M,,0000*74
$GPGGA,095759.000,4759.4996,N,00125.1082,W,1,10,0.9,68.3,M,48.1,M,,0000*71
$GPGGA,095800.000,4759.5101,N,00125.1206,W,1,10,0.9,68.4,M,48.1,M,,0000*7C
$GPGGA,095801.000,4759.5205,N,00125.1330,W,1,10,0.9,68.4,M,48.1,M,,0000*7E
$GPGGA,095802.000,4759.5308,N,00125.1452,W,1,10,0.9,68.2,M,48.1,M,,0000*74
$GPGGA,095803.000,4759.5409,N,00125.1574,W,1,10,0.9,68.1,M,48.1,M,,0000*75
$GPGGA,095804.000,4759.5508,N,00125.1692,W,1,10,0.9,67.8,M,48.1,M,,0000*7F
$GPGGA,095805.000,4759.5606,N,00125.1808,W,1,10,0.9,67.5,M,48.1,M,,0000*73
$GPGGA,095806.000,4759.5701,N,00125.1919,W,1,10,0.9,67.1,M,48.1,M,,0000*73
$GPGGA,095807.000,4759.5795,N,00125.2020,W,1,10,0.9,66.6,M,48.1,M,,0000*79
$GPGGA,095808.000,4759.5893,N,00125.2103,W,1,10,0.9,66.5,M,48.1,M,,0000*7C
$GPGGA,095809.000,4759.5996,N,00125.2170,W,1,10,0.9,66.3,M,48.1,M,,0000*7B
$GPGGA,095810.000,4759.6102,N,00125.2228,W,1,10,0.9,66.0,M,48.1,M,,0000*78
$GPGGA,095811.000,4759.6209,N,00125.2286,W,1,10,0.9,65.3,M,48.1,M,,0000*75
$GPGGA,095812.000,4759.6315,N,00125.2346,W,1,10,0.9,64.7,M,48.1,M,,0000*72
$GPGGA,095813.000,4759.6418,N,00125.2413,W,1,10,0.9,64.2,M,48.1,M,,0000*7B
$GPGGA,095814.000,4759.6516,N,00125.2495,W,1,10,0.9,63.7,M,48.1,M,,0000*7F
$GPGGA,095815.000,4759.6608,N,00125.2596,W,1,10,0.9,63.6,M,48.1,M,,0000*71
$GPGGA,095816.000,4759.6695,N,00125.2712,W,1,10,0.9,63.4,M,48.1,M,,0000*7A
$GPGGA,095817.000,4759.6779,N,00125.2834,W,1,10,0.9,63.1,M,48.1,M,,0000*76
$GPGGA,095818.000,4759.6863,N,00125.2957,W,1,10,0.9,62.6,M,48.1,M,,0000*7F
$GPGGA,095819.000,4759.6949,N,00125.3078,W,1,10,0.9,61.9,M,48.1,M,,0000*7E
$GPGGA,095820.000,4759.7041,N,00125.3191,W,1,10,0.9,61.2,M,48.1,M,,0000*79
$GPGGA,095821.000,4759.7140,N,00125.3290,W,1,10,0.9,60.5,M,48.1,M,,0000*7C
$GPGGA,095822.000,4759.7245,N,00125.3378,W,1,10,0.9,59.8,M,48.1,M,,0000*79
$GPGGA,095823.000,4759.7353,N,00125.3461,W,1,10,0.9,59.0,M,48.1,M,,0000*79
$GPGGA,095824.000,4759.7463,N,00125.3541,W,1,10,0.9,58.3,M,48.1,M,,0000*7B
$GPGGA,095825.000,4759.7575,N,00125.3622,W,1,10,0.9,57.6,M,48.1,M,,0000*70
$GPGGA,095826.000,4759.7688,N,00125.3704,W,1,10,0.9,57.0,M,48.1,M,,0000*71
$GPGGA,095827.000,4759.7802,N,00125.3788,W,1,10,0.9,56.4,M,48.1,M,,0000*7D
$GPGGA,095828.000,4759.7915,N,00125.3873,W,1,10,0.9,55.9,M,48.1,M,,0000*70
$GPGGA,095829.000,4759.8028,N,00125.3958,W,1,10,0.9,55.6,M,48.1,M,,0000*7E
$GPGGA,095830.000,4759.8142,N,00125.4041,W,1,10,0.9,55.3,M,48.1,M,,0000*78
$GPGGA,095831.000,4759.8258,N,00125.4117,W,1,10,0.9,55.1,M,48.1,M,,0000*71
$GPGGA,095832.000,4759.8378,N,00125.4177,W,1,10,0.9,54.5,M,48.1,M,,0000*72
$GPGGA,095833.000,4759.8502,N,00125.4216,W,1,10,0.9,53.0,M,48.1,M,,0000*7E
$GPGGA,095834.000,4759.8627,N,00125.4242,W,1,09,1.0,51.8,M,48.1,M,,0000*76
$GPGGA,095835.000,4759.8753,N,00125.4261,W,1,09,1.0,51.2,M,48.1,M,,0000*7E
$GPGGA,095836.000,4759.8881,N,00125.4275,W,1,10,0.9,50.3,M,48.1,M,,0000*78
$GPGGA,095837.000,4759.9010,N,00125.4289,W,1,10,0.9,49.6,M,48.1,M,,0000*76
$GPGGA,095838.000,4759.9140,N,00125.4304,W,1,10,0.9,49.2,M,48.1,M,,0000*7D
$GPGGA,095839.000,4759.9268,N,00125.4319,W,1,10,0.9,49.1,M,48.1,M,,0000*7A
$GPGGA,095840.000,4759.9396,N,00125.4337,W,1,10,0.9,49.0,M,48.1,M,,0000*79
$GPGGA,095841.000,4759.9523,N,00125.4357,W,1,10,0.9,49.0,M,48.1,M,,0000*76
$GPGGA,095842.000,4759.9651,N,00125.4377,W,1,10,0.9,48.8,M,48.1,M,,0000*78
$GPGGA,095843.000,4759.9781,N,00125.4394,W,1,10,0.9,48.1,M,48.1,M,,0000*71
$GPGGA,095844.000,4759.9910,N,00125.4406,W,1,10,0.9,47.6,M,48.1,M,,0000*74
$GPGGA,095845.000,4800.0039,N,00125.4414,W,1,10,0.9,46.8,M,48.1,M,,0000*71
$GPGGA,095846.000,4800.0169,N,00125.4422,W,1,10,0.9,45.8,M,48.1,M,,0000*70
$GPGGA,095847.000,4800.0300,N,00125.4430,W,1,10,0.9,44.8,M,48.1,M,,0000*7E
$GPGGA,095848.000,4800.0432,N,00125.4439,W,1,10,0.9,43.7,M,48.1,M,,0000*76
$GPGGA,095849.000,4800.0564,N,00125.4449,W,1,10,0.9,42.7,M,48.1,M,,0000*73
$GPGGA,095850.000,4800.0695,N,00125.4460,W,1,10,0.9,41.6,M,48.1,M,,0000*7F
$GPGGA,095851.000,4800.0823,N,00125.4471,W,1,10,0.9,40.6,M,48.1,M,,0000*7C
$GPGGA,095852.000,4800.0945,N,00125.4482,W,1,10,0.9,39.8,M,48.1,M,,0000*72
$GPGGA,095853.000,4800.1063,N,00125.4497,W,1,10,0.9,39.0,M,48.1,M,,0000*73
$GPGGA,095854.000,4800.1179,N,00125.4529,W,1,10,0.9,38.2,M,48.1,M,,0000*79
$GPGGA,095855.000,4800.1292,N,00125.4581,W,1,10,0.9,37.9,M,48.1,M,,0000*78
$GPGGA,095856.000,4800.1403,N,00125.4653,W,1,10,0.9,37.7,M,48.1,M,,0000*77
$GPGGA,095857.000,4800.1512,N,00125.4736,W,1,10,0.9,37.6,M,48.1,M,,0000*74
$GPGGA,095858.000,4800.1620,N,00125.4822,W,1,10,0.9,37.4,M,48.1,M,,0000*71
$GPGGA,095859.000,4800.1729,N,00125.4909,W,1,10,0.9,37.2,M,48.1,M,,0000*76
$GPGGA,095900.000,4800.1838,N,00125.4998,W,1,10,0.9,37.1,M,48.1,M,,0000*7F
$GPGGA,095901.000,4800.1947,N,00125.5089,W,1,10,0.9,36.8,M,48.1,M,,0000*77
$GPGGA,095902.000,4800.2054,N,00125.5182,W,1,10,0.9,36.5,M,48.1,M,,0000*7B
$GPGGA,095903.000,4800.2161,N,00125.5277,W,1,10,0.9,36.4,M,48.1,M,,0000*75
$GPGGA,095904.000,4800.2267,N,00125.5375,W,1,10,0.9,36.1,M,48.1,M,,0000*71
$GPGGA,095905.000,4800.2372,N,00125.5474,W,1,10,0.9,36.0,M,48.1,M,,0000*72
$GPGGA,095906.000,4800.2476,N,00125.5571,W,1,10,0.9,35.8,M,48.1,M,,0000*7D
$GPGGA,095907.000,4800.2580,N,00125.5665,W,1,10,0.9,35.8,M,48.1,M,,0000*72
$GPGGA,095908.000,4800.2684,N,00125.5751,W,1,10,0.9,36.2,M,48.1,M,,0000*75
$GPGGA,095909.000,4800.2789,N,00125.5827,W,1,10,0.9,36.4,M,48.1,M,,0000*70
$GPGGA,095910.000,4800.2895,N,00125.5891,W,1,10,0.9,36.8,M,48.1,M,,0000*7B
$GPGGA,095911.000,4800.3000,N,00125.5949,W,1,10,0.9,37.1,M,48.1,M,,0000*73
$GPGGA,095912.000,4800.3101,N,00125.6011,W,1,10,0.9,37.0,M,48.1,M,,0000*76
$GPGGA,095913.000,4800.3198,N,00125.6081,W,1,10,0.9,36.9,M,48.1,M,,0000*76
$GPGGA,095914.000,4800.3288,N,00125.6162,W,1,10,0.9,36.3,M,48.1,M,,0000*75
$GPGGA,095915.000,4800.3375,N,00125.6253,W,1,10,0.9,36.4,M,48.1,M,,0000*71
$GPGGA,095916.000,4800.3458,N,00125.6350,W,1,10,0.9,36.7,M,48.1,M,,0000*7B
$GPGGA,095917.000,4800.3540,N,00125.6446,W,1,10,0.9,37.1,M,48.1,M,,0000*75
$GPGGA,095918.000,4800.3623,N,00125.6538,W,1,10,0.9,37.4,M,48.1,M,,0000*71
$GPGGA,095919.000,4800.3707,N,00125.6627,W,1,10,0.9,37.8,M,48.1,M,,0000*76
$GPGGA,095920.000,4800.3789,N,00125.6714,W,1,10,0.9,38.1,M,48.1,M,,0000*7D
$GPGGA,095921.000,4800.3870,N,00125.6802,W,1,10,0.9,38.3,M,48.1,M,,0000*7F
$GPGGA,095922.000,4800.3949,N,00125.6888,W,1,10,0.9,38.6,M,48.1,M,,0000*70
$GPGGA,095923.000,4800.4027,N,00125.6970,W,1,10,0.9,39.0,M,48.1,M,,0000*76
$GPGGA,095924.000,4800.4106,N,00125.7047,W,1,10,0.9,39.7,M,48.1,M,,0000*78
$GPGGA,095925.000,4800.4186,N,00125.7115,W,1,10,0.9,40.4,M,48.1,M,,0000*7A
$GPGGA,095926.000,4800.4268,N,00125.7172,W,1,10,0.9,41.3,M,48.1,M,,0000*7D
$GPGGA,095927.000,4800.4350,N,00125.7216,W,1,10,0.9,42.1,M,48.1,M,,0000*76
$GPGGA,095928.000,4800.4435,N,00125.7242,W,1,10,0.9,43.6,M,48.1,M,,0000*7A
$GPGGA,095929.000,4800.4519,N,00125.7258,W,1,09,1.0,44.8,M,48.1,M,,0000*76
$GPGGA,095930.000,4800.4598,N,00125.7270,W,1,09,1.0,46.3,M,48.1,M,,0000*74
$GPGGA,095931.000,4800.4673,N,00125.7278,W,1,09,1.0,47.5,M,48.1,M,,0000*7C
$GPGGA,095932.000,4800.4744,N,00125.7282,W,1,09,1.0,48.7,M,48.1,M,,0000*72
$GPGGA,095933.000,4800.4812,N,00125.7285,W,1,09,1.0,49.2,M,48.1,M,,0000*7C
$GPGGA,095934.000,4800.4875,N,00125.7285,W,1,09,1.0,49.7,M,48.1,M,,0000*7F
$GPGGA,095935.000,4800.4933,N,00125.7283,W,1,09,1.0,50.2,M,48.1,M,,0000*76
$GPGGA,095936.000,4800.4984,N,00125.7278,W,1,09,1.0,50.5,M,48.1,M,,0000*7A
$GPGGA,095937.000,4800.5027,N,00125.7274,W,1,08,1.3,50.5,M,48.1,M,,0000*74
$GPGGA,095938.000,4800.5065,N,00125.7267,W,1,09,1.0,50.7,M,48.1,M,,0000*7F
$GPGGA,095939.000,4800.5102,N,00125.7256,W,1,09,1.0,51.0,M,48.1,M,,0000*7A
$GPGGA,095940.000,4800.5137,N,00125.7246,W,1,08,1.3,51.1,M,48.1,M,,0000*70
$GPGGA,095941.000,4800.5169,N,00125.7239,W,1,09,1.0,51.6,M,48.1,M,,0000*77
$GPGGA,095942.000,4800.5196,N,00125.7232,W,1,09,1.0,51.9,M,48.1,M,,0000*70
$GPGGA,095943.000,4800.5218,N,00125.7226,W,1,09,1.0,52.1,M,48.1,M,,0000*7A
$GPGGA,095944.000,4800.5245,N,00125.7228,W,1,08,1.2,52.1,M,48.1,M,,0000*78
$GPGGA,095945.000,4800.5274,N,00125.7241,W,1,08,1.2,52.5,M,48.1,M,,0000*70
$GPGGA,095946.000,4800.5301,N,00125.7267,W,1,08,1.2,52.3,M,48.1,M,,0000*72
$GPGGA,095947.000,4800.5326,N,00125.7303,W,1,08,1.2,52.5,M,48.1,M,,0000*73
$GPGGA,095948.000,4800.5350,N,00125.7338,W,1,07,1.3,52.7,M,48.1,M,,0000*79
$GPGGA,095949.000,4800.5374,N,00125.7367,W,1,07,1.3,52.7,M,48.1,M,,0000*74
$GPGGA,095950.000,4800.5399,N,00125.7386,W,1,08,1.0,52.4,M,48.1,M,,0000*7F
$GPGGA,095951.000,4800.5426,N,00125.7384,W,1,08,1.0,52.3,M,48.1,M,,0000*78
$GPGGA,095952.000,4800.5454,N,00125.7374,W,1,08,1.3,52.4,M,48.1,M,,0000*75
$GPGGA,095953.000,4800.5480,N,00125.7364,W,1,08,1.3,52.8,M,48.1,M,,0000*70
$GPGGA,095954.000,4800.5509,N,00125.7354,W,1,08,1.3,53.0,M,48.1,M,,0000*7D
$GPGGA,095955.000,4800.5542,N,00125.7348,W,1,09,1.2,53.0,M,48.1,M,,0000*7E
$GPGGA,095956.000,4800.5576,N,00125.7343,W,1,10,0.9,52.5,M,48.1,M,,0000*77
$GPGGA,095957.000,4800.5604,N,00125.7338,W,1,10,0.9,52.2,M,48.1,M,,0000*7B
$GPGGA,095958.000,4800.5627,N,00125.7334,W,1,10,0.9,52.3,M,48.1,M,,0000*78
$GPGGA,095959.000,4800.5642,N,00125.7330,W,1,10,0.9,52.0,M,48.1,M,,0000*7D
$GPGGA,100000.000,4800.5650,N,00125.7328,W,1,10,0.9,52.0,M,48.1,M,,0000*7F
$GPGGA,100001.000,4800.5653,N,00125.7328,W,1,10,0.9,51.8,M,48.1,M,,0000*76
$GPGGA,100002.000,4800.5653,N,00125.7328,W,1,10,0.9,51.8,M,48.1,M,,0000*75
$GPGGA,100003.000,4800.5653,N,00125.7328,W,1,10,0.9,51.8,M,48.1,M,,0000*74
$GPGGA,100004.000,4800.5653,N,00125.7328,W,1,10,0.9,51.8,M,48.1,M,,0000*73
$GPGGA,100005.000,4800.5653,N,00125.7328,W,1,09,1.0,51.7,M,48.1,M,,0000*7D
$GPGGA,100006.000,4800.5653,N,00125.7328,W,1,09,1.0,51.7,M,48.1,M,,0000*7E
$GPGGA,100007.000,4800.5653,N,00125.7328,W,1,09,1.0,51.7,M,48.1,M,,0000*7F
$GPGGA,100008.000,4800.5653,N,00125.7328,W,1,09,1.0,51.7,M,48.1,M,,0000*70
$GPGGA,100009.000,4800.5653,N,00125.7328,W,1,09,1.0,51.7,M,48.1,M,,0000*71
$GPGGA,100010.000,4800.5653,N,00125.7328,W,1,09,1.0,51.7,M,48.1,M,,0000*79
$GPGGA,100011.000,4800.5652,N,00125.7328,W,1,09,1.0,51.7,M,48.1,M,,0000*79
$GPGGA,100012.000,4800.5652,N,00125.7328,W,1,09,1.0,51.7,M,48.1,M,,0000*7A
$GPGGA,100013.000,4800.5652,N,00125.7328,W,1,09,1.0,51.7,M,48.1,M,,0000*7B
$GPGGA,100014.000,4800.5652,N,00125.7328,W,1,09,1.0,51.7,M,48.1,M,,0000*7C
$GPGGA,100015.000,4800.5652,N,00125.7328,W,1,09,1.0,51.7,M,48.1,M,,0000*7D
$GPGGA,100016.000,4800.5652,N,00125.7328,W,1,09,1.0,51.7,M,48.1,M,,0000*7E
$GPGGA,100017.000,4800.5652,N,00125.7328,W,1,09,1.0,51.7,M,48.1,M,,0000*7F
$GPGGA,100018.000,4800.5652,N,00125.7328,W,1,09,1.0,51.7,M,48.1,M,,0000*70
$GPGGA,100019.000,4800.5652,N,00125.7328,W,1,09,1.0,51.7,M,48.1,M,,0000*71
$GPGGA,100020.000,4800.5652,N,00125.7328,W,1,09,1.0,51.7,M,48.1,M,,0000*7B
$GPGGA,100021.000,4800.5652,N,00125.7328,W,1,09,1.0,51.7,M,48.1,M,,0000*7A
$GPGGA,100022.000,4800.5652,N,00125.7328,W,1,09,1.0,51.7,M,48.1,M,,0000*79
$GPGGA,100023.000,4800.5652,N,00125.7328,W,1,09,1.0,51.7,M,48.1,M,,0000*78
$GPGGA,100024.000,4800.5652,N,00125.7328,W,1,09,1.0,51.7,M,48.1,M,,0000*7F
$GPGGA,100025.000,4800.5652,N,00125.7328,W,1,09,1.0,51.7,M,48.1,M,,0000*7E
$GPGGA,100026.000,4800.5652,N,00125.7328,W,1,09,1.0,51.7,M,48.1,M,,0000*7D
$GPGGA,100027.000,4800.5652,N,00125.7328,W,1,09,1.0,51.7,M,48.1,M,,0000*7C
$GPGGA,100028.000,4800.5652,N,00125.7328,W,1,09,1.0,51.7,M,48.1,M,,0000*73
$GPGGA,100029.000,4800.5652,N,00125.7328,W,1,09,1.0,51.7,M,48.1,M,,0000*72
$GPGGA,100030.000,4800.5652,N,00125.7328,W,1,09,1.0,51.7,M,48.1,M,,0000*7A
$GPGGA,100031.000,4800.5652,N,00125.7328,W,1,09,1.0,51.7,M,48.1,M,,0000*7B
$GPGGA,100032.000,4800.5652,N,00125.7328,W,1,09,1.0,51.7,M,48.1,M,,0000*78
$GPGGA,100033.000,4800.5652,N,00125.7328,W,1,09,1.0,51.7,M,48.1,M,,0000*79
$GPGGA,100034.000,4800.5652,N,00125.7328,W,1,09,1.0,51.7,M,48.1,M,,0000*7E
$GPGGA,100035.000,4800.5652,N,00125.7328,W,1,09,1.0,51.7,M,48.1,M,,0000*7F
$GPGGA,100036.000,4800.5652,N,00125.7328,W,1,09,1.0,51.7,M,48.1,M,,0000*7C
$GPGGA,100037.000,4800.5652,N,00125.7328,W,1,09,1.0,51.7,M,48.1,M,,0000*7D
$GPGGA,100038.000,4800.5652,N,00125.7328,W,1,09,1.0,51.7,M,48.1,M,,0000*72
$GPGGA,100039.000,4800.5652,N,00125.7328,W,1,09,1.0,51.7,M,48.1,M,,0000*73
$GPGGA,100040.000,4800.5652,N,00125.7328,W,1,09,1.0,51.7,M,48.1,M,,0000*7D
$GPGGA,100041.000,4800.5652,N,00125.7328,W,2,09,1.0,51.7,M,48.1,M,2.0,0000*53
$GPGGA,100042.000,4800.5652,N,00125.7328,W,2,09,1.0,51.7,M,48.1,M,2.0,0000*50
$GPGGA,100043.000,4800.5652,N,00125.7328,W,2,09,1.0,51.7,M,48.1,M,2.0,0000*51
$GPGGA,100044.000,4800.5652,N,00125.7328,W,2,09,1.0,51.7,M,48.1,M,3.0,0000*57
$GPGGA,100045.000,4800.5652,N,00125.7328,W,2,09,1.0,51.7,M,48.1,M,4.0,0000*51
$GPGGA,100046.000,4800.5652,N,00125.7328,W,2,09,1.0,51.7,M,48.1,M,2.0,0000*54
$GPGGA,100047.000,4800.5652,N,00125.7328,W,2,09,1.0,51.7,M,48.1,M,2.0,0000*55
$GPGGA,100048.000,4800.5652,N,00125.7328,W,2,09,1.0,51.7,M,48.1,M,2.0,0000*5A
$GPGGA,100049.000,4800.5652,N,00125.7328,W,2,09,1.0,51.7,M,48.1,M,3.0,0000*5A
$GPGGA,100050.000,4800.5652,N,00125.7328,W,2,09,1.0,51.7,M,48.1,M,4.0,0000*55
$GPGGA,100051.000,4800.5652,N,00125.7328,W,2,09,1.0,51.7,M,48.1,M,2.0,0000*52
$GPGGA,100052.000,4800.5652,N,00125.7328,W,2,09,1.0,51.7,M,48.1,M,2.0,0000*51
$GPGGA,100053.000,4800.5652,N,00125.7328,W,2,09,1.0,51.7,M,48.1,M,2.0,0000*50
$GPGGA,100054.000,4800.5652,N,00125.7328,W,2,09,1.0,51.7,M,48.1,M,3.0,0000*56
$GPGGA,100055.000,4800.5652,N,00125.7328,W,2,09,1.0,51.7,M,48.1,M,4.0,0000*50
$GPGGA,100056.000,4800.5652,N,00125.7328,W,2,09,1.0,51.7,M,48.1,M,5.0,0000*52
$GPGGA,100057.000,4800.5652,N,00125.7328,W,2,09,1.0,51.7,M,48.1,M,2.0,0000*54
$GPGGA,100058.000,4800.5652,N,00125.7328,W,2,09,1.0,51.7,M,48.1,M,2.0,0000*5B
$GPGGA,100059.000,4800.5652,N,00125.7328,W,2,09,1.0,51.7,M,48.1,M,3.0,0000*5B
$GPGGA,100100.000,4800.5652,N,00125.7328,W,2,09,1.0,51.7,M,48.1,M,2.0,0000*57
$GPGGA,100101.000,4800.5652,N,00125.7328,W,2,09,1.0,51.7,M,48.1,M,2.0,0000*56
$GPGGA,100102.000,4800.5652,N,00125.7328,W,2,09,1.0,51.7,M,48.1,M,2.0,0000*55
$GPGGA,100103.000,4800.5652,N,00125.7328,W,2,09,1.0,51.7,M,48.1,M,2.0,0000*54
$GPGGA,100104.000,4800.5652,N,00125.7328,W,2,09,1.0,51.7,M,48.1,M,3.0,0000*52
$GPGGA,100105.000,4800.5652,N,00125.7328,W,2,09,1.0,51.7,M,48.1,M,4.0,0000*54
$GPGGA,100106.000,4800.5652,N,00125.7328,W,2,09,1.0,51.7,M,48.1,M,2.0,0000*51
$GPGGA,100107.000,4800.5652,N,00125.7328,W,2,09,1.0,51.7,M,48.1,M,2.0,0000*50
$GPGGA,100108.000,4800.5652,N,00125.7328,W,2,09,1.0,51.7,M,48.1,M,2.0,0000*5F
$GPGGA,100109.000,4800.5652,N,00125.7328,W,2,09,1.0,51.7,M,48.1,M,3.0,0000*5F
$GPGGA,100110.000,4800.5652,N,00125.7328,W,2,09,1.0,51.7,M,48.1,M,4.0,0000*50
$GPGGA,100111.000,4800.5652,N,00125.7328,W,2,09,1.0,51.7,M,48.1,M,2.0,0000*57
$GPGGA,100112.000,4800.5652,N,00125.7328,W,2,09,1.0,51.7,M,48.1,M,1.0,0000*57
$GPGGA,100113.000,4800.5652,N,00125.7328,W,2,10,0.9,51.7,M,48.1,M,2.0,0000*55
$GPGGA,100114.000,4800.5652,N,00125.7328,W,2,09,1.0,51.7,M,48.1,M,3.0,0000*53
$GPGGA,100115.000,4800.5652,N,00125.7328,W,2,09,1.0,51.7,M,48.1,M,4.0,0000*55
$GPGGA,100116.000,4800.5652,N,00125.7328,W,2,10,0.9,51.7,M,48.1,M,2.0,0000*50
$GPGGA,100117.000,4800.5652,N,00125.7328,W,2,10,0.9,51.7,M,48.1,M,2.0,0000*51
$GPGGA,100118.000,4800.5652,N,00125.7328,W,2,10,0.9,51.7,M,48.1,M,2.0,0000*5E
$GPGGA,100119.000,4800.5652,N,00125.7328,W,2,10,0.9,51.7,M,48.1,M,3.0,0000*5E
$GPGGA,100120.000,4800.5652,N,00125.7328,W,2,10,0.9,51.7,M,48.1,M,4.0,0000*53
$GPGGA,100121.000,4800.5652,N,00125.7328,W,2,10,0.9,51.7,M,48.1,M,2.0,0000*54
$GPGGA,100122.000,4800.5652,N,00125.7328,W,2,10,0.9,51.7,M,48.1,M,3.0,0000*56
$GPGGA,100123.000,4800.5652,N,00125.7328,W,2,10,0.9,51.7,M,48.1,M,2.0,0000*56
$GPGGA,100124.000,4800.5652,N,00125.7328,W,2,10,0.9,51.7,M,48.1,M,3.0,0000*50
$GPGGA,100125.000,4800.5652,N,00125.7328,W,2,10,0.9,51.7,M,48.1,M,4.0,0000*56
$GPGGA,100126.000,4800.5652,N,00125.7328,W,2,10,0.9,51.7,M,48.1,M,2.0,0000*53
$GPGGA,100127.000,4800.5652,N,00125.7328,W,2,10,0.9,51.7,M,48.1,M,2.0,0000*52
$GPGGA,100128.000,4800.5652,N,00125.7328,W,2,10,0.9,51.7,M,48.1,M,2.0,0000*5D
$GPGGA,100129.000,4800.5652,N,00125.7328,W,2,10,0.9,51.7,M,48.1,M,3.0,0000*5D
$GPGGA,100130.000,4800.5652,N,00125.7328,W,2,10,0.9,51.7,M,48.1,M,2.0,0000*54
$GPGGA,100131.000,4800.5652,N,00125.7328,W,2,10,0.9,51.7,M,48.1,M,2.0,0000*55
$GPGGA,100132.000,4800.5652,N,00125.7329,W,2,10,0.9,51.7,M,48.1,M,2.0,0000*57
$GPGGA,100133.000,4800.5652,N,00125.7329,W,2,10,0.9,51.7,M,48.1,M,2.0,0000*56
$GPGGA,100134.000,4800.5652,N,00125.7329,W,2,10,0.9,51.7,M,48.1,M,3.0,0000*50
$GPGGA,100135.000,4800.5652,N,00125.7329,W,2,10,0.9,51.7,M,48.1,M,4.0,0000*56
$GPGGA,100136.000,4800.5652,N,00125.7329,W,2,10,0.9,51.7,M,48.1,M,2.0,0000*53
$GPGGA,100137.000,4800.5652,N,00125.7329,W,2,10,0.9,51.7,M,48.1,M,2.0,0000*52
$GPGGA,100138.000,4800.5652,N,00125.7329,W,2,10,0.9,51.7,M,48.1,M,3.0,0000*5C
$GPGGA,100139.000,4800.5652,N,00125.7329,W,2,10,0.9,51.7,M,48.1,M,4.0,0000*5A
$GPGGA,100140.000,4800.5652,N,00125.7329,W,2,10,0.9,51.7,M,48.1,M,5.0,0000*55
$GPGGA,100141.000,4800.5652,N,00125.7329,W,2,10,0.9,51.7,M,48.1,M,2.0,0000*53
$GPGGA,100142.000,4800.5652,N,00125.7329,W,2,10,0.9,51.7,M,48.1,M,3.0,0000*51
$GPGGA,100143.000,4800.5652,N,00125.7329,W,2,10,0.9,51.7,M,48.1,M,2.0,0000*51
$GPGGA,100144.000,4800.5652,N,00125.7329,W,2,10,0.9,51.7,M,48.1,M,3.0,0000*57
$GPGGA,100145.000,4800.5652,N,00125.7329,W,2,10,0.9,51.7,M,48.1,M,4.0,0000*51
$GPGGA,100146.000,4800.5652,N,00125.7329,W,2,10,0.9,51.7,M,48.1,M,2.0,0000*54
$GPGGA,100147.000,4800.5652,N,00125.7329,W,2,10,0.9,51.7,M,48.1,M,2.0,0000*55
$GPGGA,100148.000,4800.5652,N,00125.7329,W,2,10,0.9,51.7,M,48.1,M,2.0,0000*5A
$GPGGA,100149.000,4800.5652,N,00125.7329,W,2,10,0.9,51.7,M,48.1,M,3.0,0000*5A
$GPGGA,100150.000,4800.5652,N,00125.7329,W,2,08,1.1,51.7,M,48.1,M,2.0,0000*53
$GPGGA,100151.000,4800.5652,N,00125.7329,W,2,08,1.1,51.7,M,48.1,M,2.0,0000*52
$GPGGA,100152.000,4800.5652,N,00125.7329,W,2,08,1.1,51.7,M,48.1,M,2.0,0000*51
$GPGGA,100153.000,4800.5652,N,00125.7329,W,2,08,1.1,51.7,M,48.1,M,2.0,0000*50
$GPGGA,100154.000,4800.5652,N,00125.7329,W,2,08,1.1,51.7,M,48.1,M,3.0,0000*56
$GPGGA,100155.000,4800.5652,N,00125.7329,W,2,08,1.1,51.7,M,48.1,M,4.0,0000*50
$GPGGA,100156.000,4800.5652,N,00125.7329,W,2,08,1.1,51.7,M,48.1,M,2.0,0000*55
$GPGGA,100157.000,4800.5652,N,00125.7329,W,2,08,1.1,51.7,M,48.1,M,2.0,0000*54
$GPGGA,100158.000,4800.5652,N,00125.7329,W,2,08,1.1,51.7,M,48.1,M,2.0,0000*5B
$GPGGA,100159.000,4800.5652,N,00125.7329,W,2,08,1.1,51.7,M,48.1,M,3.0,0000*5B
$GPGGA,100200.000,4800.5652,N,00125.7329,W,2,08,1.1,51.7,M,48.1,M,4.0,0000*53
$GPGGA,100201.000,4800.5652,N,00125.7329,W,2,08,1.1,51.7,M,48.1,M,5.0,0000*53
$GPGGA,100202.000,4800.5652,N,00125.7329,W,2,08,1.1,51.7,M,48.1,M,2.0,0000*57
$GPGGA,100203.000,4800.5652,N,00125.7329,W,2,08,1.1,51.7,M,48.1,M,2.0,0000*56
$GPGGA,100204.000,4800.5652,N,00125.7329,W,2,08,1.1,51.7,M,48.1,M,2.0,0000*51
$GPGGA,100205.000,4800.5652,N,00125.7329,W,2,08,1.1,51.7,M,48.1,M,3.0,0000*51
$GPGGA,100206.000,4800.5652,N,00125.7329,W,2,08,1.1,51.7,M,48.1,M,4.0,0000*55
$GPGGA,100207.000,4800.5652,N,00125.7329,W,2,08,1.1,51.7,M,48.1,M,2.0,0000*52
$GPGGA,100208.000,4800.5652,N,00125.7329,W,2,08,1.1,51.7,M,48.1,M,2.0,0000*5D
$GPGGA,100209.000,4800.5652,N,00125.7329,W,2,08,1.1,51.7,M,48.1,M,3.0,0000*5D
$GPGGA,100210.000,4800.5652,N,00125.7329,W,2,08,1.1,51.7,M,48.1,M,4.0,0000*52
$GPGGA,100211.000,4800.5652,N,00125.7329,W,2,08,1.1,51.7,M,48.1,M,5.0,0000*52
$GPGGA,100212.000,4800.5652,N,00125.7329,W,2,08,1.1,51.7,M,48.1,M,6.0,0000*52
$GPGGA,100213.000,4800.5652,N,00125.7329,W,2,08,1.1,51.7,M,48.1,M,2.0,0000*57
$GPGGA,100214.000,4800.5652,N,00125.7329,W,2,08,1.1,51.7,M,48.1,M,2.0,0000*50
$GPGGA,100215.000,4800.5652,N,00125.7329,W,2,07,1.3,51.7,M,48.1,M,3.0,0000*5D
$GPGGA,100216.000,4800.5652,N,00125.7329,W,2,07,1.3,51.7,M,48.1,M,4.0,0000*59
$GPGGA,100217.000,4800.5652,N,00125.7329,W,2,07,1.3,51.7,M,48.1,M,5.0,0000*59
$GPGGA,100218.000,4800.5652,N,00125.7329,W,2,07,1.3,51.7,M,48.1,M,2.0,0000*51
$GPGGA,100219.000,4800.5652,N,00125.7329,W,2,07,1.3,51.7,M,48.1,M,2.0,0000*50
$GPGGA,100220.000,4800.5652,N,00125.7329,W,2,07,1.3,51.7,M,48.1,M,3.0,0000*5B
$GPGGA,100221.000,4800.5652,N,00125.7329,W,2,07,1.3,51.7,M,48.1,M,4.0,0000*5D
$GPGGA,100222.000,4800.5652,N,00125.7329,W,2,07,1.3,51.7,M,48.1,M,5.0,0000*5F
$GPGGA,100223.000,4800.5652,N,00125.7329,W,2,07,1.3,51.7,M,48.1,M,,0000*75
$GPGGA,100224.000,4800.5652,N,00125.7329,W,2,07,1.3,51.7,M,48.1,M,3.0,0000*5F
$GPGGA,100225.000,4800.5652,N,00125.7329,W,2,07,1.3,51.7,M,48.1,M,4.0,0000*59
$GPGGA,100226.000,4800.5652,N,00125.7329,W,2,07,1.3,51.7,M,48.1,M,5.0,0000*5B
$GPGGA,100227.000,4800.5652,N,00125.7329,W,2,07,1.3,51.7,M,48.1,M,6.0,0000*59
$GPGGA,100228.000,4800.5652,N,00125.7329,W,2,08,1.1,51.7,M,48.1,M,7.0,0000*5A
$GPGGA,100229.000,4800.5652,N,00125.7329,W,2,08,1.1,51.7,M,48.1,M,8.0,0000*54
$GPGGA,100230.000,4800.5652,N,00125.7329,W,2,08,1.1,51.7,M,48.1,M,9.0,0000*5D
$GPGGA,100231.000,4800.5652,N,00125.7329,W,2,08,1.1,51.7,M,48.1,M,10.0,0000*64
$GPGGA,100232.000,4800.5652,N,00125.7329,W,2,08,1.1,51.7,M,48.1,M,11.0,0000*66
$GPGGA,100233.000,4800.5652,N,00125.7329,W,2,08,1.1,51.7,M,48.1,M,12.0,0000*64
$GPGGA,100234.000,4800.5652,N,00125.7329,W,2,08,1.1,51.7,M,48.1,M,13.0,0000*62
$GPGGA,100235.000,4800.5652,N,00125.7329,W,2,08,1.1,51.7,M,48.1,M,14.0,0000*64
$GPGGA,100236.000,4800.5652,N,00125.7329,W,2,08,1.1,51.7,M,48.1,M,15.0,0000*66
$GPGGA,100237.000,4800.5652,N,00125.7329,W,2,08,1.1,51.7,M,48.1,M,16.0,0000*64
$GPGGA,100238.000,4800.5652,N,00125.7329,W,2,08,1.1,51.7,M,48.1,M,17.0,0000*6A
$GPGGA,100239.000,4800.5652,N,00125.7329,W,2,08,1.1,51.7,M,48.1,M,18.0,0000*64
$GPGGA,100240.000,4800.5652,N,00125.7329,W,1,10,0.9,51.7,M,48.1,M,,0000*7E
$GPGGA,100241.000,4800.5652,N,00125.7329,W,1,10,0.9,51.7,M,48.1,M,,0000*7F
$GPGGA,100242.000,4800.5652,N,00125.7329,W,1,10,0.9,51.7,M,48.1,M,,0000*7C
$GPGGA,100243.000,4800.5652,N,00125.7329,W,1,10,0.9,51.7,M,48.1,M,,0000*7D
$GPGGA,100244.000,4800.5652,N,00125.7329,W,1,10,0.9,51.7,M,48.1,M,,0000*7A
$GPGGA,100245.000,4800.5652,N,00125.7329,W,1,10,0.9,51.7,M,48.1,M,,0000*7B
$GPGGA,100246.000,4800.5652,N,00125.7329,W,1,09,1.0,51.7,M,48.1,M,,0000*78
$GPGGA,100247.000,4800.5652,N,00125.7329,W,1,09,1.0,51.7,M,48.1,M,,0000*79
$GPGGA,100248.000,4800.5652,N,00125.7329,W,1,09,1.0,51.7,M,48.1,M,,0000*76
$GPGGA,100249.000,4800.5652,N,00125.7329,W,1,09,1.0,51.7,M,48.1,M,,0000*77
$GPGGA,100250.000,4800.5651,N,00125.7329,W,1,09,1.0,51.7,M,48.1,M,,0000*7C
$GPGGA,100251.000,4800.5649,N,00125.7330,W,1,09,1.0,51.8,M,48.1,M,,0000*73
$GPGGA,100252.000,4800.5646,N,00125.7331,W,1,09,1.0,51.8,M,48.1,M,,0000*7E
$GPGGA,100253.000,4800.5643,N,00125.7331,W,1,09,1.0,51.7,M,48.1,M,,0000*75
$GPGGA,100254.000,4800.5641,N,00125.7332,W,1,09,1.0,51.6,M,48.1,M,,0000*72
$GPGGA,100255.000,4800.5640,N,00125.7332,W,1,09,1.0,51.7,M,48.1,M,,0000*73
$GPGGA,100256.000,4800.5641,N,00125.7332,W,1,09,1.0,51.6,M,48.1,M,,0000*70
$GPGGA,100257.000,4800.5646,N,00125.7332,W,1,09,1.0,51.7,M,48.1,M,,0000*77
$GPGGA,100258.000,4800.5655,N,00125.7336,W,1,09,1.0,51.8,M,48.1,M,,0000*71
$GPGGA,100259.000,4800.5670,N,00125.7340,W,1,09,1.0,51.9,M,48.1,M,,0000*77
$GPGGA,100300.000,4800.5692,N,00125.7339,W,1,09,1.0,52.0,M,48.1,M,,0000*72
$GPGGA,100301.000,4800.5721,N,00125.7331,W,1,09,1.0,52.0,M,48.1,M,,0000*72
$GPGGA,100302.000,4800.5750,N,00125.7318,W,1,09,1.0,52.1,M,48.1,M,,0000*7D
$GPGGA,100303.000,4800.5779,N,00125.7306,W,1,09,1.0,52.2,M,48.1,M,,0000*7B
$GPGGA,100304.000,4800.5804,N,00125.7301,W,1,09,1.0,52.3,M,48.1,M,,0000*7F
$GPGGA,100305.000,4800.5822,N,00125.7303,W,1,09,1.0,52.4,M,48.1,M,,0000*7F
$GPGGA,100306.000,4800.5834,N,00125.7314,W,1,09,1.0,51.8,M,48.1,M,,0000*72
$GPGGA,100307.000,4800.5842,N,00125.7336,W,1,09,1.0,52.0,M,48.1,M,,0000*79
$GPGGA,100308.000,4800.5843,N,00125.7371,W,1,09,1.0,52.1,M,48.1,M,,0000*75
$GPGGA,100309.000,4800.5838,N,00125.7416,W,1,09,1.0,52.4,M,48.1,M,,0000*7B
$GPGGA,100310.000,4800.5821,N,00125.7470,W,1,08,1.3,52.6,M,48.1,M,,0000*7B
$GPGGA,100311.000,4800.5805,N,00125.7533,W,1,09,1.0,52.3,M,48.1,M,,0000*7D
$GPGGA,100312.000,4800.5789,N,00125.7603,W,1,09,1.0,52.0,M,48.1,M,,0000*76
$GPGGA,100313.000,4800.5772,N,00125.7676,W,1,09,1.0,51.7,M,48.1,M,,0000*75
$GPGGA,100314.000,4800.5753,N,00125.7744,W,1,10,0.9,51.6,M,48.1,M,,0000*70
$GPGGA,100315.000,4800.5738,N,00125.7807,W,2,04,2.5,51.5,M,48.1,M,2.0,0000*53
$GPGGA,100316.000,4800.5722,N,00125.7858,W,2,04,2.5,51.4,M,48.1,M,3.0,0000*51
$GPGGA,100317.000,4800.5705,N,00125.7891,W,2,04,2.5,51.5,M,48.1,M,2.0,0000*50
$GPGGA,100318.000,4800.5691,N,00125.7909,W,2,04,2.5,51.5,M,48.1,M,2.0,0000*53
$GPGGA,100319.000,4800.5697,N,00125.7904,W,1,09,1.0,51.4,M,48.1,M,,0000*7C
$GPGGA,100320.000,4800.5685,N,00125.7915,W,2,04,2.5,51.5,M,48.1,M,3.0,0000*51
$GPGGA,100321.000,4800.5675,N,00125.7929,W,2,04,2.5,51.6,M,48.1,M,4.0,0000*54
$GPGGA,100322.000,4800.5660,N,00125.7935,W,2,04,2.5,51.7,M,48.1,M,5.0,0000*5E
$GPGGA,100323.000,4800.5641,N,00125.7940,W,2,04,2.5,51.8,M,48.1,M,6.0,0000*52
$GPGGA,100324.000,4800.5621,N,00125.7945,W,2,04,2.5,51.9,M,48.1,M,7.0,0000*56
$GPGGA,100325.000,4800.5603,N,00125.7948,W,2,04,2.5,52.0,M,48.1,M,8.0,0000*5F
$GPGGA,100326.000,4800.5584,N,00125.7951,W,2,04,2.5,52.2,M,48.1,M,9.0,0000*5B
$GPGGA,100327.000,4800.5568,N,00125.7952,W,2,04,2.5,52.3,M,48.1,M,10.0,0000*62
$GPGGA,100328.000,4800.5553,N,00125.7954,W,2,04,2.5,52.4,M,48.1,M,11.0,0000*65
$GPGGA,100329.000,4800.5545,N,00125.7954,W,2,04,2.5,52.6,M,48.1,M,12.0,0000*62
$GPGGA,100330.000,4800.5540,N,00125.7955,W,2,04,2.5,52.7,M,48.1,M,13.0,0000*6E
$GPGGA,100331.000,4800.5547,N,00125.7955,W,2,04,2.5,52.8,M,48.1,M,14.0,0000*60
$GPGGA,100332.000,4800.5554,N,00125.7954,W,2,04,2.5,53.0,M,48.1,M,15.0,0000*68
$GPGGA,100333.000,4800.5565,N,00125.7944,W,2,04,2.5,53.1,M,48.1,M,16.0,0000*68
$GPGGA,100334.000,4800.5570,N,00125.7924,W,2,04,2.5,53.2,M,48.1,M,17.0,0000*6F
$GPGGA,100335.000,4800.5571,N,00125.7896,W,2,04,2.5,53.4,M,48.1,M,18.0,0000*6E
$GPGGA,100336.000,4800.5533,N,00125.7855,W,1,10,0.9,53.2,M,48.1,M,,0000*7D
$GPGGA,100337.000,4800.5516,N,00125.7811,W,1,09,1.2,53.6,M,48.1,M,,0000*7D
$GPGGA,100338.000,4800.5505,N,00125.7761,W,1,09,1.2,53.6,M,48.1,M,,0000*78
$GPGGA,100339.000,4800.5495,N,00125.7703,W,1,09,1.2,53.5,M,48.1,M,,0000*76
$GPGGA,100340.000,4800.5478,N,00125.7631,W,1,09,1.2,53.2,M,48.1,M,,0000*7C
$GPGGA,100341.000,4800.5466,N,00125.7566,W,1,09,1.2,53.2,M,48.1,M,,0000*73
$GPGGA,100342.000,4800.5449,N,00125.7502,W,1,10,0.9,53.1,M,48.1,M,,0000*7E
$GPGGA,100343.000,4800.5435,N,00125.7446,W,1,10,0.9,53.3,M,48.1,M,,0000*77
$GPGGA,100344.000,4800.5414,N,00125.7397,W,1,10,0.9,53.4,M,48.1,M,,0000*7F
$GPGGA,100345.000,4800.5377,N,00125.7346,W,1,09,0.9,52.1,M,48.1,M,,0000*7C
$GPGGA,100346.000,4800.5342,N,00125.7301,W,1,09,0.9,51.6,M,48.1,M,,0000*7E
$GPGGA,100347.000,4800.5305,N,00125.7265,W,1,09,0.9,51.2,M,48.1,M,,0000*7B
$GPGGA,100348.000,4800.5282,N,00125.7243,W,1,10,0.9,51.6,M,48.1,M,,0000*72
$GPGGA,100349.000,4800.5267,N,00125.7231,W,1,10,0.9,51.4,M,48.1,M,,0000*7F
$GPGGA,100350.000,4800.5259,N,00125.7225,W,1,10,0.9,51.6,M,48.1,M,,0000*7D
$GPGGA,100351.000,4800.5251,N,00125.7219,W,1,10,0.9,52.0,M,48.1,M,,0000*7E
$GPGGA,100352.000,4800.5234,N,00125.7213,W,1,10,0.9,52.4,M,48.1,M,,0000*70
$GPGGA,100353.000,4800.5207,N,00125.7216,W,1,10,0.9,52.5,M,48.1,M,,0000*75
$GPGGA,100354.000,4800.5169,N,00125.7226,W,1,09,0.9,52.8,M,48.1,M,,0000*7F
$GPGGA,100355.000,4800.5123,N,00125.7244,W,1,09,0.9,53.0,M,48.1,M,,0000*7D
$GPGGA,100356.000,4800.5070,N,00125.7262,W,1,09,0.9,53.1,M,48.1,M,,0000*7C
$GPGGA,100357.000,4800.5016,N,00125.7276,W,1,09,1.2,53.4,M,48.1,M,,0000*77
$GPGGA,100358.000,4800.4954,N,00125.7286,W,1,09,1.2,53.8,M,48.1,M,,0000*75
$GPGGA,100359.000,4800.4890,N,00125.7293,W,1,10,0.9,53.9,M,48.1,M,,0000*7A
$GPGGA,100400.000,4800.4822,N,00125.7294,W,1,10,0.9,53.2,M,48.1,M,,0000*74
$GPGGA,100401.000,4800.4746,N,00125.7290,W,1,10,0.9,52.3,M,48.1,M,,0000*7C
$GPGGA,100402.000,4800.4668,N,00125.7285,W,1,09,0.9,51.0,M,48.1,M,,0000*7E
$GPGGA,100403.000,4800.4588,N,00125.7276,W,1,09,0.9,49.7,M,48.1,M,,0000*70
$GPGGA,100404.000,4800.4504,N,00125.7262,W,1,09,0.9,49.1,M,48.1,M,,0000*70
$GPGGA,100405.000,4800.4422,N,00125.7240,W,1,09,0.9,48.1,M,48.1,M,,0000*75
$GPGGA,100406.000,4800.4338,N,00125.7210,W,1,10,0.9,47.2,M,48.1,M,,0000*7B
$GPGGA,100407.000,4800.4255,N,00125.7165,W,1,10,0.9,46.9,M,48.1,M,,0000*7B
$GPGGA,100408.000,4800.4179,N,00125.7107,W,1,10,0.9,45.4,M,48.1,M,,0000*73
$GPGGA,100409.000,4800.4099,N,00125.7036,W,1,10,0.9,43.7,M,48.1,M,,0000*7B
$GPGGA,100410.000,4800.4020,N,00125.6964,W,1,10,0.9,42.6,M,48.1,M,,0000*7E
$GPGGA,100411.000,4800.3939,N,00125.6885,W,1,10,0.9,41.6,M,48.1,M,,0000*74
$GPGGA,100412.000,4800.3857,N,00125.6800,W,1,10,0.9,41.0,M,48.1,M,,0000*75
$GPGGA,100413.000,4800.3774,N,00125.6711,W,1,10,0.9,40.8,M,48.1,M,,0000*7C
$GPGGA,100414.000,4800.3688,N,00125.6620,W,1,10,0.9,40.3,M,48.1,M,,0000*71
$GPGGA,100415.000,4800.3600,N,00125.6526,W,1,10,0.9,39.9,M,48.1,M,,0000*71
$GPGGA,100416.000,4800.3510,N,00125.6429,W,1,10,0.9,39.6,M,48.1,M,,0000*71
$GPGGA,100417.000,4800.3420,N,00125.6329,W,1,10,0.9,39.2,M,48.1,M,,0000*71
$GPGGA,100418.000,4800.3328,N,00125.6227,W,1,10,0.9,39.2,M,48.1,M,,0000*7E
$GPGGA,100419.000,4800.3234,N,00125.6128,W,1,10,0.9,39.2,M,48.1,M,,0000*7F
$GPGGA,100420.000,4800.3136,N,00125.6039,W,1,10,0.9,38.9,M,48.1,M,,0000*7F
$GPGGA,100421.000,4800.3032,N,00125.5964,W,1,10,0.9,38.6,M,48.1,M,,0000*76
$GPGGA,100422.000,4800.2925,N,00125.5899,W,1,10,0.9,38.2,M,48.1,M,,0000*7C
$GPGGA,100423.000,4800.2816,N,00125.5836,W,1,10,0.9,38.0,M,48.1,M,,0000*7B
$GPGGA,100424.000,4800.2708,N,00125.5770,W,1,10,0.9,37.8,M,48.1,M,,0000*76
$GPGGA,100425.000,4800.2603,N,00125.5696,W,1,10,0.9,37.6,M,48.1,M,,0000*7A
$GPGGA,100426.000,4800.2500,N,00125.5614,W,1,10,0.9,37.6,M,48.1,M,,0000*73
$GPGGA,100427.000,4800.2399,N,00125.5525,W,1,10,0.9,38.3,M,48.1,M,,0000*7F
$GPGGA,100428.000,4800.2302,N,00125.5434,W,1,10,0.9,38.6,M,48.1,M,,0000*76
$GPGGA,100429.000,4800.2203,N,00125.5342,W,1,10,0.9,39.4,M,48.1,M,,0000*72
$GPGGA,100430.000,4800.2104,N,00125.5252,W,1,10,0.9,39.8,M,48.1,M,,0000*72
$GPGGA,100431.000,4800.2005,N,00125.5164,W,1,10,0.9,40.1,M,48.1,M,,0000*72
$GPGGA,100432.000,4800.1905,N,00125.5077,W,1,10,0.9,40.2,M,48.1,M,,0000*7B
$GPGGA,100433.000,4800.1804,N,00125.4993,W,1,10,0.9,40.3,M,48.1,M,,0000*79
$GPGGA,100434.000,4800.1702,N,00125.4911,W,1,10,0.9,40.6,M,48.1,M,,0000*78
$GPGGA,100435.000,4800.1600,N,00125.4830,W,1,10,0.9,40.9,M,48.1,M,,0000*77
$GPGGA,100436.000,4800.1499,N,00125.4750,W,1,10,0.9,41.2,M,48.1,M,,0000*75
