$GPGSV,3,1,12,23,75,144,34,03,53,073,20,09,47,205,39,19,42,262,27*74
$GPGSV,3,2,12,17,37,236,34,22,33,084,10,01,23,137,39,11,06,154,35*7B
$GPGSV,3,3,12,02,05,311,10,36,26,138,37,06,36,306,,31,14,038,*7A
$GPRMC,095122.000,A,4758.1087,N,00124.0456,W,0.00,317.98,231217,,,A*71
Survey start at #CCLK: "17/12/23,10:51:23+04"
at#csurv
Network survey started ...
Survey end at #CCLK: "17/12/23,10:51:23+04"
Survey duration: 0 seconds, 0 bases detected over 0 freqs scanned.
$GPGGA,095123.000,4758.1087,N,00124.0456,W,1,09,0.9,68.7,M,48.1,M,,0000*76
$GPGSA,M,3,23,03,09,19,17,22,01,11,02,,,,1.5,0.9,1.2*36
$GPRMC,095123.000,A,4758.1087,N,00124.0456,W,0.00,317.98,231217,,,A*70
$GPGGA,095124.000,4758.1087,N,00124.0456,W,1,09,0.9,68.7,M,48.1,M,,0000*71
$GPGSA,M,3,23,03,09,19,17,22,01,11,02,,,,1.5,0.9,1.2*36
$GPRMC,095124.000,A,4758.1087,N,00124.0456,W,0.00,317.98,231217,,,A*77
Survey start at #CCLK: "17/12/23,10:51:25+04"
at#csurv
Network survey started ...
$GPGGA,095125.000,4758.1087,N,00124.0457,W,1,09,0.9,68.7,M,48.1,M,,0000*71
$GPGSA,M,3,23,03,09,19,17,22,01,11,02,,,,1.5,0.9,1.2*36
$GPRMC,095125.000,A,4758.1087,N,00124.0457,W,0.00,317.98,231217,,,A*77
$GPGGA,095126.000,4758.1087,N,00124.0457,W,1,09,0.9,68.7,M,48.1,M,,0000*72
$GPGSA,M,3,23,03,09,19,17,22,01,11,02,,,,1.5,0.9,1.2*36
$GPRMC,095126.000,A,4758.1087,N,00124.0457,W,0.00,317.98,231217,,,A*74
$GPGGA,095127.000,4758.1087,N,00124.0457,W,1,09,0.9,68.7,M,48.1,M,,0000*73
$GPGSA,M,3,23,03,09,19,17,22,01,11,02,,,,1.5,0.9,1.2*36
$GPGSV,3,1,12,23,75,144,34,03,53,073,20,09,47,205,38,19,42,262,27*75
$GPGSV,3,2,12,17,37,236,34,22,33,084,12,01,23,137,39,11,06,154,35*79
$GPGSV,3,3,12,02,05,311,10,36,26,138,37,06,36,306,,31,14,038,*7A
$GPRMC,095127.000,A,4758.1087,N,00124.0457,W,0.00,317.98,231217,,,A*75
$GPGGA,095128.000,4758.1087,N,00124.0457,W,1,09,0.9,68.7,M,48.1,M,,0000*7C
$GPGSA,M,3,23,03,09,19,17,22,01,11,02,,,,1.5,0.9,1.2*36
$GPRMC,095128.000,A,4758.1087,N,00124.0457,W,0.00,317.98,231217,,,A*7A
$GPGGA,095129.000,4758.1087,N,00124.0457,W,1,09,0.9,68.7,M,48.1,M,,0000*7D
$GPGSA,M,3,23,03,09,19,17,22,01,11,02,,,,1.5,0.9,1.2*36
$GPRMC,095129.000,A,4758.1087,N,00124.0457,W,0.00,317.98,231217,,,A*7B
$GPGGA,095130.000,4758.1086,N,00124.0457,W,1,09,0.9,68.7,M,48.1,M,,0000*74
$GPGSA,M,3,23,03,09,19,17,22,01,11,02,,,,1.5,0.9,1.2*36
$GPRMC,095130.000,A,4758.1086,N,00124.0457,W,0.00,317.98,231217,,,A*72
$GPGGA,095131.000,4758.1086,N,00124.0457,W,1,09,1.1,68.6,M,48.1,M,,0000*7D
$GPGSA,M,3,23,03,09,19,17,06,22,01,11,,,,2.0,1.1,1.7*38
arfcn: 977 bsic: 33 rxLev: -89 ber: 0.00 mcc: 208 mnc: 20 lac: 413 cellId: 20368 cellStatus: CELL_SUITABLE numArfcn: 1 arfcn: 977 numChannels: 20 array: 975 976 979 980 982 983 984 985 986 987 1011 1013 1014 1015 1018 1019 1021 1022 880 884 pbcch: 0 nom: 2 rac: 1 spgc: 0 pat: 6 nco: 0 t3168: 1500 t3192: 500 drxmax: 0 ctrlAck: 0 bsCVmax: 8 alpha: 6 pcMeasCh: 1 
arfcn: 8 rxLev: -93
arfcn: 68 rxLev: -94
$GPRMC,095131.000,A,4758.1086,N,00124.0457,W,0.00,317.98,231217,,,A*73
arfcn: 67 rxLev: -96
arfcn: 124 rxLev: -96
$GPGGA,095132.000,4758.1086,N,00124.0457,W,1,10,0.9,68.6,M,48.1,M,,0000*7F
$GPGSA,M,3,23,03,09,19,17,06,22,01,11,02,,,1.5,0.9,1.2*30
$GPGSV,3,1,12,23,75,144,34,03,53,073,20,09,47,205,38,19,42,262,27*75
$GPGSV,3,2,12,17,37,236,34,06,36,306,12,22,33,084,12,01,23,137,39*7C
$GPGSV,3,3,12,11,06,154,34,02,05,311,08,36,26,138,37,31,14,038,*74
$GPRMC,095132.000,A,4758.1086,N,00124.0457,W,0.00,317.98,231217,,,A*70
$GPGGA,095133.000,4758.1086,N,00124.0457,W,1,09,1.1,68.6,M,48.1,M,,0000*7F
$GPGSA,M,3,23,03,09,19,17,06,22,01,11,,,,2.0,1.1,1.7*38
$GPRMC,095133.000,A,4758.1086,N,00124.0457,W,0.00,317.98,231217,,,A*71
$GPGGA,095134.000,4758.1086,N,00124.0457,W,1,09,1.1,68.6,M,48.1,M,,0000*78
$GPGSA,M,3,23,03,09,19,17,06,22,01,11,,,,2.0,1.1,1.7*38
$GPRMC,095134.000,A,4758.1086,N,00124.0457,W,0.00,317.98,231217,,,A*76
arfcn: 87 bsic: 34 rxLev: -97 ber: 0.08 mcc: 208 mnc: 10 lac: 30514 cellId: 20354 cellStatus: CELL_FORBIDDEN numArfcn: 3 arfcn: 84 85 87 numChannels: 15 array: 77 78 79 80 81 82 83 86 113 114 115 117 120 123 124 pbcch: 0 nom: 2 rac: 1 spgc: 0 pat: 6 nco: 0 t3168: 1500 t3192: 500 drxmax: 0 ctrlAck: 0 bsCVmax: 8 alpha: 6 pcMeasCh: 1 
arfcn: 609 rxLev: -97
arfcn: 978 rxLev: -98
arfcn: 66 rxLev: -98
arfcn: 63 rxLev: -98
$GPGGA,095135.000,4758.1086,N,00124.0457,W,1,09,1.1,68.6,M,48.1,M,,0000*79
arfcn: 982 rxLev: -98
$GPGSA,M,3,23,03,09,19,17,06,22,01,11,,,,2.0,1.1,1.7*38
$GPRMC,095135.000,A,4758.1086,N,00124.0457,W,0.00,317.98,231217,,,A*77
$GPGGA,095136.000,4758.1086,N,00124.0457,W,1,09,1.1,68.6,M,48.1,M,,0000*7A
$GPGSA,M,3,23,03,09,19,17,06,22,01,11,,,,2.0,1.1,1.7*38
$GPRMC,095136.000,A,4758.1086,N,00124.0457,W,0.00,317.98,231217,,,A*74
$GPGGA,095137.000,4758.1086,N,00124.0457,W,1,10,0.9,68.6,M,48.1,M,,0000*7A
$GPGSA,M,3,23,03,09,19,17,06,22,01,11,02,,,1.5,0.9,1.2*30
arfcn: 1022 bsic: 45 rxLev: -98 ber: 0.00 mcc: 208 mnc: 20 lac: 284 cellId: 38538 cellStatus: CELL_SUITABLE numArfcn: 1 arfcn: 1022 numChannels: 23 array: 788 876 881 884 975 976 979 980 981 982 984 986 987 1011 1012 1013 1014 1015 1017 1018 1020 1021 1022 pbcch: 0 nom: 2 rac: 6 spgc: 0 pat: 6 nco: 0 t3168: 1500 t3192: 500 drxmax: 0 ctrlAck: 0 bsCVmax: 8 alpha: 6 pcMeasCh: 1 
arfcn: 998 rxLev: -99
$GPGSV,3,1,12,23,75,144,34,03,53,073,21,09,47,205,37,19,42,262,26*7A
arfcn: 1007 rxLev: -99
arfcn: 729 rxLev: -99
$GPGSV,3,2,12,17,37,236,34,06,36,306,10,22,33,084,10,01,23,137,39*7C
arfcn: 849 rxLev: -99
$GPGSV,3,3,12,11,06,154,34,02,05,311,13,31,14,038,04,36,26,138,37*7A
arfcn: 983 rxLev: -99
arfcn: 993 rxLev: -99
$GPRMC,095137.000,A,4758.1086,N,00124.0457,W,0.00,317.98,231217,,,A*75
arfcn: 995 rxLev: -99
arfcn: 996 rxLev: -100
arfcn: 994 rxLev: -100
$GPGGA,095138.000,4758.1085,N,00124.0457,W,1,10,0.9,68.6,M,48.1,M,,0000*76
arfcn: 991 rxLev: -100
arfcn: 992 rxLev: -100
$GPGSA,M,3,23,03,09,19,17,06,22,01,11,02,,,1.5,0.9,1.2*30
arfcn: 123 rxLev: -100
arfcn: 1005 rxLev: -100
$GPRMC,095138.000,A,4758.1085,N,00124.0457,W,0.00,317.98,231217,,,A*79
arfcn: 997 rxLev: -100
arfcn: 999 rxLev: -100
arfcn: 1000 rxLev: -100
arfcn: 1003 rxLev: -100
arfcn: 1004 rxLev: -100
arfcn: 1002 rxLev: -100
arfcn: 1006 rxLev: -100
arfcn: 975 rxLev: -100
$GPGGA,095139.000,4758.1085,N,00124.0457,W,1,10,0.9,68.6,M,48.1,M,,0000*77
arfcn: 976 rxLev: -100
arfcn: 979 rxLev: -100
$GPGSA,M,3,23,03,09,19,17,06,22,01,11,02,,,1.5,0.9,1.2*30
arfcn: 990 rxLev: -100
$GPRMC,095139.000,A,4758.1085,N,00124.0457,W,0.00,317.98,231217,,,A*78
arfcn: 61 rxLev: -100
arfcn: 62 rxLev: -101
arfcn: 65 rxLev: -101
arfcn: 980 rxLev: -101
arfcn: 1008 rxLev: -101
arfcn: 1001 rxLev: -101
arfcn: 981 rxLev: -101
arfcn: 64 rxLev: -101
$GPGGA,095140.000,4758.1085,N,00124.0457,W,1,10,0.9,68.6,M,48.1,M,,0000*79
arfcn: 59 rxLev: -102
$GPGSA,M,3,23,03,09,19,17,06,22,01,11,02,,,1.5,0.9,1.2*30
arfcn: 60 rxLev: -102
arfcn: 73 rxLev: -102
$GPRMC,095140.000,A,4758.1085,N,00124.0457,W,0.00,317.98,231217,,,A*76
arfcn: 74 rxLev: -102
arfcn: 75 rxLev: -102
arfcn: 78 rxLev: -102
arfcn: 69 rxLev: -102
arfcn: 70 rxLev: -102
arfcn: 58 rxLev: -102
arfcn: 5 rxLev: -102
arfcn: 57 rxLev: -103
$GPGGA,095141.000,4758.1085,N,00124.0457,W,1,10,0.9,68.6,M,48.1,M,,0000*78
arfcn: 55 rxLev: -103
$GPGSA,M,3,23,03,09,19,17,06,22,01,11,02,,,1.5,0.9,1.2*30
arfcn: 56 rxLev: -103
arfcn: 79 rxLev: -103
$GPRMC,095141.000,A,4758.1085,N,00124.0457,W,0.00,317.98,231217,,,A*77
arfcn: 92 rxLev: -103
arfcn: 94 rxLev: -103
arfcn: 985 rxLev: -103
arfcn: 120 rxLev: -103
arfcn: 71 rxLev: -103
arfcn: 72 rxLev: -103
arfcn: 7 rxLev: -103
$GPGGA,095142.000,4758.1085,N,00124.0457,W,1,10,0.9,68.6,M,48.1,M,,0000*7B
arfcn: 12 rxLev: -104
$GPGSA,M,3,23,03,09,19,17,06,22,01,11,02,,,1.5,0.9,1.2*30
$GPGSV,3,1,12,23,75,144,34,03,53,073,21,09,47,205,37,19,42,262,26*7A
$GPGSV,3,2,12,17,37,236,34,06,36,306,14,22,33,084,11,01,23,137,39*79
$GPGSV,3,3,12,11,06,154,33,02,05,311,11,31,14,038,04,36,26,138,37*7F
$GPRMC,095142.000,A,4758.1085,N,00124.0457,W,0.00,317.98,231217,,,A*74
$GPGGA,095143.000,4758.1085,N,00124.0458,W,1,10,0.9,68.6,M,48.1,M,,0000*75
$GPGSA,M,3,23,03,09,19,17,06,22,01,11,02,,,1.5,0.9,1.2*30
$GPRMC,095143.000,A,4758.1085,N,00124.0458,W,0.00,317.98,231217,,,A*7A
arfcn: 13 bsic: 59 rxLev: -104 ber: 11.06 mcc: FFF mnc: FF lac: 65535 cellId: 0 cellStatus: CELL_OTHER numArfcn: 0 arfcn: numChannels: 0 array:
$GPGGA,095144.000,4758.1085,N,00124.0458,W,1,09,1.0,68.6,M,48.1,M,,0000*72
arfcn: 53 rxLev: -104
$GPGSA,M,3,23,03,09,19,17,06,01,11,02,,,,1.6,1.0,1.2*3B
arfcn: 54 rxLev: -104
arfcn: 122 rxLev: -104
$GPRMC,095144.000,A,4758.1085,N,00124.0458,W,0.00,317.98,231217,,,A*7D
arfcn: 989 rxLev: -104
arfcn: 98 rxLev: -104
arfcn: 606 rxLev: -104
arfcn: 607 rxLev: -104
arfcn: 605 rxLev: -104
arfcn: 1009 rxLev: -104
arfcn: 611 rxLev: -104
arfcn: 97 rxLev: -104
arfcn: 93 rxLev: -104
$GPGGA,095145.000,4758.1085,N,00124.0458,W,1,09,1.0,68.6,M,48.1,M,,0000*73
arfcn: 80 rxLev: -104
$GPGSA,M,3,23,03,09,19,17,06,01,11,02,,,,1.6,1.0,1.2*3B
arfcn: 77 rxLev: -104
arfcn: 76 rxLev: -104
$GPRMC,095145.000,A,4758.1085,N,00124.0458,W,0.00,317.98,231217,,,A*7C
arfcn: 6 rxLev: -104
arfcn: 2 rxLev: -104
arfcn: 4 rxLev: -105
arfcn: 18 rxLev: -105
arfcn: 84 rxLev: -105
$GPGGA,095146.000,4758.1084,N,00124.0458,W,1,09,1.0,68.6,M,48.1,M,,0000*71
arfcn: 95 rxLev: -105
arfcn: 984 rxLev: -105
$GPGSA,M,3,23,03,09,19,17,06,01,11,02,,,,1.6,1.0,1.2*3B
arfcn: 121 rxLev: -105
arfcn: 96 rxLev: -105
$GPRMC,095146.000,A,4758.1084,N,00124.0458,W,0.00,317.98,231217,,,A*7E
arfcn: 91 rxLev: -105
arfcn: 102 rxLev: -105
arfcn: 82 rxLev: -105
arfcn: 17 rxLev: -105
arfcn: 15 rxLev: -105
arfcn: 19 rxLev: -105
arfcn: 52 rxLev: -105
arfcn: 16 rxLev: -106
$GPGGA,095147.000,4758.1084,N,00124.0458,W,1,09,1.0,68.6,M,48.1,M,,0000*70
arfcn: 99 rxLev: -106
arfcn: 107 rxLev: -106
$GPGSA,M,3,23,03,09,19,17,06,01,11,02,,,,1.6,1.0,1.2*3B
arfcn: 108 rxLev: -106
arfcn: 986 rxLev: -106
$GPGSV,3,1,12,23,75,143,34,03,53,073,22,09,47,205,38,19,42,262,25*72
arfcn: 987 rxLev: -106
$GPGSV,3,2,12,17,37,236,34,06,37,306,16,01,23,137,39,11,06,154,33*70
arfcn: 988 rxLev: -106
arfcn: 101 rxLev: -106
$GPGSV,3,3,12,02,05,311,10,22,33,084,04,31,14,038,04,36,26,138,37*70
arfcn: 103 rxLev: -106
$GPRMC,095147.000,A,4758.1084,N,00124.0458,W,0.00,317.98,231217,,,A*7F
arfcn: 106 rxLev: -106
arfcn: 90 rxLev: -106
$GPGGA,095148.000,4758.1084,N,00124.0458,W,1,09,1.0,68.6,M,48.1,M,,0000*7F
arfcn: 24 rxLev: -106
arfcn: 604 rxLev: -106
$GPGSA,M,3,23,03,09,19,17,06,01,11,02,,,,1.6,1.0,1.2*3B
arfcn: 608 rxLev: -106
arfcn: 545 rxLev: -107
$GPRMC,095148.000,A,4758.1084,N,00124.0458,W,0.00,317.98,231217,,,A*70
arfcn: 546 rxLev: -107
arfcn: 786 rxLev: -107
arfcn: 21 rxLev: -107
arfcn: 47 rxLev: -107
arfcn: 48 rxLev: -107
arfcn: 49 rxLev: -107
arfcn: 81 rxLev: -107
arfcn: 105 rxLev: -107
$GPGGA,095149.000,4758.1084,N,00124.0458,W,1,09,1.0,68.6,M,48.1,M,,0000*7E
arfcn: 104 rxLev: -107
arfcn: 100 rxLev: -107
$GPGSA,M,3,23,03,09,19,17,06,01,11,02,,,,1.6,1.0,1.2*3B
arfcn: 109 rxLev: -107
arfcn: 118 rxLev: -107
$GPRMC,095149.000,A,4758.1084,N,00124.0458,W,0.00,317.98,231217,,,A*71
arfcn: 119 rxLev: -107
arfcn: 89 rxLev: -107
arfcn: 88 rxLev: -107
arfcn: 85 rxLev: -107
arfcn: 86 rxLev: -107
arfcn: 44 rxLev: -107
arfcn: 22 rxLev: -107
$GPGGA,095150.000,4758.1084,N,00124.0458,W,1,09,1.0,68.6,M,48.1,M,,0000*76
arfcn: 20 rxLev: -107
$GPGSA,M,3,23,03,09,19,06,17,01,11,02,,,,1.6,1.0,1.2*3B
arfcn: 23 rxLev: -107
arfcn: 25 rxLev: -107
$GPRMC,095150.000,A,4758.1084,N,00124.0458,W,0.00,317.98,231217,,,A*79
arfcn: 29 rxLev: -107
arfcn: 30 rxLev: -107
arfcn: 31 rxLev: -107
arfcn: 32 rxLev: -107
arfcn: 33 rxLev: -107
arfcn: 11 rxLev: -107
arfcn: 612 rxLev: -107
arfcn: 861 rxLev: -107
$GPGGA,095151.000,4758.1084,N,00124.0458,W,1,09,1.0,68.5,M,48.1,M,,0000*74
arfcn: 1015 rxLev: -107
arfcn: 603 rxLev: -107
$GPGSA,M,3,23,03,09,19,06,17,01,11,02,,,,1.6,1.0,1.2*3B
arfcn: 1010 rxLev: -107
arfcn: 1011 rxLev: -107
$GPRMC,095151.000,A,4758.1084,N,00124.0458,W,0.00,317.98,231217,,,A*78
arfcn: 1012 rxLev: -107
arfcn: 602 rxLev: -108
arfcn: 1013 rxLev: -108
arfcn: 1016 rxLev: -108
arfcn: 547 rxLev: -108
arfcn: 1023 rxLev: -108
arfcn: 666 rxLev: -108
arfcn: 669 rxLev: -108
$GPGGA,095152.000,4758.1084,N,00124.0458,W,1,09,1.0,68.5,M,48.1,M,,0000*77
arfcn: 846 rxLev: -108
$GPGSA,M,3,23,03,09,19,06,17,01,11,02,,,,1.6,1.0,1.2*3B
arfcn: 14 rxLev: -108
arfcn: 3 rxLev: -108
$GPGSV,3,1,12,23,75,143,34,03,53,073,22,09,47,205,39,19,42,261,26*73
arfcn: 0 rxLev: -108
arfcn: 35 rxLev: -108
$GPGSV,3,2,12,06,37,306,16,17,37,235,33,01,23,137,40,11,06,154,33*7A
arfcn: 27 rxLev: -108
arfcn: 28 rxLev: -108
$GPGSV,3,3,12,02,05,311,10,22,33,084,04,31,14,038,04,36,26,138,38*7F
arfcn: 26 rxLev: -108
arfcn: 38 rxLev: -108
$GPRMC,095152.000,A,4758.1084,N,00124.0458,W,0.00,317.98,231217,,,A*7B
arfcn: 45 rxLev: -108
arfcn: 46 rxLev: -108
$GPGGA,095153.000,4758.1084,N,00124.0458,W,1,09,1.0,68.5,M,48.1,M,,0000*76
arfcn: 50 rxLev: -108
arfcn: 51 rxLev: -108
$GPGSA,M,3,23,03,09,19,06,17,01,11,02,,,,1.6,1.0,1.2*3B
arfcn: 83 rxLev: -108
Network survey ended
Survey end at #CCLK: "17/12/23,10:51:54+04"
Survey duration: 28 seconds, 4 bases detected over 169 freqs scanned.
$GPRMC,095153.000,A,4758.1084,N,00124.0458,W,0.00,317.98,231217,,,A*7A
$GPGGA,095154.000,4758.1076,N,00124.0458,W,1,10,0.9,68.6,M,48.1,M,,0000*7F
$GPGSA,M,3,23,03,09,19,06,17,22,01,11,02,,,1.5,0.9,1.2*30
$GPRMC,095154.000,A,4758.1076,N,00124.0458,W,0.28,317.98,231217,,,A*7A
Survey start at #CCLK: "17/12/23,10:51:55+04"
$GPGGA,095155.000,4758.1073,N,00124.0456,W,1,09,1.1,68.8,M,48.1,M,,0000*7A
$GPGSA,M,3,23,03,09,19,06,17,22,01,11,,,,2.0,1.1,1.7*38
at#csurv
Network survey started ...
$GPRMC,095155.000,A,4758.1073,N,00124.0456,W,0.44,317.98,231217,,,A*7A
$GPGGA,095156.000,4758.1072,N,00124.0455,W,1,09,1.1,68.8,M,48.1,M,,0000*7B
$GPGSA,M,3,23,03,09,19,06,17,22,01,11,,,,2.0,1.1,1.7*38
$GPRMC,095156.000,A,4758.1072,N,00124.0455,W,0.51,317.98,231217,,,A*7F
Survey end at #CCLK: "17/12/23,10:51:57+04"
Survey duration: 2 seconds, 0 bases detected over 0 freqs scanned.
$GPGGA,095157.000,4758.1073,N,00124.0454,W,1,09,1.1,68.9,M,48.1,M,,0000*7B
$GPGSA,M,3,23,03,09,19,06,17,22,01,11,,,,2.0,1.1,1.7*38
$GPGSV,3,1,12,23,75,143,27,03,53,073,21,09,47,205,26,19,42,261,19*70
$GPGSV,3,2,12,06,37,306,17,17,37,235,21,22,33,084,14,01,23,137,20*71
$GPGSV,3,3,12,11,06,154,21,02,05,311,06,36,26,138,,31,14,038,*7A
$GPRMC,095157.000,A,4758.1073,N,00124.0454,W,0.72,317.98,231217,,,A*7F
$GPGGA,095158.000,4758.1072,N,00124.0451,W,1,09,1.1,69.0,M,48.1,M,,0000*78
$GPGSA,M,3,23,03,09,19,06,17,22,01,11,,,,2.0,1.1,1.7*38
$GPRMC,095158.000,A,4758.1072,N,00124.0451,W,0.84,317.98,231217,,,A*7D
Survey start at #CCLK: "17/12/23,10:51:59+04"
at#csurv
Network survey started ...
Survey end at #CCLK: "17/12/23,10:51:59+04"
Survey duration: 0 seconds, 0 bases detected over 0 freqs scanned.
$GPGGA,095159.000,4758.1064,N,00124.0445,W,1,09,1.1,68.9,M,48.1,M,,0000*73
$GPGSA,M,3,23,03,09,19,06,17,22,01,11,,,,2.0,1.1,1.7*38
$GPRMC,095159.000,A,4758.1064,N,00124.0445,W,1.08,317.98,231217,,,A*7B
$GPGGA,095200.000,4758.1063,N,00124.0440,W,1,09,1.1,69.0,M,48.1,M,,0000*76
$GPGSA,M,3,23,03,09,19,06,17,22,01,11,,,,2.0,1.1,1.7*38
$GPRMC,095200.000,A,4758.1063,N,00124.0440,W,0.82,317.98,231217,,,A*75
$GPGGA,095201.000,4758.1056,N,00124.0437,W,1,09,1.1,69.2,M,48.1,M,,0000*73
Survey start at #CCLK: "17/12/23,10:52:02+04"
$GPGSA,M,3,23,03,09,19,06,17,22,01,11,,,,2.0,1.1,1.7*38
at#csurv
Network survey started ...
Survey end at #CCLK: "17/12/23,10:52:02+04"
Survey duration: 0 seconds, 0 bases detected over 0 freqs scanned.
$GPRMC,095201.000,A,4758.1056,N,00124.0437,W,0.45,317.98,231217,,,A*79
$GPGGA,095202.000,4758.1050,N,00124.0436,W,1,09,1.1,69.4,M,48.1,M,,0000*71
$GPGSA,M,3,23,03,09,19,06,17,22,01,11,,,,2.0,1.1,1.7*38
$GPGSV,3,1,12,23,75,143,35,03,53,073,29,09,47,205,24,19,42,261,20*73
$GPGSV,3,2,12,06,37,306,16,17,37,235,30,22,33,084,25,01,23,137,29*7B
$GPGSV,3,3,12,11,06,154,30,02,05,311,04,36,26,138,,31,14,038,*78
$GPRMC,095202.000,A,4758.1050,N,00124.0436,W,0.16,317.98,231217,,,A*7B
$GPGGA,095203.000,4758.1047,N,00124.0434,W,1,09,1.1,69.5,M,48.1,M,,0000*75
$GPGSA,M,3,23,03,09,19,06,17,22,01,11,,,,2.0,1.1,1.7*38
$GPRMC,095203.000,A,4758.1047,N,00124.0434,W,0.05,317.98,231217,,,A*7C
Survey start at #CCLK: "17/12/23,10:52:04+04"
at#csurv
Network survey started ...
$GPGGA,095204.000,4758.1046,N,00124.0430,W,1,09,1.1,69.6,M,48.1,M,,0000*74
$GPGSA,M,3,23,03,09,19,06,17,22,01,11,,,,2.0,1.1,1.7*38
$GPRMC,095204.000,A,4758.1046,N,00124.0430,W,0.27,317.98,231217,,,A*7E
$GPGGA,095205.000,4758.1046,N,00124.0431,W,1,09,1.1,69.5,M,48.1,M,,0000*77
$GPGSA,M,3,23,03,09,19,06,17,22,01,11,,,,2.0,1.1,1.7*38
$GPRMC,095205.000,A,4758.1046,N,00124.0431,W,0.01,317.98,231217,,,A*7A
$GPGGA,095206.000,4758.1046,N,00124.0431,W,1,09,1.1,69.5,M,48.1,M,,0000*74
$GPGSA,M,3,23,03,09,19,06,17,22,01,11,,,,2.0,1.1,1.7*38
$GPRMC,095206.000,A,4758.1046,N,00124.0431,W,0.00,317.98,231217,,,A*78
$GPGGA,095207.000,4758.1046,N,00124.0431,W,1,09,1.1,69.5,M,48.1,M,,0000*75
$GPGSA,M,3,23,03,09,19,06,17,22,01,11,,,,2.0,1.1,1.7*38
$GPGSV,3,1,12,23,75,143,36,03,53,073,30,09,47,205,23,19,42,261,20*7F
$GPGSV,3,2,12,06,37,306,15,17,37,235,25,22,33,084,26,01,23,137,28*7E
$GPGSV,3,3,12,11,06,154,30,02,05,311,04,36,26,138,,31,14,038,*78
$GPRMC,095207.000,A,4758.1046,N,00124.0431,W,0.00,317.98,231217,,,A*79
$GPGGA,095208.000,4758.1045,N,00124.0430,W,1,09,1.1,69.3,M,48.1,M,,0000*7E
$GPGSA,M,3,23,03,09,19,06,17,22,01,11,,,,2.0,1.1,1.7*38
$GPRMC,095208.000,A,4758.1045,N,00124.0430,W,0.15,317.98,231217,,,A*70
$GPGGA,095209.000,4758.1043,N,00124.0430,W,1,09,1.1,69.1,M,48.1,M,,0000*7B
$GPGSA,M,3,23,03,09,19,06,17,22,01,11,,,,2.0,1.1,1.7*38
$GPRMC,095209.000,A,4758.1043,N,00124.0430,W,0.25,317.98,231217,,,A*74
arfcn: 8 rxLev: -92
$GPGGA,095210.000,4758.1042,N,00124.0428,W,1,09,1.1,68.9,M,48.1,M,,0000*72
$GPGSA,M,3,23,03,09,19,06,17,22,01,11,,,,2.0,1.1,1.7*38
$GPRMC,095210.000,A,4758.1042,N,00124.0428,W,0.28,317.98,231217,,,A*79
$GPGGA,095211.000,4758.1043,N,00124.0427,W,1,10,0.9,68.8,M,48.1,M,,0000*7D
$GPGSA,M,3,23,03,09,19,06,17,22,01,31,11,,,1.6,0.9,1.4*35
$GPRMC,095211.000,A,4758.1043,N,00124.0427,W,0.48,317.98,231217,,,A*70
$GPGGA,095212.000,4758.1047,N,00124.0425,W,1,10,0.9,68.4,M,48.1,M,,0000*74
$GPGSA,M,3,23,03,09,19,06,17,22,01,31,11,,,1.6,0.9,1.4*35
$GPGSV,3,1,12,23,75,143,36,03,53,073,24,09,47,205,27,19,42,261,20*7E
$GPGSV,3,2,12,06,37,306,16,17,37,235,26,22,33,084,25,01,23,137,28*7D
$GPGSV,3,3,12,31,14,038,18,11,06,154,32,02,05,311,04,36,26,138,*73
$GPRMC,095212.000,A,4758.1047,N,00124.0425,W,0.13,317.98,231217,,,A*7B
$GPGGA,095213.000,4758.1047,N,00124.0425,W,1,10,0.9,68.4,M,48.1,M,,0000*75
$GPGSA,M,3,23,03,09,19,06,17,22,01,31,11,,,1.6,0.9,1.4*35
$GPRMC,095213.000,A,4758.1047,N,00124.0425,W,0.00,317.98,231217,,,A*78
$GPGGA,095214.000,4758.1047,N,00124.0424,W,1,10,0.9,68.2,M,48.1,M,,0000*75
$GPGSA,M,3,23,03,09,19,06,17,22,01,31,11,,,1.6,0.9,1.4*35
$GPRMC,095214.000,A,4758.1047,N,00124.0424,W,0.09,317.98,231217,,,A*77
$GPGGA,095215.000,4758.1048,N,00124.0423,W,1,10,0.9,68.1,M,48.1,M,,0000*7F
$GPGSA,M,3,23,03,09,19,06,17,22,01,31,11,,,1.6,0.9,1.4*35
$GPRMC,095215.000,A,4758.1048,N,00124.0423,W,0.15,317.98,231217,,,A*73
$GPGGA,095216.000,4758.1047,N,00124.0424,W,1,10,0.9,68.0,M,48.1,M,,0000*75
$GPGSA,M,3,23,03,09,19,06,17,22,01,31,11,,,1.6,0.9,1.4*35
$GPRMC,095216.000,A,4758.1047,N,00124.0424,W,0.10,317.98,231217,,,A*7D
$GPGGA,095217.000,4758.1047,N,00124.0424,W,1,10,0.9,68.0,M,48.1,M,,0000*74
$GPGSA,M,3,23,03,09,19,06,17,22,01,31,11,,,1.6,0.9,1.4*35
$GPGSV,3,1,12,23,75,143,37,03,53,073,25,09,47,205,26,19,42,261,21*7E
$GPGSV,3,2,12,06,37,306,16,17,37,235,17,22,33,084,21,01,23,137,27*74
$GPGSV,3,3,12,31,14,038,16,11,06,154,32,36,26,138,,02,05,311,*79
$GPRMC,095217.000,A,4758.1047,N,00124.0424,W,0.00,317.98,231217,,,A*7D
$GPGGA,095218.000,4758.1048,N,00124.0423,W,1,10,0.9,68.0,M,48.1,M,,0000*73
$GPGSA,M,3,23,03,09,19,06,17,22,01,31,11,,,1.6,0.9,1.4*35
$GPRMC,095218.000,A,4758.1048,N,00124.0423,W,0.13,317.98,231217,,,A*78
$GPGGA,095219.000,4758.1048,N,00124.0425,W,1,10,0.9,68.0,M,48.1,M,,0000*74
$GPGSA,M,3,23,03,09,19,06,17,22,01,31,11,,,1.6,0.9,1.4*35
$GPRMC,095219.000,A,4758.1048,N,00124.0425,W,0.36,317.98,231217,,,A*78
Survey end at #CCLK: "17/12/23,10:52:20+04"
Survey duration: 16 seconds, 0 bases detected over 1 freqs scanned.
$GPGGA,095220.000,4758.1049,N,00124.0425,W,1,10,0.9,67.8,M,48.1,M,,0000*78
$GPGSA,M,3,23,03,09,19,06,17,22,01,31,11,,,1.6,0.9,1.4*35
$GPRMC,095220.000,A,4758.1049,N,00124.0425,W,0.23,317.98,231217,,,A*77
$GPGGA,095221.000,4758.1049,N,00124.0427,W,1,10,0.9,67.7,M,48.1,M,,0000*74
$GPGSA,M,3,23,03,09,19,06,17,22,01,31,11,,,1.6,0.9,1.4*35
$GPRMC,095221.000,A,4758.1049,N,00124.0427,W,0.46,317.98,231217,,,A*77
Survey start at #CCLK: "17/12/23,10:52:22+04"
at#csurv
Network survey started ...
Survey end at #CCLK: "17/12/23,10:52:22+04"
Survey duration: 0 seconds, 0 bases detected over 0 freqs scanned.
$GPGGA,095222.000,4758.1050,N,00124.0430,W,1,10,0.9,67.6,M,48.1,M,,0000*78
$GPGSA,M,3,23,03,09,19,06,17,22,01,31,11,,,1.6,0.9,1.4*35
$GPGSV,3,1,12,23,75,143,37,03,53,073,20,09,47,205,22,19,42,261,22*7C
$GPGSV,3,2,12,06,37,306,16,17,37,235,21,22,33,084,23,01,23,137,30*75
$GPGSV,3,3,12,31,14,038,17,11,06,154,24,36,26,138,,02,05,311,*7F
$GPRMC,095222.000,A,4758.1050,N,00124.0430,W,0.33,317.98,231217,,,A*78
$GPGGA,095223.000,4758.1051,N,00124.0431,W,1,10,0.9,67.5,M,48.1,M,,0000*7A
$GPGSA,M,3,23,03,09,19,06,17,22,01,31,11,,,1.6,0.9,1.4*35
$GPRMC,095223.000,A,4758.1051,N,00124.0431,W,0.21,317.98,231217,,,A*7A
$GPGGA,095224.000,4758.1051,N,00124.0431,W,1,10,0.9,67.6,M,48.1,M,,0000*7E
Survey start at #CCLK: "17/12/23,10:52:24+04"
at#csurv
Network survey started ...
Survey end at #CCLK: "17/12/23,10:52:25+04"
Survey duration: 0 seconds, 0 bases detected over 0 freqs scanned.
$GPGSA,M,3,23,03,09,19,06,17,22,01,31,11,,,1.6,0.9,1.4*35
$GPRMC,095224.000,A,4758.1051,N,00124.0431,W,0.00,317.98,231217,,,A*7E
$GPGGA,095225.000,4758.1051,N,00124.0431,W,1,10,0.9,67.6,M,48.1,M,,0000*7F
$GPGSA,M,3,23,03,09,19,06,17,22,01,31,11,,,1.6,0.9,1.4*35
$GPRMC,095225.000,A,4758.1051,N,00124.0431,W,0.00,317.98,231217,,,A*7F
$GPGGA,095226.000,4758.1051,N,00124.0431,W,1,10,0.9,67.6,M,48.1,M,,0000*7C
$GPGSA,M,3,23,03,09,19,06,17,22,01,31,11,,,1.6,0.9,1.4*35
$GPRMC,095226.000,A,4758.1051,N,00124.0431,W,0.00,317.98,231217,,,A*7C
Survey start at #CCLK: "17/12/23,10:52:27+04"
at#csurv
Network survey started ...
Survey end at #CCLK: "17/12/23,10:52:27+04"
Survey duration: 0 seconds, 0 bases detected over 0 freqs scanned.
$GPGGA,095227.000,4758.1050,N,00124.0430,W,1,10,0.9,67.7,M,48.1,M,,0000*7C
$GPGSA,M,3,23,03,09,19,06,17,22,01,31,11,,,1.6,0.9,1.4*35
$GPGSV,3,1,12,23,75,143,38,03,53,073,22,09,47,205,20,19,42,261,23*72
$GPGSV,3,2,12,06,37,306,16,17,37,235,21,22,33,084,27,01,23,137,26*76
$GPGSV,3,3,12,31,14,038,17,11,06,154,26,36,26,138,,02,05,311,*7D
$GPRMC,095227.000,A,4758.1050,N,00124.0430,W,0.08,317.98,231217,,,A*75
$GPGGA,095228.000,4758.1050,N,00124.0430,W,1,10,0.9,67.7,M,48.1,M,,0000*73
$GPGSA,M,3,23,03,09,19,06,17,22,01,31,11,,,1.6,0.9,1.4*35
$GPRMC,095228.000,A,4758.1050,N,00124.0430,W,0.00,317.98,231217,,,A*72
Survey start at #CCLK: "17/12/23,10:52:29+04"
at#csurv
Network survey started ...
$GPGGA,095229.000,4758.1050,N,00124.0430,W,1,10,0.9,67.7,M,48.1,M,,0000*72
$GPGSA,M,3,23,03,09,19,06,17,22,01,31,11,,,1.6,0.9,1.4*35
$GPRMC,095229.000,A,4758.1050,N,00124.0430,W,0.00,317.98,231217,,,A*73
$GPGGA,095230.000,4758.1050,N,00124.0431,W,1,10,0.9,67.4,M,48.1,M,,0000*78
$GPGSA,M,3,23,03,09,19,06,17,22,01,31,11,,,1.6,0.9,1.4*35
$GPRMC,095230.000,A,4758.1050,N,00124.0431,W,0.26,317.98,231217,,,A*7E
$GPGGA,095231.000,4758.1050,N,00124.0432,W,1,10,0.9,67.2,M,48.1,M,,0000*7C
$GPGSA,M,3,23,03,09,19,06,17,22,01,31,11,,,1.6,0.9,1.4*35
$GPRMC,095231.000,A,4758.1050,N,00124.0432,W,0.26,317.98,231217,,,A*7C
$GPGGA,095232.000,4758.1049,N,00124.0433,W,1,10,0.9,67.2,M,48.1,M,,0000*76
$GPGSA,M,3,23,03,09,19,06,17,22,01,31,11,,,1.6,0.9,1.4*35
$GPGSV,3,1,12,23,75,143,38,03,53,073,24,09,47,205,21,19,42,261,22*74
$GPGSV,3,2,12,06,37,306,17,17,37,235,20,22,33,084,27,01,23,137,25*75
$GPGSV,3,3,12,31,14,038,17,11,06,154,31,36,26,138,36,02,05,311,*7E
$GPRMC,095232.000,A,4758.1049,N,00124.0433,W,0.08,317.98,231217,,,A*7A
$GPGGA,095233.000,4758.1049,N,00124.0432,W,1,10,0.9,67.1,M,48.1,M,,0000*75
$GPGSA,M,3,23,03,09,19,06,17,22,01,31,11,,,1.6,0.9,1.4*35
$GPRMC,095233.000,A,4758.1049,N,00124.0432,W,0.19,317.98,231217,,,A*7A
$GPGGA,095234.000,4758.1049,N,00124.0431,W,1,10,0.9,66.9,M,48.1,M,,0000*78
$GPGSA,M,3,23,03,09,19,06,17,22,01,31,11,,,1.6,0.9,1.4*35
$GPRMC,095234.000,A,4758.1049,N,00124.0431,W,0.31,317.98,231217,,,A*74
$GPGGA,095235.000,4758.1050,N,00124.0429,W,1,10,0.9,66.8,M,48.1,M,,0000*79
$GPGSA,M,3,23,03,09,19,06,17,22,01,31,11,,,1.6,0.9,1.4*35
arfcn: 977 rxLev: -93
arfcn: 68 rxLev: -93
$GPRMC,095235.000,A,4758.1050,N,00124.0429,W,0.27,317.98,231217,,,A*73
arfcn: 67 rxLev: -96
arfcn: 978 rxLev: -96
arfcn: 124 rxLev: -96
arfcn: 982 rxLev: -97
arfcn: 66 rxLev: -97
$GPGGA,095236.000,4758.1051,N,00124.0428,W,1,10,0.9,66.6,M,48.1,M,,0000*74
$GPGSA,M,3,23,03,09,19,06,17,22,01,31,11,,,1.6,0.9,1.4*35
$GPRMC,095236.000,A,4758.1051,N,00124.0428,W,0.31,317.98,231217,,,A*77
$GPGGA,095237.000,4758.1050,N,00124.0430,W,1,10,0.9,66.6,M,48.1,M,,0000*7D
$GPGSA,M,3,23,03,09,19,06,17,22,01,31,11,,,1.6,0.9,1.4*35
$GPGSV,3,1,12,23,75,143,39,03,53,073,26,09,47,205,20,19,42,261,22*76
$GPGSV,3,2,12,06,37,306,18,17,37,235,20,22,33,084,27,01,23,137,24*7B
$GPGSV,3,3,12,31,14,038,17,11,06,154,30,36,26,138,31,02,05,311,*78
$GPRMC,095237.000,A,4758.1050,N,00124.0430,W,0.15,317.98,231217,,,A*78
$GPGGA,095238.000,4758.1048,N,00124.0430,W,1,10,0.9,66.8,M,48.1,M,,0000*75
$GPGSA,M,3,23,03,09,19,06,17,22,01,31,11,,,1.6,0.9,1.4*35
$GPRMC,095238.000,A,4758.1048,N,00124.0430,W,0.22,317.98,231217,,,A*7A
$GPGGA,095239.000,4758.1047,N,00124.0430,W,1,10,0.9,66.9,M,48.1,M,,0000*7A
$GPGSA,M,3,23,03,09,19,06,17,22,01,31,11,,,1.6,0.9,1.4*35
$GPRMC,095239.000,A,4758.1047,N,00124.0430,W,0.34,317.98,231217,,,A*73
$GPGGA,095240.000,4758.1048,N,00124.0428,W,1,10,0.9,66.9,M,48.1,M,,0000*72
$GPGSA,M,3,23,03,09,19,06,17,22,01,31,11,,,1.6,0.9,1.4*35
$GPRMC,095240.000,A,4758.1048,N,00124.0428,W,0.62,317.98,231217,,,A*78
$GPGGA,095241.000,4758.1047,N,00124.0428,W,1,10,0.9,66.9,M,48.1,M,,0000*7C
$GPGSA,M,3,23,03,09,19,06,17,22,01,31,11,,,1.6,0.9,1.4*35
$GPRMC,095241.000,A,4758.1047,N,00124.0428,W,0.37,317.98,231217,,,A*76
Survey end at #CCLK: "17/12/23,10:52:42+04"
Survey duration: 12 seconds, 0 bases detected over 7 freqs scanned.
$GPGGA,095242.000,4758.1046,N,00124.0429,W,1,10,0.9,67.0,M,48.1,M,,0000*77
$GPGSA,M,3,23,03,09,19,06,17,22,01,31,11,,,1.6,0.9,1.4*35
$GPGSV,3,1,12,23,75,143,38,03,53,073,26,09,47,205,19,19,42,261,23*7C
$GPGSV,3,2,12,06,37,306,18,17,37,235,20,22,33,084,26,01,23,137,20*7E
$GPGSV,3,3,12,31,14,038,17,11,06,154,30,36,26,138,30,02,05,311,*79
$GPRMC,095242.000,A,4758.1046,N,00124.0429,W,0.17,317.98,231217,,,A*77
$GPGGA,095243.000,4758.1045,N,00124.0430,W,1,10,0.9,67.0,M,48.1,M,,0000*7D
Survey start at #CCLK: "17/12/23,10:52:44+04"
at#csurv
Network survey started ...
Survey end at #CCLK: "17/12/23,10:52:44+04"
Survey duration: 0 seconds, 0 bases detected over 0 freqs scanned.
$GPGSA,M,3,23,03,09,19,06,17,22,01,31,11,,,1.6,0.9,1.4*35
$GPRMC,095243.000,A,4758.1045,N,00124.0430,W,0.14,317.98,231217,,,A*7E
$GPGGA,095244.000,4758.1046,N,00124.0429,W,1,10,0.9,66.9,M,48.1,M,,0000*79
$GPGSA,M,3,23,03,09,19,06,17,22,01,31,11,,,1.6,0.9,1.4*35
$GPRMC,095244.000,A,4758.1046,N,00124.0429,W,0.14,317.98,231217,,,A*72
Survey start at #CCLK: "17/12/23,10:52:45+04"
at#csurv
Network survey started ...
$GPGGA,095245.000,4758.1046,N,00124.0428,W,1,10,0.9,66.9,M,48.1,M,,0000*79
$GPGSA,M,3,23,03,09,19,06,17,22,01,31,11,,,1.6,0.9,1.4*35
$GPRMC,095245.000,A,4758.1046,N,00124.0428,W,0.16,317.98,231217,,,A*70
$GPGGA,095246.000,4758.1047,N,00124.0428,W,1,10,0.9,66.9,M,48.1,M,,0000*7B
$GPGSA,M,3,23,03,09,19,06,17,22,01,31,11,,,1.6,0.9,1.4*35
$GPRMC,095246.000,A,4758.1047,N,00124.0428,W,0.28,317.98,231217,,,A*7F
$GPGGA,095247.000,4758.1047,N,00124.0426,W,1,10,0.9,66.9,M,48.1,M,,0000*74
$GPGSA,M,3,23,03,09,19,06,17,22,01,31,11,,,1.6,0.9,1.4*35
$GPGSV,3,1,12,23,75,141,38,03,53,073,26,09,47,205,19,19,42,261,23*7E
$GPGSV,3,2,12,06,37,306,18,17,36,235,20,22,33,084,26,01,23,137,24*7B
$GPGSV,3,3,12,31,14,037,17,11,05,154,31,36,26,138,29,02,06,311,*7F
$GPRMC,095247.000,A,4758.1047,N,00124.0426,W,0.05,317.98,231217,,,A*7F
$GPGGA,095248.000,4758.1047,N,00124.0423,W,1,10,0.9,67.0,M,48.1,M,,0000*76
$GPGSA,M,3,23,03,09,19,06,17,22,01,31,11,,,1.6,0.9,1.4*35
$GPRMC,095248.000,A,4758.1047,N,00124.0423,W,0.18,317.98,231217,,,A*79
$GPGGA,095249.000,4758.1047,N,00124.0421,W,1,10,0.9,67.1,M,48.1,M,,0000*74
$GPGSA,M,3,23,03,09,19,06,17,22,01,31,11,,,1.6,0.9,1.4*35
$GPRMC,095249.000,A,4758.1047,N,00124.0421,W,0.16,317.98,231217,,,A*74
$GPGGA,095250.000,4758.1048,N,00124.0419,W,1,10,0.9,67.1,M,48.1,M,,0000*78
$GPGSA,M,3,23,03,09,19,06,17,22,01,31,11,,,1.6,0.9,1.4*35
$GPRMC,095250.000,A,4758.1048,N,00124.0419,W,0.13,317.98,231217,,,A*7D
arfcn: 68 rxLev: -92
arfcn: 977 rxLev: -93
$GPGGA,095251.000,4758.1048,N,00124.0415,W,1,10,0.9,67.2,M,48.1,M,,0000*76
arfcn: 124 rxLev: -96
arfcn: 978 rxLev: -96
$GPGSA,M,3,23,03,09,19,06,17,22,01,31,11,,,1.6,0.9,1.4*35
$GPRMC,095251.000,A,4758.1048,N,00124.0415,W,0.18,317.98,231217,,,A*7B
$GPGGA,095252.000,4758.1049,N,00124.0409,W,1,10,0.9,67.4,M,48.1,M,,0000*7F
$GPGSA,M,3,23,03,09,19,06,17,22,01,31,11,,,1.6,0.9,1.4*35
$GPGSV,3,1,12,23,75,141,39,03,53,073,26,09,47,205,19,19,42,261,24*78
$GPGSV,3,2,12,06,37,306,18,17,36,235,19,22,33,084,26,01,23,137,23*76
$GPGSV,3,3,12,31,14,037,16,11,05,154,33,36,26,138,30,02,06,311,*74
$GPRMC,095252.000,A,4758.1049,N,00124.0409,W,0.24,317.98,231217,,,A*7B
$GPGGA,095253.000,4758.1049,N,00124.0403,W,1,10,0.9,67.5,M,48.1,M,,0000*75
$GPGSA,M,3,23,03,09,19,06,17,22,01,31,11,,,1.6,0.9,1.4*35
$GPRMC,095253.000,A,4758.1049,N,00124.0403,W,0.07,317.98,231217,,,A*71
$GPGGA,095254.000,4758.1049,N,00124.0395,W,1,10,0.9,67.8,M,48.1,M,,0000*77
$GPGSA,M,3,23,03,09,19,06,17,22,01,31,11,,,1.6,0.9,1.4*35
$GPRMC,095254.000,A,4758.1049,N,00124.0395,W,0.11,317.98,231217,,,A*79
$GPGGA,095255.000,4758.1050,N,00124.0388,W,1,10,0.9,67.9,M,48.1,M,,0000*73
$GPGSA,M,3,23,03,09,19,06,17,22,01,31,11,,,1.6,0.9,1.4*35
$GPRMC,095255.000,A,4758.1050,N,00124.0388,W,0.62,317.98,231217,,,A*78
$GPGGA,095256.000,4758.1050,N,00124.0384,W,1,10,0.9,68.1,M,48.1,M,,0000*7B
$GPGSA,M,3,23,03,09,19,06,17,22,01,31,11,,,1.6,0.9,1.4*35
$GPRMC,095256.000,A,4758.1050,N,00124.0384,W,0.46,317.98,231217,,,A*71
$GPGGA,095257.000,4758.1050,N,00124.0384,W,1,10,0.9,68.0,M,48.1,M,,0000*7B
$GPGSA,M,3,23,03,09,19,06,17,22,01,31,11,,,1.6,0.9,1.4*35
$GPGSV,3,1,12,23,75,141,38,03,53,073,26,09,47,205,21,19,42,261,24*72
$GPGSV,3,2,12,06,37,306,18,17,36,235,18,22,33,084,26,01,23,137,22*76
$GPGSV,3,3,12,31,14,037,15,11,05,154,33,33,33,198,,02,06,311,*7F
$GPRMC,095257.000,A,4758.1050,N,00124.0384,W,0.14,317.98,231217,,,A*77
$GPGGA,095258.000,4758.1049,N,00124.0383,W,1,10,0.9,68.1,M,48.1,M,,0000*7A
$GPGSA,M,3,23,03,09,19,06,17,22,01,31,11,,,1.6,0.9,1.4*35
$GPRMC,095258.000,A,4758.1049,N,00124.0383,W,0.22,317.98,231217,,,A*72
$GPGGA,095259.000,4758.1049,N,00124.0383,W,1,10,0.9,68.1,M,48.1,M,,0000*7B
$GPGSA,M,3,23,03,09,19,06,17,22,01,31,11,,,1.6,0.9,1.4*35
$GPRMC,095259.000,A,4758.1049,N,00124.0383,W,0.49,317.98,231217,,,A*7E
$GPGGA,095300.000,4758.1048,N,00124.0383,W,1,10,0.9,68.2,M,48.1,M,,0000*74
$GPGSA,M,3,23,03,09,19,06,17,22,01,31,11,,,1.6,0.9,1.4*35
$GPRMC,095300.000,A,4758.1048,N,00124.0383,W,0.54,317.98,231217,,,A*7E
$GPGGA,095301.000,4758.1049,N,00124.0382,W,1,09,0.9,68.1,M,48.1,M,,0000*7E
$GPGSA,M,3,23,03,09,06,17,22,01,31,11,,,,1.7,0.9,1.4*3C
$GPRMC,095301.000,A,4758.1049,N,00124.0382,W,0.60,317.98,231217,,,A*78
$GPGGA,095302.000,4758.1049,N,00124.0382,W,1,09,0.9,68.1,M,48.1,M,,0000*7D
$GPGSA,M,3,23,03,09,06,17,22,01,31,11,,,,1.7,0.9,1.4*3C
$GPGSV,3,1,12,23,75,141,24,03,53,073,24,09,47,205,25,06,37,306,17*75
$GPGSV,3,2,12,17,36,235,23,22,33,084,19,01,23,137,29,31,14,037,16*73
$GPGSV,3,3,12,11,05,154,37,19,42,261,07,33,33,198,,02,06,311,*70
$GPRMC,095302.000,A,4758.1049,N,00124.0382,W,0.63,317.98,231217,,,A*78
$GPGGA,095303.000,4758.1048,N,00124.0381,W,1,10,0.9,68.0,M,48.1,M,,0000*77
$GPGSA,M,3,23,03,09,19,06,17,22,01,31,11,,,1.6,0.9,1.4*35
$GPRMC,095303.000,A,4758.1048,N,00124.0381,W,0.43,317.98,231217,,,A*79
$GPGGA,095304.000,4758.1046,N,00124.0391,W,1,10,0.9,67.2,M,48.1,M,,0000*72
$GPGSA,M,3,23,03,09,19,06,17,22,01,31,11,,,1.6,0.9,1.4*35
$GPRMC,095304.000,A,4758.1046,N,00124.0391,W,0.43,317.98,231217,,,A*71
$GPGGA,095305.000,4758.1048,N,00124.0419,W,1,10,0.9,65.6,M,48.1,M,,0000*7C
$GPGSA,M,3,23,03,09,19,06,17,22,01,31,11,,,1.6,0.9,1.4*35
$GPRMC,095305.000,A,4758.1048,N,00124.0419,W,0.43,317.98,231217,,,A*79
$GPGGA,095306.000,4758.1044,N,00124.0423,W,1,10,0.9,65.4,M,48.1,M,,0000*78
$GPGSA,M,3,23,03,09,19,06,17,22,01,31,11,,,1.6,0.9,1.4*35
$GPRMC,095306.000,A,4758.1044,N,00124.0423,W,0.92,317.98,231217,,,A*73
arfcn: 87 bsic: 34 rxLev: -96 ber: 0.00 mcc: 208 mnc: 10 lac: 30514 cellId: 20354 cellStatus: CELL_FORBIDDEN numArfcn: 3 arfcn: 84 85 87 numChannels: 15 array: 77 78 79 80 81 82 83 86 113 114 115 117 120 123 124 pbcch: 0 nom: 2 rac: 1 spgc: 0 pat: 6 nco: 0 t3168: 1500 t3192: 500 drxmax: 0 ctrlAck: 0 bsCVmax: 8 alpha: 6 pcMeasCh: 1 
arfcn: 1022 bsic: 45 rxLev: -96 ber: 0.00 mcc: 208 mnc: 20 lac: 284 cellId: 38538 cellStatus: CELL_SUITABLE numArfcn: 1 arfcn: 1022 numChannels: 23 array: 975 976 979 980 981 982 984 986 987 1011 1012 1013 1014 1015 1017 1018 1020 1021 1022 788 876 881 884 pbcch: 0 nom: 2 rac: 6 spgc: 0 pat: 6 nco: 0 t3168: 1500 t3192: 500 drxmax: 0 ctrlAck: 0 bsCVmax: 8 alpha: 6 pcMeasCh: 1 
arfcn: 67 rxLev: -97
$GPGGA,095307.000,4758.1040,N,00124.0426,W,1,10,0.9,65.0,M,48.1,M,,0000*7C
arfcn: 66 rxLev: -98
arfcn: 976 rxLev: -98
$GPGSA,M,3,23,03,09,19,06,17,22,01,31,11,,,1.6,0.9,1.4*35
arfcn: 982 rxLev: -98
$GPGSV,3,1,12,23,75,141,46,03,53,073,43,09,47,205,45,19,42,261,38*77
arfcn: 8 rxLev: -98
arfcn: 979 rxLev: -98
$GPGSV,3,2,12,06,37,306,24,17,36,235,40,22,33,084,42,01,23,137,44*76
arfcn: 609 rxLev: -98
arfcn: 729 rxLev: -99
$GPGSV,3,3,12,31,14,037,25,11,05,154,38,33,33,198,35,02,06,311,*71
arfcn: 980 rxLev: -99
arfcn: 981 rxLev: -99
$GPRMC,095307.000,A,4758.1040,N,00124.0426,W,1.83,157.74,231217,,,A*76
arfcn: 73 rxLev: -99
arfcn: 983 rxLev: -99
$GPGGA,095308.000,4758.1034,N,00124.0421,W,1,10,0.9,65.0,M,48.1,M,,0000*77
arfcn: 849 rxLev: -99
arfcn: 63 rxLev: -100
$GPGSA,M,3,23,03,09,19,06,17,22,01,31,11,,,1.6,0.9,1.4*35
arfcn: 64 rxLev: -100
arfcn: 7 rxLev: -100
$GPRMC,095308.000,A,4758.1034,N,00124.0421,W,2.37,137.27,231217,,,A*71
arfcn: 975 rxLev: -100
arfcn: 123 rxLev: -100
arfcn: 74 rxLev: -100
$GPGGA,095309.000,4758.1032,N,00124.0411,W,1,10,0.9,65.0,M,48.1,M,,0000*73
$GPGSA,M,3,23,03,09,19,06,17,22,01,31,11,,,1.6,0.9,1.4*35
$GPRMC,095309.000,A,4758.1032,N,00124.0411,W,2.31,99.45,231217,,,A*42
$GPGGA,095310.000,4758.1035,N,00124.0402,W,1,10,0.9,64.9,M,48.1,M,,0000*76
$GPGSA,M,3,23,03,09,19,06,17,22,01,31,11,,,1.6,0.9,1.4*35
$GPRMC,095310.000,A,4758.1035,N,00124.0402,W,2.05,80.98,231217,,,A*40
$GPGGA,095311.000,4758.1036,N,00124.0394,W,1,10,0.9,64.9,M,48.1,M,,0000*7C
$GPGSA,M,3,23,03,09,19,06,17,22,01,31,11,,,1.6,0.9,1.4*35
$GPRMC,095311.000,A,4758.1036,N,00124.0394,W,1.83,86.53,231217,,,A*46
arfcn: 5 bsic: 43 rxLev: -101 ber: 0.00 mcc: 208 mnc: 01 lac: 10300 cellId: 57179 cellStatus: CELL_FORBIDDEN numArfcn: 13 arfcn: 5 17 18 19 20 21 22 23 24 25 47 48 49 numChannels: 14 array: 1 2 3 4 5 6 7 8 9 11 12 13 14 15 pbcch: 0 nom: 2 rac: 1 spgc: 1 pat: 6 nco: 0 t3168: 1000 t3192: 500 drxmax: 4 ctrlAck: 1 bsCVmax: 9 alpha: 7 pcMeasCh: 0 
$GPGGA,095312.000,4758.1035,N,00124.0389,W,1,10,0.9,64.9,M,48.1,M,,0000*70
$GPGSA,M,3,23,03,09,19,06,17,22,01,31,11,,,1.6,0.9,1.4*35
$GPGSV,3,1,12,23,75,141,45,03,53,073,46,09,47,205,43,19,42,261,37*78
$GPGSV,3,2,12,06,37,306,32,17,36,235,40,22,33,084,44,01,23,137,36*72
$GPGSV,3,3,12,31,14,037,31,11,05,154,21,02,06,311,08,33,33,198,34*75
$GPRMC,095312.000,A,4758.1035,N,00124.0389,W,0.85,86.53,231217,,,A*4D
$GPGGA,095313.000,4758.1035,N,00124.0387,W,1,10,0.9,64.8,M,48.1,M,,0000*7E
$GPGSA,M,3,23,03,09,19,06,17,22,01,31,11,,,1.6,0.9,1.4*35
$GPRMC,095313.000,A,4758.1035,N,00124.0387,W,0.66,86.53,231217,,,A*4F
$GPGGA,095314.000,4758.1035,N,00124.0386,W,1,11,0.8,64.8,M,48.1,M,,0000*78
$GPGSA,M,3,23,03,09,19,06,17,22,01,31,02,11,,1.4,0.8,1.1*31
$GPRMC,095314.000,A,4758.1035,N,00124.0386,W,0.22,86.53,231217,,,A*49
arfcn: 11 bsic: 30 rxLev: -101 ber: 13.02 mcc: FFF mnc: FF lac: 65535 cellId: 0 cellStatus: CELL_OTHER numArfcn: 13 arfcn: 11 17 18 19 20 21 22 23 24 25 47 48 49 numChannels: 13 array: 1 2 3 4 5 6 7 9 11 12 13 14 15 pbcch: 0 nom: 2 rac: 1 spgc: 1 pat: 6 nco: 0 t3168: 1000 t3192: 500 drxmax: 4 ctrlAck: 1 bsCVmax: 9 alpha: 7 pcMeasCh: 0 
arfcn: 61 rxLev: -101
arfcn: 60 rxLev: -101
arfcn: 65 rxLev: -101
arfcn: 993 rxLev: -101
arfcn: 985 rxLev: -102
$GPGGA,095315.000,4758.1035,N,00124.0387,W,1,11,0.8,64.9,M,48.1,M,,0000*79
arfcn: 76 rxLev: -102
$GPGSA,M,3,23,03,09,19,06,17,22,01,31,02,11,,1.4,0.8,1.1*31
arfcn: 78 rxLev: -102
arfcn: 62 rxLev: -102
$GPRMC,095315.000,A,4758.1035,N,00124.0387,W,0.09,86.53,231217,,,A*40
arfcn: 2 rxLev: -102
arfcn: 18 rxLev: -102
arfcn: 59 rxLev: -102
arfcn: 58 rxLev: -102
arfcn: 77 rxLev: -102
arfcn: 75 rxLev: -102
arfcn: 984 rxLev: -102
arfcn: 992 rxLev: -103
$GPGGA,095316.000,4758.1038,N,00124.0392,W,1,11,0.8,64.6,M,48.1,M,,0000*7C
arfcn: 988 rxLev: -103
arfcn: 989 rxLev: -103
$GPGSA,M,3,23,03,09,19,06,17,22,01,31,02,11,,1.4,0.8,1.1*31
arfcn: 990 rxLev: -103
arfcn: 991 rxLev: -103
$GPRMC,095316.000,A,4758.1038,N,00124.0392,W,0.27,86.53,231217,,,A*46
arfcn: 79 rxLev: -103
arfcn: 84 rxLev: -103
arfcn: 19 rxLev: -103
arfcn: 4 rxLev: -103
arfcn: 6 rxLev: -103
arfcn: 13 rxLev: -103
arfcn: 17 rxLev: -103
$GPGGA,095317.000,4758.1040,N,00124.0394,W,1,11,0.8,64.3,M,48.1,M,,0000*71
arfcn: 994 rxLev: -103
$GPGSA,M,3,23,03,09,19,06,17,22,01,31,02,11,,1.4,0.8,1.1*31
arfcn: 986 rxLev: -103
$GPGSV,3,1,12,23,75,140,44,03,52,073,38,09,48,205,45,19,41,261,41*7B
$GPGSV,3,2,12,06,37,306,42,17,36,235,42,22,32,084,38,01,22,138,36*73
$GPGSV,3,3,12,31,14,037,30,02,06,311,16,11,05,154,26,33,33,198,37*7F
$GPRMC,095317.000,A,4758.1040,N,00124.0394,W,0.72,86.53,231217,,,A*4E
$GPGGA,095318.000,4758.1043,N,00124.0396,W,1,11,0.8,64.1,M,48.1,M,,0000*7D
$GPGSA,M,3,23,03,09,19,06,17,22,01,31,02,11,,1.4,0.8,1.1*31
$GPRMC,095318.000,A,4758.1043,N,00124.0396,W,0.86,86.53,231217,,,A*4B
$GPGGA,095319.000,4758.1044,N,00124.0399,W,1,11,0.8,63.9,M,48.1,M,,0000*7B
$GPGSA,M,3,23,03,09,19,06,17,22,01,31,02,11,,1.4,0.8,1.1*31
$GPRMC,095319.000,A,4758.1044,N,00124.0399,W,0.37,86.53,231217,,,A*48
$GPGGA,095320.000,4758.1044,N,00124.0399,W,1,11,0.8,63.9,M,48.1,M,,0000*71
$GPGSA,M,3,23,03,09,19,06,17,22,01,31,02,11,,1.4,0.8,1.1*31
$GPRMC,095320.000,A,4758.1044,N,00124.0399,W,1.00,86.53,231217,,,A*47
$GPGGA,095321.000,4758.1041,N,00124.0400,W,1,11,0.8,63.9,M,48.1,M,,0000*72
$GPGSA,M,3,23,03,09,19,06,17,22,01,31,02,11,,1.4,0.8,1.1*31
$GPRMC,095321.000,A,4758.1041,N,00124.0400,W,1.30,173.88,231217,,,A*7A
$GPGGA,095322.000,4758.1039,N,00124.0402,W,1,11,0.8,64.0,M,48.1,M,,0000*72
arfcn: 987 bsic: 46 rxLev: -103 ber: 0.01 mcc: 208 mnc: 20 lac: 284 cellId: 22571 cellStatus: CELL_SUITABLE numArfcn: 2 arfcn: 987 1010 numChannels: 24 array: 787 789 792 794 881 885 975 976 977 978 980 981 982 983 987 1013 1014 1015 1016 1017 1018 1020 1021 1022 pbcch: 0 nom: 2 rac: 6 spgc: 0 pat: 6 nco: 0 t3168: 1500 t3192: 500 drxmax: 0 ctrlAck: 0 bsCVmax: 8 alpha: 6 pcMeasCh: 1 
arfcn: 120 rxLev: -103
$GPGSA,M,3,23,03,09,19,06,17,22,01,31,02,11,,1.4,0.8,1.1*31
arfcn: 1004 rxLev: -103
arfcn: 1008 rxLev: -103
$GPGSV,3,1,12,23,75,140,44,03,52,073,41,09,48,205,44,19,41,261,40*75
arfcn: 1009 rxLev: -104
arfcn: 1005 rxLev: -104
$GPGSV,3,2,12,06,37,306,43,17,36,235,38,22,32,084,44,01,22,138,42*77
arfcn: 1006 rxLev: -104
arfcn: 1001 rxLev: -104
$GPGSV,3,3,12,31,14,037,35,02,06,311,16,11,05,154,29,33,33,198,30*72
arfcn: 1003 rxLev: -104
$GPRMC,095322.000,A,4758.1039,N,00124.0402,W,0.96,173.88,231217,,,A*79
$GPGGA,095323.000,4758.1037,N,00124.0402,W,1,11,0.8,64.1,M,48.1,M,,0000*7C
$GPGSA,M,3,23,03,09,19,06,17,22,01,31,02,11,,1.4,0.8,1.1*31
$GPRMC,095323.000,A,4758.1037,N,00124.0402,W,0.62,173.88,231217,,,A*7D
$GPGGA,095324.000,4758.1037,N,00124.0402,W,1,11,0.8,64.2,M,48.1,M,,0000*78
$GPGSA,M,3,23,03,09,19,06,17,22,01,31,02,11,,1.4,0.8,1.1*31
arfcn: 115 bsic: 35 rxLev: -104 ber: 13.03 mcc: FFF mnc: FF lac: 65535 cellId: 0 cellStatus: CELL_OTHER numArfcn: 0 arfcn: numChannels: 0 array:
arfcn: 122 rxLev: -104
arfcn: 995 rxLev: -104
$GPRMC,095324.000,A,4758.1037,N,00124.0402,W,0.06,173.88,231217,,,A*78
arfcn: 14 rxLev: -104
arfcn: 15 rxLev: -104
arfcn: 16 rxLev: -104
arfcn: 56 rxLev: -104
arfcn: 69 rxLev: -104
arfcn: 71 rxLev: -104
arfcn: 1002 rxLev: -104
arfcn: 996 rxLev: -104
$GPGGA,095325.000,4758.1037,N,00124.0402,W,1,11,0.8,64.2,M,48.1,M,,0000*79
arfcn: 999 rxLev: -104
arfcn: 1007 rxLev: -104
$GPGSA,M,3,23,03,09,19,06,17,22,01,31,02,11,,1.4,0.8,1.1*31
arfcn: 605 rxLev: -104
arfcn: 997 rxLev: -105
$GPRMC,095325.000,A,4758.1037,N,00124.0402,W,0.00,173.88,231217,,,A*7F
arfcn: 72 rxLev: -105
arfcn: 70 rxLev: -105
arfcn: 91 rxLev: -105
arfcn: 57 rxLev: -105
arfcn: 54 rxLev: -105
arfcn: 48 rxLev: -105
arfcn: 22 rxLev: -105
$GPGGA,095326.000,4758.1036,N,00124.0402,W,1,11,0.8,64.3,M,48.1,M,,0000*7A
arfcn: 23 rxLev: -105
arfcn: 27 rxLev: -105
$GPGSA,M,3,23,03,09,19,06,17,22,01,31,02,11,,1.4,0.8,1.1*31
arfcn: 28 rxLev: -105
$GPRMC,095326.000,A,4758.1036,N,00124.0402,W,0.03,173.88,231217,,,A*7E
$GPGGA,095327.000,4758.1036,N,00124.0402,W,1,11,0.8,64.3,M,48.1,M,,0000*7B
$GPGSA,M,3,23,03,09,19,06,17,22,01,31,02,11,,1.4,0.8,1.1*31
$GPGSV,3,1,12,23,75,140,37,03,52,073,33,09,48,205,43,19,41,261,35*71
$GPGSV,3,2,12,06,37,306,41,17,36,235,41,22,32,084,36,01,22,138,31*7A
$GPGSV,3,3,12,31,14,037,28,02,06,311,16,11,05,154,21,37,28,151,*7E
$GPRMC,095327.000,A,4758.1036,N,00124.0402,W,0.00,173.88,231217,,,A*7C
$GPGGA,095328.000,4758.1036,N,00124.0402,W,1,11,0.8,64.3,M,48.1,M,,0000*74
$GPGSA,M,3,23,03,09,19,06,17,22,01,31,02,11,,1.4,0.8,1.1*31
$GPRMC,095328.000,A,4758.1036,N,00124.0402,W,0.00,173.88,231217,,,A*73
$GPGGA,095329.000,4758.1036,N,00124.0402,W,1,11,0.8,64.3,M,48.1,M,,0000*75
$GPGSA,M,3,23,03,09,19,06,17,22,01,31,02,11,,1.4,0.8,1.1*31
$GPRMC,095329.000,A,4758.1036,N,00124.0402,W,0.00,173.88,231217,,,A*72
$GPGGA,095330.000,4758.1036,N,00124.0402,W,1,11,0.8,64.3,M,48.1,M,,0000*7D
$GPGSA,M,3,23,03,09,19,06,17,22,01,31,02,11,,1.4,0.8,1.1*31
$GPRMC,095330.000,A,4758.1036,N,00124.0402,W,0.00,173.88,231217,,,A*7A
$GPGGA,095331.000,4758.1036,N,00124.0402,W,1,11,0.8,64.3,M,48.1,M,,0000*7C
$GPGSA,M,3,23,03,09,19,06,17,22,01,31,02,11,,1.4,0.8,1.1*31
$GPRMC,095331.000,A,4758.1036,N,00124.0402,W,0.00,173.88,231217,,,A*7B
arfcn: 12 bsic: 8 rxLev: -105 ber: 15.09 mcc: 208 mnc: 01 lac: 10300 cellId: 57177 cellStatus: CELL_FORBIDDEN numArfcn: 13 arfcn: 12 17 18 19 20 21 22 23 24 25 47 48 49 numChannels: 0 array:
arfcn: 92 rxLev: -105
arfcn: 83 rxLev: -105
arfcn: 121 rxLev: -105
arfcn: 998 rxLev: -105
arfcn: 1010 rxLev: -105
arfcn: 606 rxLev: -105
arfcn: 607 rxLev: -105
$GPGGA,095332.000,4758.1036,N,00124.0402,W,1,11,0.8,64.3,M,48.1,M,,0000*7F
arfcn: 611 rxLev: -105
$GPGSA,M,3,23,03,09,19,06,17,22,01,31,02,11,,1.4,0.8,1.1*31
arfcn: 608 rxLev: -106
arfcn: 1011 rxLev: -106
$GPGSV,3,1,12,23,75,140,37,03,52,073,36,09,48,205,46,19,41,261,34*70
arfcn: 1000 rxLev: -106
arfcn: 89 rxLev: -106
$GPGSV,3,2,12,06,37,306,35,17,36,235,43,22,32,084,35,01,22,138,31*78
arfcn: 93 rxLev: -106
arfcn: 31 rxLev: -106
$GPGSV,3,3,12,31,14,037,28,02,06,311,17,11,05,154,19,37,28,151,*74
arfcn: 25 rxLev: -106
$GPRMC,095332.000,A,4758.1036,N,00124.0402,W,0.00,173.88,231217,,,A*78
arfcn: 20 rxLev: -106
arfcn: 21 rxLev: -106
arfcn: 53 rxLev: -106
$GPGGA,095333.000,4758.1036,N,00124.0402,W,1,11,0.8,64.3,M,48.1,M,,0000*7E
arfcn: 55 rxLev: -106
arfcn: 52 rxLev: -106
$GPGSA,M,3,23,03,09,19,06,17,22,01,31,02,11,,1.4,0.8,1.1*31
arfcn: 47 rxLev: -106
arfcn: 41 rxLev: -106
$GPRMC,095333.000,A,4758.1036,N,00124.0402,W,0.00,173.88,231217,,,A*79
arfcn: 32 rxLev: -106
arfcn: 24 rxLev: -106
arfcn: 0 rxLev: -106
arfcn: 95 rxLev: -106
arfcn: 85 rxLev: -106
arfcn: 86 rxLev: -106
arfcn: 1012 rxLev: -106
arfcn: 1016 rxLev: -107
$GPGGA,095334.000,4758.1036,N,00124.0402,W,1,11,0.8,64.3,M,48.1,M,,0000*79
arfcn: 1017 rxLev: -107
$GPGSA,M,3,23,03,09,19,06,17,22,01,31,02,11,,1.4,0.8,1.1*31
arfcn: 1019 rxLev: -107
$GPRMC,095334.000,A,4758.1036,N,00124.0402,W,0.00,173.88,231217,,,A*7E
arfcn: 1023 rxLev: -107
arfcn: 1021 rxLev: -107
arfcn: 603 rxLev: -107
arfcn: 669 rxLev: -107
arfcn: 88 rxLev: -107
$GPGGA,095335.000,4758.1036,N,00124.0402,W,1,11,0.8,64.3,M,48.1,M,,0000*78
$GPGSA,M,3,23,03,09,19,06,17,22,01,31,02,11,,1.4,0.8,1.1*31
$GPRMC,095335.000,A,4758.1036,N,00124.0402,W,0.00,173.88,231217,,,A*7F
$GPGGA,095336.000,4758.1036,N,00124.0402,W,1,11,0.8,64.3,M,48.1,M,,0000*7B
$GPGSA,M,3,23,03,09,19,06,17,22,01,31,02,11,,1.4,0.8,1.1*31
arfcn: 81 bsic: 11 rxLev: -107 ber: 0.09 mcc: 208 mnc: 10 lac: 6001 cellId: 49645 cellStatus: CELL_FORBIDDEN numArfcn: 2 arfcn: 81 83 numChannels: 17 array: 77 78 79 80 82 83 85 86 87 113 114 115 117 118 120 122 124 pbcch: 0 nom: 2 rac: 61 spgc: 0 pat: 6 nco: 0 t3168: 1000 t3192: 500 drxmax: 2 ctrlAck: 0 bsCVmax: 9 alpha: 7 pcMeasCh: 1 
$GPRMC,095336.000,A,4758.1036,N,00124.0402,W,0.00,173.88,231217,,,A*7C
$GPGGA,095337.000,4758.1036,N,00124.0402,W,1,11,0.8,64.3,M,48.1,M,,0000*7A
$GPGSA,M,3,23,03,09,19,06,17,22,01,31,02,11,,1.4,0.8,1.1*31
$GPGSV,3,1,12,23,75,140,37,03,52,073,36,09,48,205,47,19,41,261,35*70
$GPGSV,3,2,12,06,37,306,31,17,36,235,43,22,32,084,37,01,22,138,32*7D
arfcn: 82 bsic: 4 rxLev: -107 ber: 0.09 mcc: 208 mnc: 10 lac: 6001 cellId: 13590 cellStatus: CELL_FORBIDDEN numArfcn: 3 arfcn: 78 80 82 numChannels: 13 array: 77 79 81 83 85 86 87 113 115 117 118 119 124 pbcch: 0 nom: 2 rac: 61 spgc: 0 pat: 6 nco: 0 t3168: 1000 t3192: 500 drxmax: 2 ctrlAck: 0 bsCVmax: 9 alpha: 7 pcMeasCh: 1 
arfcn: 94 rxLev: -107
$GPGSV,3,3,12,31,14,037,23,02,06,311,15,11,05,154,17,37,28,151,*73
arfcn: 90 rxLev: -107
arfcn: 1 rxLev: -107
$GPRMC,095337.000,A,4758.1036,N,00124.0402,W,0.00,173.88,231217,,,A*7D
arfcn: 9 rxLev: -107
arfcn: 26 rxLev: -107
arfcn: 30 rxLev: -107
$GPGGA,095338.000,4758.1036,N,00124.0402,W,1,11,0.8,64.3,M,48.1,M,,0000*75
arfcn: 29 rxLev: -107
arfcn: 37 rxLev: -107
$GPGSA,M,3,23,03,09,19,06,17,22,01,31,02,11,,1.4,0.8,1.1*31
arfcn: 40 rxLev: -107
arfcn: 45 rxLev: -107
$GPRMC,095338.000,A,4758.1036,N,00124.0402,W,0.00,173.88,231217,,,A*72
arfcn: 46 rxLev: -107
arfcn: 51 rxLev: -107
arfcn: 49 rxLev: -107
arfcn: 50 rxLev: -107
arfcn: 42 rxLev: -107
arfcn: 43 rxLev: -107
arfcn: 44 rxLev: -107
$GPGGA,095339.000,4758.1036,N,00124.0401,W,1,11,0.8,64.3,M,48.1,M,,0000*77
arfcn: 39 rxLev: -107
arfcn: 33 rxLev: -107
$GPGSA,M,3,23,03,09,19,06,17,22,01,31,02,11,,1.4,0.8,1.1*31
arfcn: 36 rxLev: -107
arfcn: 10 rxLev: -107
$GPRMC,095339.000,A,4758.1036,N,00124.0401,W,0.00,173.88,231217,,,A*70
arfcn: 80 rxLev: -107
arfcn: 97 rxLev: -107
arfcn: 98 rxLev: -107
arfcn: 99 rxLev: -107
arfcn: 665 rxLev: -107
arfcn: 604 rxLev: -107
arfcn: 545 rxLev: -107
arfcn: 1018 rxLev: -107
$GPGGA,095340.000,4758.1036,N,00124.0401,W,1,11,0.8,64.3,M,48.1,M,,0000*79
arfcn: 1013 rxLev: -107
$GPGSA,M,3,23,03,09,19,06,17,22,01,31,02,11,,1.4,0.8,1.1*31
arfcn: 1014 rxLev: -107
arfcn: 1015 rxLev: -107
$GPRMC,095340.000,A,4758.1036,N,00124.0401,W,0.00,173.88,231217,,,A*7E
arfcn: 546 rxLev: -108
arfcn: 548 rxLev: -108
arfcn: 1020 rxLev: -108
arfcn: 610 rxLev: -108
arfcn: 666 rxLev: -108
arfcn: 667 rxLev: -108
arfcn: 861 rxLev: -108
$GPGGA,095341.000,4758.1036,N,00124.0401,W,1,11,0.8,64.3,M,48.1,M,,0000*78
arfcn: 101 rxLev: -108
arfcn: 119 rxLev: -108
$GPGSA,M,3,23,03,09,19,06,17,22,01,31,02,11,,1.4,0.8,1.1*31
arfcn: 96 rxLev: -108
arfcn: 3 rxLev: -108
$GPRMC,095341.000,A,4758.1036,N,00124.0401,W,0.00,173.88,231217,,,A*7F
arfcn: 34 rxLev: -108
arfcn: 38 rxLev: -108
Network survey ended
Survey end at #CCLK: "17/12/23,10:53:42+04"
Survey duration: 56 seconds, 9 bases detected over 175 freqs scanned.
$GPGGA,095342.000,4758.1035,N,00124.0401,W,1,11,0.8,64.3,M,48.1,M,,0000*78
$GPGSA,M,3,23,03,09,19,06,17,22,01,31,02,11,,1.4,0.8,1.1*31
$GPGSV,3,1,12,23,75,140,37,03,52,073,36,09,48,205,48,19,41,261,35*7F
$GPGSV,3,2,12,06,37,306,31,17,36,235,43,22,32,084,38,01,22,138,33*73
$GPGSV,3,3,12,31,14,037,24,02,06,311,14,11,05,154,17,37,28,151,*75
$GPRMC,095342.000,A,4758.1035,N,00124.0401,W,0.00,173.88,231217,,,A*7F
$GPGGA,095343.000,4758.1035,N,00124.0401,W,1,11,0.8,64.3,M,48.1,M,,0000*79
$GPGSA,M,3,23,03,09,19,06,17,22,01,31,02,11,,1.4,0.8,1.1*31
Survey start at #CCLK: "17/12/23,10:53:44+04"
$GPRMC,095343.000,A,4758.1035,N,00124.0401,W,0.00,173.88,231217,,,A*7E
at#csurv
Network survey started ...
$GPGGA,095344.000,4758.1035,N,00124.0401,W,1,11,0.8,64.3,M,48.1,M,,0000*7E
$GPGSA,M,3,23,03,09,19,06,17,22,01,31,02,11,,1.4,0.8,1.1*31
$GPRMC,095344.000,A,4758.1035,N,00124.0401,W,0.00,173.88,231217,,,A*79
$GPGGA,095345.000,4758.1035,N,00124.0401,W,1,10,0.9,64.3,M,48.1,M,,0000*7F
$GPGSA,M,3,23,03,09,19,06,17,22,01,31,11,,,1.6,0.9,1.4*35
$GPRMC,095345.000,A,4758.1035,N,00124.0401,W,0.00,173.88,231217,,,A*78
$GPGGA,095346.000,4758.1035,N,00124.0401,W,1,10,0.9,64.3,M,48.1,M,,0000*7C
$GPGSA,M,3,23,03,09,19,06,17,22,01,31,11,,,1.6,0.9,1.4*35
$GPRMC,095346.000,A,4758.1035,N,00124.0401,W,0.00,173.88,231217,,,A*7B
$GPGGA,095347.000,4758.1035,N,00124.0401,W,1,09,1.0,64.3,M,48.1,M,,0000*7D
$GPGSA,M,3,23,03,09,19,06,17,22,01,31,,,,2.0,1.0,1.8*34
$GPGSV,3,1,12,23,75,139,37,03,52,074,35,09,48,205,49,19,41,260,35*75
$GPGSV,3,2,12,06,37,306,31,17,36,235,44,22,32,084,39,01,22,138,33*75
$GPGSV,3,3,12,31,14,037,25,02,06,311,04,11,05,154,17,37,28,151,*75
$GPRMC,095347.000,A,4758.1035,N,00124.0401,W,0.00,173.88,231217,,,A*7A
$GPGGA,095348.000,4758.1035,N,00124.0401,W,1,09,1.0,64.3,M,48.1,M,,0000*72
$GPGSA,M,3,23,03,09,19,06,17,22,01,31,,,,2.0,1.0,1.8*34
$GPRMC,095348.000,A,4758.1035,N,00124.0401,W,0.00,173.88,231217,,,A*75
$GPGGA,095349.000,4758.1035,N,00124.0401,W,1,09,1.0,64.3,M,48.1,M,,0000*73
$GPGSA,M,3,23,03,09,19,06,17,22,01,31,,,,2.0,1.0,1.8*34
$GPRMC,095349.000,A,4758.1035,N,00124.0401,W,0.00,173.88,231217,,,A*74
arfcn: 8 rxLev: -91
arfcn: 124 rxLev: -91
$GPGGA,095350.000,4758.1035,N,00124.0401,W,1,09,1.0,64.3,M,48.1,M,,0000*7B
arfcn: 977 rxLev: -93
arfcn: 68 rxLev: -93
$GPGSA,M,3,23,03,09,19,06,17,22,01,31,,,,2.0,1.0,1.8*34
$GPRMC,095350.000,A,4758.1035,N,00124.0401,W,0.00,173.88,231217,,,A*7C
$GPGGA,095351.000,4758.1035,N,00124.0401,W,1,09,1.0,64.3,M,48.1,M,,0000*7A
$GPGSA,M,3,23,03,09,19,06,17,22,01,31,,,,2.0,1.0,1.8*34
$GPRMC,095351.000,A,4758.1035,N,00124.0401,W,0.00,173.88,231217,,,A*7D
arfcn: 13 bsic: 59 rxLev: -95 ber: 0.04 mcc: 208 mnc: 01 lac: 10300 cellId: 1558 cellStatus: CELL_FORBIDDEN numArfcn: 13 arfcn: 13 17 18 19 20 21 22 23 24 25 47 48 49 numChannels: 14 array: 1 2 3 4 5 6 7 9 11 12 13 14 15 16 pbcch: 0 nom: 2 rac: 1 spgc: 1 pat: 6 nco: 0 t3168: 1000 t3192: 500 drxmax: 4 ctrlAck: 1 bsCVmax: 9 alpha: 7 pcMeasCh: 0 
arfcn: 78 rxLev: -97
$GPGGA,095352.000,4758.1035,N,00124.0401,W,1,09,1.0,64.3,M,48.1,M,,0000*79
$GPGSA,M,3,23,03,09,19,06,17,22,01,31,,,,2.0,1.0,1.8*34
$GPGSV,3,1,12,23,75,139,37,03,52,074,35,09,48,205,49,19,41,260,35*75
$GPGSV,3,2,12,06,37,306,31,17,36,235,44,22,32,084,39,01,22,138,34*72
$GPGSV,3,3,12,31,14,037,26,02,06,311,04,37,28,151,,11,05,154,*70
$GPRMC,095352.000,A,4758.1035,N,00124.0401,W,0.00,173.88,231217,,,A*7E
$GPGGA,095353.000,4758.1035,N,00124.0401,W,1,09,1.0,64.3,M,48.1,M,,0000*78
$GPGSA,M,3,23,03,09,19,06,17,22,01,31,,,,2.0,1.0,1.8*34
arfcn: 81 bsic: 11 rxLev: -97 ber: 2.05 mcc: 208 mnc: 10 lac: 6001 cellId: 49645 cellStatus: CELL_FORBIDDEN numArfcn: 2 arfcn: 81 83 numChannels: 17 array: 77 78 79 80 82 83 85 86 87 113 114 115 117 118 120 122 124 pbcch: 0 nom: 2 rac: 61 spgc: 0 pat: 6 nco: 0 t3168: 1000 t3192: 500 drxmax: 2 ctrlAck: 0 bsCVmax: 9 alpha: 7 pcMeasCh: 1 
arfcn: 609 rxLev: -97
$GPRMC,095353.000,A,4758.1035,N,00124.0401,W,0.00,173.88,231217,,,A*7F
arfcn: 729 rxLev: -98
$GPGGA,095354.000,4758.1035,N,00124.0401,W,1,09,1.0,64.3,M,48.1,M,,0000*7F
$GPGSA,M,3,23,03,09,19,06,17,22,01,31,,,,2.0,1.0,1.8*34
$GPRMC,095354.000,A,4758.1035,N,00124.0401,W,0.00,173.88,231217,,,A*78
$GPGGA,095355.000,4758.1035,N,00124.0401,W,1,09,1.0,64.3,M,48.1,M,,0000*7E
$GPGSA,M,3,23,03,09,19,06,17,22,01,31,,,,2.0,1.0,1.8*34
$GPRMC,095355.000,A,4758.1035,N,00124.0401,W,0.00,173.88,231217,,,A*79
$GPGGA,095356.000,4758.1035,N,00124.0401,W,1,09,1.0,64.3,M,48.1,M,,0000*7D
$GPGSA,M,3,23,03,09,19,06,17,22,01,31,,,,2.0,1.0,1.8*34
$GPRMC,095356.000,A,4758.1035,N,00124.0401,W,0.00,173.88,231217,,,A*7A
$GPGGA,095357.000,4758.1035,N,00124.0401,W,1,09,1.0,64.3,M,48.1,M,,0000*7C
$GPGSA,M,3,23,03,09,19,06,17,22,01,31,,,,2.0,1.0,1.8*34
$GPGSV,3,1,12,23,75,139,36,03,52,074,35,09,48,205,49,19,41,260,35*74
arfcn: 82 bsic: 4 rxLev: -98 ber: 0.06 mcc: 208 mnc: 10 lac: 6001 cellId: 13590 cellStatus: CELL_FORBIDDEN numArfcn: 3 arfcn: 78 80 82 numChannels: 13 array: 77 79 81 83 85 86 87 113 115 117 118 119 124 pbcch: 0 nom: 2 rac: 61 spgc: 0 pat: 6 nco: 0 t3168: 1000 t3192: 500 drxmax: 2 ctrlAck: 0 bsCVmax: 9 alpha: 7 pcMeasCh: 1 
arfcn: 67 rxLev: -98
$GPGSV,3,2,12,06,38,306,31,17,36,235,44,22,32,084,39,01,22,138,34*7D
arfcn: 66 rxLev: -98
$GPGSV,3,3,12,31,14,037,26,02,06,311,04,36,26,138,,11,05,154,*70
$GPRMC,095357.000,A,4758.1035,N,00124.0401,W,0.00,173.88,231217,,,A*7B
$GPGGA,095358.000,4758.1035,N,00124.0401,W,1,09,1.0,64.3,M,48.1,M,,0000*73
$GPGSA,M,3,23,03,09,19,06,17,22,01,31,,,,2.0,1.0,1.8*34
$GPRMC,095358.000,A,4758.1035,N,00124.0401,W,0.00,173.88,231217,,,A*74
$GPGGA,095359.000,4758.1035,N,00124.0401,W,1,09,1.0,64.3,M,48.1,M,,0000*72
$GPGSA,M,3,23,03,09,19,06,17,22,01,31,,,,2.0,1.0,1.8*34
$GPRMC,095359.000,A,4758.1035,N,00124.0401,W,0.00,173.88,231217,,,A*75
arfcn: 115 bsic: 8 rxLev: -98 ber: 0.07 mcc: 208 mnc: 10 lac: 6001 cellId: 30875 cellStatus: CELL_FORBIDDEN numArfcn: 2 arfcn: 111 115 numChannels: 16 array: 77 78 79 80 81 82 83 85 87 113 114 117 118 120 122 124 pbcch: 0 nom: 2 rac: 61 spgc: 0 pat: 6 nco: 0 t3168: 1000 t3192: 500 drxmax: 2 ctrlAck: 0 bsCVmax: 9 alpha: 7 pcMeasCh: 1 
arfcn: 978 rxLev: -99
arfcn: 123 rxLev: -99
arfcn: 75 rxLev: -99
arfcn: 80 rxLev: -99
arfcn: 63 rxLev: -99
arfcn: 849 rxLev: -99
arfcn: 1022 bsic: 45 rxLev: -100 ber: 1.07 mcc: 208 mnc: 20 lac: 284 cellId: 38538 cellStatus: CELL_SUITABLE numArfcn: 1 arfcn: 1022 numChannels: 23 array: 975 976 979 980 981 982 984 986 987 1011 1012 1013 1014 1015 1017 1018 1020 1021 1022 788 876 881 884 pbcch: 0 nom: 2 rac: 6 spgc: 0 pat: 6 nco: 0 t3168: 1500 t3192: 500 drxmax: 0 ctrlAck: 0 bsCVmax: 8 alpha: 6 pcMeasCh: 1 
arfcn: 975 rxLev: -100
$GPGGA,095400.000,4758.1035,N,00124.0401,W,1,09,1.0,64.3,M,48.1,M,,0000*79
arfcn: 98 rxLev: -100
arfcn: 100 rxLev: -100
$GPGSA,M,3,23,03,09,19,06,17,22,01,31,,,,2.0,1.0,1.8*34
arfcn: 99 rxLev: -100
arfcn: 97 rxLev: -100
$GPRMC,095400.000,A,4758.1035,N,00124.0401,W,0.00,173.88,231217,,,A*7E
arfcn: 120 rxLev: -100
arfcn: 94 rxLev: -100
arfcn: 79 rxLev: -100
arfcn: 60 rxLev: -100
arfcn: 61 rxLev: -100
arfcn: 58 rxLev: -100
arfcn: 5 rxLev: -100
arfcn: 59 rxLev: -101
$GPGGA,095401.000,4758.1035,N,00124.0401,W,1,09,1.0,64.3,M,48.1,M,,0000*78
arfcn: 55 rxLev: -101
arfcn: 73 rxLev: -101
$GPGSA,M,3,23,03,09,19,06,17,22,01,31,,,,2.0,1.0,1.8*34
arfcn: 64 rxLev: -101
arfcn: 95 rxLev: -101
$GPRMC,095401.000,A,4758.1035,N,00124.0401,W,0.00,173.88,231217,,,A*7F
arfcn: 92 rxLev: -101
arfcn: 93 rxLev: -101
$GPGGA,095402.000,4758.1035,N,00124.0401,W,1,09,1.0,64.3,M,48.1,M,,0000*7B
$GPGSA,M,3,23,03,09,19,06,17,22,01,31,,,,2.0,1.0,1.8*34
$GPGSV,3,1,12,23,75,139,35,03,52,074,35,09,48,205,49,19,41,260,34*76
$GPGSV,3,2,12,06,38,306,32,17,36,235,44,22,32,084,39,01,22,138,34*7E
$GPGSV,3,3,12,31,14,037,26,36,26,138,,02,06,311,,11,05,154,*74
$GPRMC,095402.000,A,4758.1035,N,00124.0401,W,0.00,173.88,231217,,,A*7C
$GPGGA,095403.000,4758.1035,N,00124.0401,W,1,09,1.0,64.3,M,48.1,M,,0000*7A
$GPGSA,M,3,23,03,09,19,06,17,22,01,31,,,,2.0,1.0,1.8*34
$GPRMC,095403.000,A,4758.1035,N,00124.0401,W,0.00,173.88,231217,,,A*7D
$GPGGA,095404.000,4758.1035,N,00124.0401,W,1,09,1.0,64.3,M,48.1,M,,0000*7D
$GPGSA,M,3,23,03,09,19,06,17,22,01,31,,,,2.0,1.0,1.8*34
$GPRMC,095404.000,A,4758.1035,N,00124.0401,W,0.00,173.88,231217,,,A*7A
$GPGGA,095405.000,4758.1035,N,00124.0401,W,1,09,1.0,64.3,M,48.1,M,,0000*7C
$GPGSA,M,3,23,03,09,19,06,17,22,01,31,,,,2.0,1.0,1.8*34
arfcn: 87 bsic: 34 rxLev: -101 ber: 6.06 mcc: 208 mnc: 10 lac: 30514 cellId: 20354 cellStatus: CELL_FORBIDDEN numArfcn: 3 arfcn: 84 85 87 numChannels: 15 array: 77 78 79 80 81 82 83 86 113 114 115 117 120 123 124 pbcch: 0 nom: 2 rac: 1 spgc: 0 pat: 6 nco: 0 t3168: 1500 t3192: 500 drxmax: 0 ctrlAck: 0 bsCVmax: 8 alpha: 6 pcMeasCh: 1 
arfcn: 96 rxLev: -101
$GPRMC,095405.000,A,4758.1035,N,00124.0401,W,0.00,173.88,231217,,,A*7B
arfcn: 101 rxLev: -101
arfcn: 103 rxLev: -101
arfcn: 104 rxLev: -101
arfcn: 105 rxLev: -101
arfcn: 106 rxLev: -101
arfcn: 976 rxLev: -101
$GPGGA,095406.000,4758.1035,N,00124.0401,W,1,09,1.0,64.3,M,48.1,M,,0000*7F
arfcn: 979 rxLev: -101
arfcn: 54 rxLev: -101
$GPGSA,M,3,23,03,09,19,06,17,22,01,31,,,,2.0,1.0,1.8*34
arfcn: 56 rxLev: -101
arfcn: 57 rxLev: -101
$GPRMC,095406.000,A,4758.1035,N,00124.0401,W,0.00,173.88,231217,,,A*78
arfcn: 62 rxLev: -101
$GPGGA,095407.000,4758.1035,N,00124.0401,W,1,09,1.0,64.3,M,48.1,M,,0000*7E
$GPGSA,M,3,23,03,09,19,06,17,22,01,31,,,,2.0,1.0,1.8*34
$GPGSV,3,1,12,23,75,139,35,03,52,074,36,09,48,205,49,19,41,260,34*75
$GPGSV,3,2,12,06,38,306,32,17,36,235,44,22,32,084,40,01,22,138,34*70
$GPGSV,3,3,12,31,14,037,26,36,26,138,,02,06,311,,11,05,154,*74
$GPRMC,095407.000,A,4758.1035,N,00124.0401,W,0.00,173.88,231217,,,A*79
arfcn: 11 bsic: 30 rxLev: -101 ber: 1.06 mcc: FFF mnc: FF lac: 65535 cellId: 0 cellStatus: CELL_OTHER numArfcn: 0 arfcn: numChannels: 0 array:
arfcn: 982 rxLev: -101
$GPGGA,095408.000,4758.1035,N,00124.0401,W,1,09,1.0,64.3,M,48.1,M,,0000*71
$GPGSA,M,3,23,03,09,19,06,17,22,01,31,,,,2.0,1.0,1.8*34
arfcn: 53 rxLev: -102
arfcn: 102 rxLev: -102
$GPRMC,095408.000,A,4758.1035,N,00124.0401,W,0.00,173.88,231217,,,A*76
arfcn: 91 rxLev: -102
arfcn: 65 rxLev: -102
arfcn: 70 rxLev: -102
arfcn: 72 rxLev: -102
arfcn: 74 rxLev: -102
arfcn: 71 rxLev: -102
arfcn: 69 rxLev: -102
arfcn: 107 rxLev: -102
arfcn: 980 rxLev: -102
$GPGGA,095409.000,4758.1035,N,00124.0401,W,1,09,1.0,64.3,M,48.1,M,,0000*70
arfcn: 14 rxLev: -102
$GPGSA,M,3,23,03,09,19,06,17,22,01,31,,,,2.0,1.0,1.8*34
arfcn: 7 rxLev: -102
arfcn: 981 rxLev: -102
$GPRMC,095409.000,A,4758.1035,N,00124.0401,W,0.00,173.88,231217,,,A*77
arfcn: 983 rxLev: -102
arfcn: 993 rxLev: -103
arfcn: 122 rxLev: -103
arfcn: 108 rxLev: -103
arfcn: 90 rxLev: -103
arfcn: 89 rxLev: -103
arfcn: 76 rxLev: -103
arfcn: 77 rxLev: -103
arfcn: 992 rxLev: -103
$GPGGA,095410.000,4758.1035,N,00124.0401,W,1,09,1.0,64.3,M,48.1,M,,0000*78
arfcn: 1017 rxLev: -103
$GPGSA,M,3,23,03,09,19,06,17,22,01,31,,,,2.0,1.0,1.8*34
arfcn: 546 rxLev: -104
$GPRMC,095410.000,A,4758.1035,N,00124.0401,W,0.00,173.88,231217,,,A*7F
arfcn: 605 rxLev: -104
arfcn: 991 rxLev: -104
arfcn: 994 rxLev: -104
arfcn: 109 rxLev: -104
arfcn: 52 rxLev: -104
arfcn: 49 rxLev: -104
arfcn: 40 rxLev: -104
arfcn: 41 rxLev: -104
$GPGGA,095411.000,4758.1035,N,00124.0401,W,1,09,1.0,64.3,M,48.1,M,,0000*79
arfcn: 44 rxLev: -104
arfcn: 6 rxLev: -104
$GPGSA,M,3,23,03,09,19,06,17,22,01,31,,,,2.0,1.0,1.8*34
arfcn: 9 rxLev: -104
arfcn: 121 rxLev: -104
$GPRMC,095411.000,A,4758.1035,N,00124.0401,W,0.00,173.88,231217,,,A*7E
arfcn: 86 rxLev: -104
arfcn: 995 rxLev: -104
arfcn: 990 rxLev: -104
arfcn: 987 rxLev: -104
arfcn: 1005 rxLev: -104
arfcn: 1007 rxLev: -104
arfcn: 1008 rxLev: -104
arfcn: 1006 rxLev: -105
$GPGGA,095412.000,4758.1035,N,00124.0401,W,1,09,1.0,64.3,M,48.1,M,,0000*7A
arfcn: 1003 rxLev: -105
arfcn: 1004 rxLev: -105
$GPGSA,M,3,23,03,09,19,06,17,22,01,31,,,,2.0,1.0,1.8*34
arfcn: 996 rxLev: -105
$GPGSV,3,1,12,23,75,139,36,03,52,074,36,09,48,205,49,19,41,260,34*76
