$GPGGA,150847.000,4719.0558,N,00130.5399,W,1,07,1.5,13.2,M,48.5,M,,0000*7C
Survey start at #CCLK: "17/12/29,16:08:47+04"
at#csurv
Network survey started ...
$GPGSA,M,3,13,05,28,20,30,15,07,,,,,,2.9,1.5,2.5*39
Survey end at #CCLK: "17/12/29,16:08:47+04"
Survey duration: 0 seconds, 0 bases detected over 0 freqs scanned.
$GPRMC,150847.000,A,4719.0558,N,00130.5399,W,1.71,174.93,291217,,,A*75
$GPGGA,150848.000,4719.0551,N,00130.5397,W,1,07,1.5,13.5,M,48.5,M,,0000*73
$GPGSA,M,3,13,05,28,20,30,15,07,,,,,,2.9,1.5,2.5*39
$GPGSV,3,1,12,13,70,310,33,05,51,190,31,28,48,098,42,20,47,287,31*7B
$GPGSV,3,2,12,30,40,058,36,15,38,293,36,07,14,058,25,08,04,032,19*7B
$GPGSV,3,3,12,21,12,306,25,24,05,241,24,33,33,198,26,04,03,218,*72
$GPRMC,150848.000,A,4719.0551,N,00130.5397,W,2.09,176.92,291217,,,A*72
Survey start at #CCLK: "17/12/29,16:08:49+04"
at#csurv
Network survey started ...
$GPGGA,150849.000,4719.0544,N,00130.5400,W,1,07,1.5,13.0,M,48.5,M,,0000*7A
$GPGSA,M,3,13,05,28,20,30,15,07,,,,,,2.9,1.5,2.5*39
$GPRMC,150849.000,A,4719.0544,N,00130.5400,W,2.32,184.68,291217,,,A*7E
$GPGGA,150850.000,4719.0536,N,00130.5404,W,1,07,1.5,13.1,M,48.5,M,,0000*72
$GPGSA,M,3,13,05,28,20,30,15,07,,,,,,2.9,1.5,2.5*39
$GPRMC,150850.000,A,4719.0536,N,00130.5404,W,2.45,190.42,291217,,,A*7A
$GPGGA,150851.000,4719.0522,N,00130.5426,W,1,07,1.5,12.4,M,48.5,M,,0000*72
$GPGSA,M,3,13,05,28,20,30,15,07,,,,,,2.9,1.5,2.5*39
$GPRMC,150851.000,A,4719.0522,N,00130.5426,W,9.03,208.27,291217,,,A*76
$GPGGA,150852.000,4719.0500,N,00130.5475,W,1,07,1.5,12.7,M,48.5,M,,0000*74
$GPGSA,M,3,13,05,28,20,30,15,07,,,,,,2.9,1.5,2.5*39
$GPRMC,150852.000,A,4719.0500,N,00130.5475,W,13.25,240.32,291217,,,A*44
$GPGGA,150853.000,4719.0486,N,00130.5525,W,1,07,1.5,12.6,M,48.5,M,,0000*7F
$GPGSA,M,3,13,05,28,20,30,15,07,,,,,,2.9,1.5,2.5*39
$GPGSV,3,1,12,13,70,310,32,05,51,190,40,28,48,098,38,20,47,287,37*77
$GPGSV,3,2,12,30,40,058,21,15,38,293,43,07,14,058,26,08,04,032,18*7D
$GPGSV,3,3,12,21,12,306,33,24,05,241,30,33,33,198,28,04,03,218,*7E
$GPRMC,150853.000,A,4719.0486,N,00130.5525,W,13.57,243.32,291217,,,A*48
$GPGGA,150854.000,4719.0470,N,00130.5581,W,1,07,1.5,12.4,M,48.5,M,,0000*7D
$GPGSA,M,3,13,05,28,20,30,15,07,,,,,,2.9,1.5,2.5*39
$GPRMC,150854.000,A,4719.0470,N,00130.5581,W,14.55,245.00,291217,,,A*4A
arfcn: 978 bsic: 40 rxLev: -82 ber: 0.00 mcc: 208 mnc: 20 lac: 420 cellId: 38409 cellStatus: CELL_SUITABLE numArfcn: 5 arfcn: 874 876 978 987 1020 numChannels: 24 array: 975 976 977 978 980 981 982 983 985 1011 1012 1014 1015 1016 1017 1019 1021 1022 791 792 880 881 884 885 pbcch: 0 nom: 2 rac: 7 spgc: 0 pat: 6 nco: 0 t3168: 1500 t3192: 500 drxmax: 0 ctrlAck: 0 bsCVmax: 8 alpha: 6 pcMeasCh: 1 
$GPGGA,150855.000,4719.0453,N,00130.5642,W,1,07,1.5,12.0,M,48.5,M,,0000*75
$GPGSA,M,3,13,05,28,20,30,15,07,,,,,,2.9,1.5,2.5*39
$GPRMC,150855.000,A,4719.0453,N,00130.5642,W,15.40,246.37,291217,,,A*44
$GPGGA,150856.000,4719.0435,N,00130.5707,W,1,07,1.5,12.3,M,48.5,M,,0000*75
$GPGSA,M,3,13,05,28,20,30,15,07,,,,,,2.9,1.5,2.5*39
$GPRMC,150856.000,A,4719.0435,N,00130.5707,W,16.43,247.50,291217,,,A*47
$GPGGA,150857.000,4719.0414,N,00130.5773,W,1,07,1.5,12.5,M,48.5,M,,0000*72
$GPGSA,M,3,13,05,28,20,30,15,07,,,,,,2.9,1.5,2.5*39
$GPRMC,150857.000,A,4719.0414,N,00130.5773,W,16.96,245.60,291217,,,A*4F
$GPGGA,150858.000,4719.0392,N,00130.5844,W,1,07,1.5,13.4,M,48.5,M,,0000*7F
$GPGSA,M,3,13,05,28,20,30,15,07,,,,,,2.9,1.5,2.5*39
$GPGSV,3,1,12,13,70,310,31,05,51,190,37,28,48,098,29,20,47,287,32*71
$GPGSV,3,2,12,30,40,058,26,15,38,293,42,07,14,058,29,08,04,032,18*74
$GPGSV,3,3,12,18,01,323,16,21,12,306,34,24,05,241,30,33,33,198,*72
$GPRMC,150858.000,A,4719.0392,N,00130.5844,W,16.99,244.08,291217,,,A*42
$GPGGA,150859.000,4719.0370,N,00130.5910,W,1,07,1.5,15.2,M,48.5,M,,0000*72
$GPGSA,M,3,13,05,28,20,30,15,07,,,,,,2.9,1.5,2.5*39
$GPRMC,150859.000,A,4719.0370,N,00130.5910,W,15.14,244.18,291217,,,A*48
$GPGGA,150900.000,4719.0354,N,00130.5966,W,1,07,1.5,16.2,M,48.5,M,,0000*7B
$GPGSA,M,3,13,05,28,20,30,15,07,,,,,,2.9,1.5,2.5*39
arfcn: 981 bsic: 38 rxLev: -83 ber: 0.08 mcc: 208 mnc: 20 lac: 60 cellId: 20259 cellStatus: CELL_SUITABLE numArfcn: 1 arfcn: 981 numChannels: 19 array: 787 788 791 793 877 880 882 884 975 977 978 982 983 985 1011 1012 1013 1015 1016 pbcch: 0 nom: 2 rac: 1 spgc: 0 pat: 6 nco: 0 t3168: 1500 t3192: 500 drxmax: 0 ctrlAck: 0 bsCVmax: 8 alpha: 6 pcMeasCh: 1 
$GPRMC,150900.000,A,4719.0354,N,00130.5966,W,13.03,244.50,291217,,,A*4E
$GPGGA,150901.000,4719.0342,N,00130.6011,W,1,07,1.5,16.6,M,48.5,M,,0000*73
$GPGSA,M,3,13,05,28,20,30,15,07,,,,,,2.9,1.5,2.5*39
$GPRMC,150901.000,A,4719.0342,N,00130.6011,W,10.29,246.55,291217,,,A*4E
$GPGGA,150902.000,4719.0332,N,00130.6045,W,1,07,1.5,17.2,M,48.5,M,,0000*73
$GPGSA,M,3,13,05,28,20,30,15,07,,,,,,2.9,1.5,2.5*39
$GPRMC,150902.000,A,4719.0332,N,00130.6045,W,7.20,245.79,291217,,,A*79
arfcn: 983 bsic: 12 rxLev: -83 ber: 0.00 mcc: 208 mnc: 20 lac: 60 cellId: 21709 cellStatus: CELL_SUITABLE numArfcn: 2 arfcn: 983 1022 numChannels: 18 array: 788 791 876 880 884 975 977 978 980 981 982 985 1012 1014 1015 1016 1017 1018 pbcch: 0 nom: 2 rac: 7 spgc: 0 pat: 6 nco: 0 t3168: 1500 t3192: 500 drxmax: 0 ctrlAck: 0 bsCVmax: 8 alpha: 6 pcMeasCh: 1 
$GPGGA,150903.000,4719.0324,N,00130.6067,W,1,07,1.5,18.4,M,48.5,M,,0000*7C
$GPGSA,M,3,13,05,28,20,30,15,07,,,,,,2.9,1.5,2.5*39
$GPGSV,3,1,12,13,70,310,32,05,51,190,40,28,48,098,41,20,47,287,33*7D
$GPGSV,3,2,12,30,40,058,31,15,38,293,39,07,14,058,29,08,04,032,26*73
$GPGSV,3,3,12,18,01,323,16,21,12,306,25,24,05,241,29,33,33,198,38*71
$GPRMC,150903.000,A,4719.0324,N,00130.6067,W,4.42,244.03,291217,,,A*74
$GPGGA,150904.000,4719.0318,N,00130.6077,W,1,07,1.5,19.2,M,48.5,M,,0000*72
$GPGSA,M,3,13,05,28,20,30,15,07,,,,,,2.9,1.5,2.5*39
$GPRMC,150904.000,A,4719.0318,N,00130.6077,W,1.97,241.83,291217,,,A*7D
$GPGGA,150905.000,4719.0319,N,00130.6076,W,1,07,1.5,19.1,M,48.5,M,,0000*70
$GPGSA,M,3,13,05,28,20,30,15,07,,,,,,2.9,1.5,2.5*39
$GPRMC,150905.000,A,4719.0319,N,00130.6076,W,0.01,241.83,291217,,,A*72
$GPGGA,150906.000,4719.0319,N,00130.6076,W,1,07,1.5,19.1,M,48.5,M,,0000*73
$GPGSA,M,3,13,05,28,20,30,15,07,,,,,,2.9,1.5,2.5*39
$GPRMC,150906.000,A,4719.0319,N,00130.6076,W,0.00,241.83,291217,,,A*70
$GPGGA,150907.000,4719.0319,N,00130.6078,W,1,07,1.5,19.5,M,48.5,M,,0000*78
$GPGSA,M,3,13,05,28,20,30,15,07,,,,,,2.9,1.5,2.5*39
$GPRMC,150907.000,A,4719.0319,N,00130.6078,W,0.83,241.83,291217,,,A*74
$GPGGA,150908.000,4719.0317,N,00130.6083,W,1,07,1.5,19.2,M,48.5,M,,0000*7A
$GPGSA,M,3,13,05,28,20,30,15,07,,,,,,2.9,1.5,2.5*39
$GPGSV,3,1,12,13,70,310,29,05,51,190,42,28,48,098,42,20,47,287,33*76
$GPGSV,3,2,12,30,40,058,33,15,38,293,42,07,14,058,37,08,04,032,26*72
arfcn: 977 bsic: 40 rxLev: -84 ber: 0.00 mcc: 208 mnc: 20 lac: 420 cellId: 38835 cellStatus: CELL_SUITABLE numArfcn: 3 arfcn: 977 1018 1020 numChannels: 20 array: 789 794 879 880 884 975 977 980 981 982 985 1011 1012 1014 1015 1016 1017 1018 1019 1021 pbcch: 0 nom: 2 rac: 6 spgc: 0 pat: 6 nco: 0 t3168: 1500 t3192: 500 drxmax: 0 ctrlAck: 0 bsCVmax: 8 alpha: 6 pcMeasCh: 1 
$GPGSV,3,3,12,18,01,323,16,21,12,306,35,24,05,241,30,33,33,198,30*70
$GPRMC,150908.000,A,4719.0317,N,00130.6083,W,3.58,226.32,291217,,,A*7F
$GPGGA,150909.000,4719.0306,N,00130.6094,W,1,07,1.4,19.3,M,48.5,M,,0000*7D
$GPGSA,M,3,13,05,28,20,30,15,07,,,,,,2.9,1.4,2.5*38
$GPRMC,150909.000,A,4719.0306,N,00130.6094,W,5.86,208.41,291217,,,A*75
$GPGGA,150910.000,4719.0286,N,00130.6097,W,1,07,1.4,19.1,M,48.5,M,,0000*7D
$GPGSA,M,3,13,05,28,20,30,15,07,,,,,,2.9,1.4,2.5*38
$GPRMC,150910.000,A,4719.0286,N,00130.6097,W,7.90,190.89,291217,,,A*74
$GPGGA,150911.000,4719.0260,N,00130.6084,W,1,07,1.4,19.1,M,48.5,M,,0000*76
$GPGSA,M,3,13,05,28,20,30,15,07,,,,,,2.9,1.4,2.5*38
$GPRMC,150911.000,A,4719.0260,N,00130.6084,W,10.50,157.06,291217,,,A*49
arfcn: 975 bsic: 14 rxLev: -88 ber: 0.00 mcc: 208 mnc: 20 lac: 420 cellId: 38411 cellStatus: CELL_SUITABLE numArfcn: 3 arfcn: 975 986 1010 numChannels: 21 array: 789 794 880 884 975 977 978 980 981 982 983 985 1012 1013 1014 1015 1016 1017 1019 1021 1022 pbcch: 0 nom: 2 rac: 7 spgc: 0 pat: 6 nco: 0 t3168: 1500 t3192: 500 drxmax: 0 ctrlAck: 0 bsCVmax: 8 alpha: 6 pcMeasCh: 1 
$GPGGA,150912.000,4719.0225,N,00130.6059,W,1,07,1.4,18.6,M,48.5,M,,0000*72
$GPGSA,M,3,13,05,28,20,30,15,07,,,,,,2.9,1.4,2.5*38
$GPRMC,150912.000,A,4719.0225,N,00130.6059,W,14.30,147.59,291217,,,A*42
$GPGGA,150913.000,4719.0185,N,00130.6023,W,1,07,1.4,18.1,M,48.5,M,,0000*70
$GPGSA,M,3,13,05,28,20,30,15,07,,,,,,2.9,1.4,2.5*38
arfcn: 15 bsic: 29 rxLev: -88 ber: 0.00 mcc: 208 mnc: 01 lac: 6404 cellId: 28109 cellStatus: CELL_FORBIDDEN numArfcn: 13 arfcn: 15 17 18 19 20 21 22 23 24 25 47 48 49 numChannels: 15 array: 1 2 4 5 7 8 9 10 11 12 13 14 513 604 609 pbcch: 0 nom: 2 rac: 1 spgc: 0 pat: 6 nco: 0 t3168: 1000 t3192: 500 drxmax: 2 ctrlAck: 0 bsCVmax: 9 alpha: 5 pcMeasCh: 1 
$GPGSV,3,1,12,13,70,310,34,05,51,190,40,28,48,098,26,20,47,287,33*7A
$GPGSV,3,2,12,30,40,058,45,15,38,293,30,07,14,058,27,08,04,032,17*75
$GPGSV,3,3,12,18,01,323,14,21,12,306,24,24,05,241,30,33,33,198,38*7A
$GPRMC,150913.000,A,4719.0185,N,00130.6023,W,16.87,145.79,291217,,,A*49
$GPGGA,150914.000,4719.0142,N,00130.5981,W,2,05,1.8,17.7,M,48.5,M,2.0,0000*56
$GPGSA,M,3,13,05,20,15,07,,,,,,,,3.6,1.8,3.1*36
$GPRMC,150914.000,A,4719.0142,N,00130.5981,W,17.67,143.69,291217,,,D*4A
$GPGGA,150915.000,4719.0096,N,00130.5934,W,2,05,1.8,17.3,M,48.5,M,3.0,0000*54
$GPGSA,M,3,13,05,20,15,07,,,,,,,,3.6,1.8,3.1*36
$GPRMC,150915.000,A,4719.0096,N,00130.5934,W,18.95,143.26,291217,,,D*44
arfcn: 114 bsic: 58 rxLev: -89 ber: 0.00 mcc: 208 mnc: 10 lac: 49409 cellId: 34486 cellStatus: CELL_FORBIDDEN numArfcn: 3 arfcn: 77 88 114 numChannels: 13 array: 76 78 79 80 82 83 84 86 114 115 120 123 612 pbcch: 0 nom: 2 rac: 30 spgc: 0 pat: 6 nco: 0 t3168: 1000 t3192: 500 drxmax: 4 ctrlAck: 1 bsCVmax: 9 alpha: 10 pcMeasCh: 0 
$GPGGA,150916.000,4719.0046,N,00130.5883,W,2,05,1.8,17.0,M,48.5,M,4.0,0000*53
$GPGSA,M,3,13,05,20,15,07,,,,,,,,3.6,1.8,3.1*36
$GPRMC,150916.000,A,4719.0046,N,00130.5883,W,21.70,144.21,291217,,,D*46
$GPGGA,150917.000,4718.9989,N,00130.5822,W,2,05,1.8,16.6,M,48.5,M,5.0,0000*5D
$GPGSA,M,3,13,05,20,15,07,,,,,,,,3.6,1.8,3.1*36
$GPRMC,150917.000,A,4718.9989,N,00130.5822,W,25.06,142.53,291217,,,D*48
$GPGGA,150918.000,4718.9926,N,00130.5751,W,2,05,1.8,16.3,M,48.5,M,6.0,0000*5A
$GPGSA,M,3,13,05,20,15,07,,,,,,,,3.6,1.8,3.1*36
$GPGSV,3,1,12,13,70,310,33,05,51,190,36,20,47,287,28,15,38,293,39*78
$GPGSV,3,2,12,07,14,058,30,08,04,032,20,18,01,323,13,21,12,306,28*7F
$GPGSV,3,3,12,24,05,241,23,28,48,098,36,30,40,058,43,33,33,198,32*71
$GPRMC,150918.000,A,4718.9926,N,00130.5751,W,27.93,142.45,291217,,,D*40
$GPGGA,150919.000,4718.9859,N,00130.5675,W,2,05,1.8,15.8,M,48.5,M,7.0,0000*5C
$GPGSA,M,3,13,05,20,15,07,,,,,,,,3.6,1.8,3.1*36
$GPRMC,150919.000,A,4718.9859,N,00130.5675,W,28.97,142.18,291217,,,D*4C
$GPGGA,150920.000,4718.9791,N,00130.5595,W,2,05,1.8,15.6,M,48.5,M,8.0,0000*51
$GPGSA,M,3,13,05,20,15,07,,,,,,,,3.6,1.8,3.1*36
$GPRMC,150920.000,A,4718.9791,N,00130.5595,W,30.33,140.85,291217,,,D*41
arfcn: 78 bsic: 59 rxLev: -89 ber: 0.02 mcc: 208 mnc: 10 lac: 30500 cellId: 20248 cellStatus: CELL_FORBIDDEN numArfcn: 1 arfcn: 78 numChannels: 19 array: 76 77 78 79 80 82 84 85 86 113 114 115 116 118 119 120 121 122 124 pbcch: 0 nom: 2 rac: 1 spgc: 0 pat: 6 nco: 0 t3168: 1500 t3192: 500 drxmax: 0 ctrlAck: 0 bsCVmax: 8 alpha: 6 pcMeasCh: 1 
arfcn: 67 rxLev: -90
$GPGGA,150921.000,4718.9721,N,00130.5511,W,2,05,1.8,15.4,M,48.5,M,9.0,0000*54
arfcn: 980 rxLev: -90
$GPGSA,M,3,13,05,20,15,07,,,,,,,,3.6,1.8,3.1*36
arfcn: 64 rxLev: -91
arfcn: 68 rxLev: -91
$GPRMC,150921.000,A,4718.9721,N,00130.5511,W,31.94,140.81,291217,,,D*4F
$GPGGA,150922.000,4718.9646,N,00130.5426,W,2,05,1.8,15.5,M,48.5,M,10.0,0000*6B
$GPGSA,M,3,13,05,20,15,07,,,,,,,,3.6,1.8,3.1*36
$GPRMC,150922.000,A,4718.9646,N,00130.5426,W,32.83,141.89,291217,,,D*45
$GPGGA,150923.000,4718.9570,N,00130.5344,W,2,05,1.8,15.8,M,48.5,M,11.0,0000*63
$GPGSA,M,3,13,05,20,15,07,,,,,,,,3.6,1.8,3.1*36
$GPGSV,3,1,12,13,70,310,27,05,51,190,36,20,47,287,30,15,38,293,40*7A
$GPGSV,3,2,12,07,14,058,28,08,04,032,24,21,12,306,23,28,48,098,35*70
$GPGSV,3,3,12,30,40,058,43,33,33,198,31,24,05,241,,04,03,218,*7D
$GPRMC,150923.000,A,4718.9570,N,00130.5344,W,32.88,142.48,291217,,,D*44
$GPGGA,150924.000,4718.9495,N,00130.5258,W,2,05,1.8,15.9,M,48.5,M,12.0,0000*60
$GPGSA,M,3,13,05,20,15,07,,,,,,,,3.6,1.8,3.1*36
$GPRMC,150924.000,A,4718.9495,N,00130.5258,W,32.67,141.42,291217,,,D*4D
$GPGGA,150925.000,4718.9420,N,00130.5175,W,2,05,1.8,15.8,M,48.5,M,13.0,0000*63
$GPGSA,M,3,13,05,20,15,07,,,,,,,,3.6,1.8,3.1*36
$GPRMC,150925.000,A,4718.9420,N,00130.5175,W,32.48,142.89,291217,,,D*47
$GPGGA,150926.000,4718.9343,N,00130.5100,W,2,05,1.8,15.4,M,48.5,M,14.0,0000*6B
$GPGSA,M,3,13,05,20,15,07,,,,,,,,3.6,1.8,3.1*36
$GPRMC,150926.000,A,4718.9343,N,00130.5100,W,32.80,147.20,291217,,,D*46
$GPGGA,150927.000,4718.9260,N,00130.5034,W,2,05,1.8,14.6,M,48.5,M,15.0,0000*6E
$GPGSA,M,3,13,05,20,15,07,,,,,,,,3.6,1.8,3.1*36
$GPRMC,150927.000,A,4718.9260,N,00130.5034,W,33.12,152.33,291217,,,D*4D
$GPGGA,150928.000,4718.9177,N,00130.4982,W,2,05,1.8,14.1,M,48.5,M,16.0,0000*65
$GPGSA,M,3,13,05,20,15,07,,,,,,,,3.6,1.8,3.1*36
$GPGSV,3,1,12,13,70,310,36,05,51,190,32,20,47,287,42,15,38,293,38*74
$GPGSV,3,2,12,07,14,058,40,08,04,032,35,21,12,306,33,24,05,241,31*78
$GPGSV,3,3,12,28,48,098,35,30,40,058,44,33,33,198,34,04,03,218,*7A
$GPRMC,150928.000,A,4718.9177,N,00130.4982,W,33.06,159.35,291217,,,D*4A
$GPGGA,150929.000,4718.9089,N,00130.4943,W,2,05,1.8,14.1,M,48.5,M,17.0,0000*68
$GPGSA,M,3,13,05,20,15,07,,,,,,,,3.6,1.8,3.1*36
$GPRMC,150929.000,A,4718.9089,N,00130.4943,W,33.64,166.49,291217,,,D*45
$GPGGA,150930.000,4718.8998,N,00130.4920,W,2,05,1.8,14.3,M,48.5,M,18.0,0000*60
$GPGSA,M,3,13,05,20,15,07,,,,,,,,3.6,1.8,3.1*36
$GPRMC,150930.000,A,4718.8998,N,00130.4920,W,33.67,171.07,291217,,,D*4F
$GPGGA,150931.000,4718.8904,N,00130.4929,W,1,07,1.4,14.3,M,48.5,M,,0000*77
$GPGSA,M,3,13,05,28,20,30,15,07,,,,,,2.9,1.4,2.5*38
$GPRMC,150931.000,A,4718.8904,N,00130.4929,W,33.94,183.05,291217,,,A*44
$GPGGA,150932.000,4718.8812,N,00130.4950,W,1,07,1.4,13.7,M,48.5,M,,0000*7F
$GPGSA,M,3,13,05,28,20,30,15,07,,,,,,2.9,1.4,2.5*38
$GPRMC,150932.000,A,4718.8812,N,00130.4950,W,33.72,188.77,291217,,,A*49
arfcn: 10 bsic: 15 rxLev: -91 ber: 4.06 mcc: 208 mnc: 01 lac: 6403 cellId: 8058 cellStatus: CELL_FORBIDDEN numArfcn: 13 arfcn: 10 17 18 19 20 21 22 23 24 25 47 48 49 numChannels: 20 array: 1 2 3 5 6 7 8 9 10 12 13 15 513 516 517 518 604 605 606 608
arfcn: 41 rxLev: -91
arfcn: 59 rxLev: -91
$GPGGA,150933.000,4718.8717,N,00130.4988,W,1,07,1.4,12.6,M,48.5,M,,0000*71
arfcn: 58 rxLev: -91
arfcn: 60 rxLev: -91
$GPGSA,M,3,13,05,28,20,30,15,07,,,,,,2.9,1.4,2.5*38
arfcn: 61 rxLev: -91
arfcn: 63 rxLev: -91
$GPGSV,3,1,12,13,70,310,31,05,51,190,26,28,48,098,44,20,47,287,39*71
arfcn: 40 rxLev: -91
arfcn: 32 rxLev: -91
$GPGSV,3,2,12,30,40,058,47,15,38,293,44,07,14,058,27,08,04,032,29*79
arfcn: 33 rxLev: -91
arfcn: 34 rxLev: -91
$GPGSV,3,3,12,18,01,323,13,21,12,306,34,33,33,198,24,24,05,241,*72
arfcn: 38 rxLev: -91
arfcn: 39 rxLev: -91
$GPRMC,150933.000,A,4718.8717,N,00130.4988,W,33.04,192.07,291217,,,A*4A
arfcn: 29 rxLev: -91
arfcn: 30 rxLev: -91
$GPGGA,150934.000,4718.8625,N,00130.5024,W,1,07,1.4,12.2,M,48.5,M,,0000*7C
arfcn: 31 rxLev: -91
arfcn: 69 rxLev: -91
$GPGSA,M,3,13,05,28,20,30,15,07,,,,,,2.9,1.4,2.5*38
arfcn: 66 rxLev: -91
$GPRMC,150934.000,A,4718.8625,N,00130.5024,W,31.96,193.45,291217,,,A*4D
arfcn: 70 rxLev: -92
arfcn: 28 rxLev: -92
arfcn: 7 rxLev: -92
arfcn: 36 rxLev: -92
arfcn: 37 rxLev: -92
arfcn: 35 rxLev: -92
arfcn: 42 rxLev: -92
$GPGGA,150935.000,4718.8536,N,00130.5058,W,1,07,1.4,12.2,M,48.5,M,,0000*77
arfcn: 44 rxLev: -92
arfcn: 62 rxLev: -92
$GPGSA,M,3,13,05,28,20,30,15,07,,,,,,2.9,1.4,2.5*38
arfcn: 57 rxLev: -92
arfcn: 996 rxLev: -92
$GPRMC,150935.000,A,4718.8536,N,00130.5058,W,31.14,193.60,291217,,,A*4B
arfcn: 1002 rxLev: -92
arfcn: 1003 rxLev: -92
arfcn: 1004 rxLev: -92
arfcn: 997 rxLev: -92
arfcn: 994 rxLev: -92
arfcn: 995 rxLev: -92
arfcn: 998 rxLev: -92
arfcn: 1001 rxLev: -92
$GPGGA,150936.000,4718.8453,N,00130.5091,W,1,07,1.4,12.6,M,48.5,M,,0000*77
arfcn: 993 rxLev: -92
arfcn: 56 rxLev: -92
$GPGSA,M,3,13,05,28,20,30,15,07,,,,,,2.9,1.4,2.5*38
arfcn: 43 rxLev: -92
arfcn: 65 rxLev: -92
$GPRMC,150936.000,A,4718.8453,N,00130.5091,W,30.11,194.73,291217,,,A*4E
arfcn: 71 rxLev: -93
arfcn: 124 rxLev: -93
arfcn: 99 rxLev: -93
arfcn: 100 rxLev: -93
arfcn: 45 rxLev: -93
arfcn: 27 rxLev: -93
arfcn: 992 rxLev: -93
arfcn: 1000 rxLev: -93
$GPGGA,150937.000,4718.8373,N,00130.5123,W,1,07,1.4,12.7,M,48.5,M,,0000*7A
arfcn: 999 rxLev: -93
$GPGSA,M,3,13,05,28,20,30,15,07,,,,,,2.9,1.4,2.5*38
$GPRMC,150937.000,A,4718.8373,N,00130.5123,W,29.46,195.61,291217,,,A*4A
$GPGGA,150938.000,4718.8295,N,00130.5150,W,1,07,1.4,13.2,M,48.5,M,,0000*7C
$GPGSA,M,3,13,05,28,20,30,15,07,,,,,,2.9,1.4,2.5*38
$GPGSV,3,1,12,13,70,310,28,05,51,190,28,28,48,098,43,20,47,287,30*79
$GPGSV,3,2,12,30,40,058,40,15,38,293,37,07,14,058,37,08,04,032,34*77
$GPGSV,3,3,12,21,12,306,28,24,05,241,23,33,33,198,28,04,03,218,*76
$GPRMC,150938.000,A,4718.8295,N,00130.5150,W,28.23,191.90,291217,,,A*40
$GPGGA,150939.000,4718.8220,N,00130.5166,W,1,07,1.4,13.8,M,48.5,M,,0000*7C
$GPGSA,M,3,13,05,28,20,30,15,07,,,,,,2.9,1.4,2.5*38
$GPRMC,150939.000,A,4718.8220,N,00130.5166,W,27.47,186.53,291217,,,A*4E
arfcn: 1012 bsic: 9 rxLev: -93 ber: 1.10 mcc: 208 mnc: 20 lac: 420 cellId: 50862 cellStatus: CELL_SUITABLE numArfcn: 2 arfcn: 984 1012 numChannels: 18 array: 791 792 876 975 976 977 978 980 981 982 983 985 1014 1015 1017 1018 1019 1021 pbcch: 0 nom: 2 rac: 7 spgc: 0 pat: 6 nco: 0 t3168: 1500 t3192: 500 drxmax: 4 ctrlAck: 0 bsCVmax: 8 alpha: 6 pcMeasCh: 1 
arfcn: 54 rxLev: -93
arfcn: 55 rxLev: -93
arfcn: 98 rxLev: -93
$GPGGA,150940.000,4718.8145,N,00130.5173,W,1,07,1.4,14.1,M,48.5,M,,0000*78
arfcn: 123 rxLev: -93
arfcn: 976 rxLev: -94
$GPGSA,M,3,13,05,28,20,30,15,07,,,,,,2.9,1.4,2.5*38
arfcn: 96 rxLev: -94
arfcn: 97 rxLev: -94
$GPRMC,150940.000,A,4718.8145,N,00130.5173,W,26.91,183.77,291217,,,A*4D
arfcn: 108 rxLev: -94
arfcn: 92 rxLev: -94
arfcn: 94 rxLev: -94
arfcn: 95 rxLev: -94
arfcn: 1005 rxLev: -94
arfcn: 1006 rxLev: -94
arfcn: 1007 rxLev: -94
$GPGGA,150941.000,4718.8075,N,00130.5175,W,1,07,1.4,15.6,M,48.5,M,,0000*7B
arfcn: 1008 rxLev: -94
$GPGSA,M,3,13,05,28,20,30,15,07,,,,,,2.9,1.4,2.5*38
arfcn: 990 rxLev: -94
arfcn: 991 rxLev: -94
$GPRMC,150941.000,A,4718.8075,N,00130.5175,W,26.11,181.14,291217,,,A*47
arfcn: 982 rxLev: -94
arfcn: 72 rxLev: -94
arfcn: 104 rxLev: -94
arfcn: 105 rxLev: -94
arfcn: 107 rxLev: -94
arfcn: 101 rxLev: -94
arfcn: 102 rxLev: -94
arfcn: 103 rxLev: -94
$GPGGA,150942.000,4718.8007,N,00130.5174,W,1,07,1.4,16.5,M,48.5,M,,0000*7C
arfcn: 5 rxLev: -94
arfcn: 8 rxLev: -94
$GPGSA,M,3,13,05,28,20,30,15,07,,,,,,2.9,1.4,2.5*38
$GPRMC,150942.000,A,4718.8007,N,00130.5174,W,24.63,179.35,291217,,,A*43
$GPGGA,150943.000,4718.7945,N,00130.5168,W,1,07,1.4,17.6,M,48.5,M,,0000*72
$GPGSA,M,3,13,05,28,20,30,15,07,,,,,,2.9,1.4,2.5*38
$GPGSV,3,1,12,13,70,310,28,05,51,190,38,28,48,098,37,20,47,287,29*73
$GPGSV,3,2,12,30,40,058,40,15,38,293,32,07,14,058,37,08,04,032,23*74
$GPGSV,3,3,12,21,12,306,20,33,33,198,26,24,05,241,,04,03,218,*71
arfcn: 9 bsic: 50 rxLev: -94 ber: 14.01 mcc: FFF mnc: FF lac: 65535 cellId: 0 cellStatus: CELL_OTHER numArfcn: 0 arfcn: numChannels: 0 array:
arfcn: 106 rxLev: -95
arfcn: 93 rxLev: -95
$GPRMC,150943.000,A,4718.7945,N,00130.5168,W,24.43,176.78,291217,,,A*4B
arfcn: 984 rxLev: -95
arfcn: 988 rxLev: -95
$GPGGA,150944.000,4718.7883,N,00130.5162,W,1,07,1.4,18.2,M,48.5,M,,0000*7F
arfcn: 109 rxLev: -95
arfcn: 11 rxLev: -95
$GPGSA,M,3,13,05,28,20,30,15,07,,,,,,2.9,1.4,2.5*38
arfcn: 53 rxLev: -95
arfcn: 4 rxLev: -96
$GPRMC,150944.000,A,4718.7883,N,00130.5162,W,22.49,178.37,291217,,,A*44
arfcn: 1 rxLev: -96
arfcn: 2 rxLev: -96
arfcn: 3 rxLev: -96
arfcn: 91 rxLev: -96
arfcn: 86 rxLev: -96
$GPGGA,150945.000,4718.7825,N,00130.5158,W,1,07,1.4,18.8,M,48.5,M,,0000*71
$GPGSA,M,3,13,05,28,20,30,15,07,,,,,,2.9,1.4,2.5*38
$GPRMC,150945.000,A,4718.7825,N,00130.5158,W,21.11,178.36,291217,,,A*4F
$GPGGA,150946.000,4718.7771,N,00130.5156,W,1,07,1.4,19.2,M,48.5,M,,0000*79
$GPGSA,M,3,13,05,28,20,30,15,07,,,,,,2.9,1.4,2.5*38
$GPRMC,150946.000,A,4718.7771,N,00130.5156,W,20.13,177.29,291217,,,A*4E
$GPGGA,150947.000,4718.7718,N,00130.5153,W,1,07,1.4,19.9,M,48.5,M,,0000*79
$GPGSA,M,3,13,05,28,20,30,15,07,,,,,,2.9,1.4,2.5*38
$GPRMC,150947.000,A,4718.7718,N,00130.5153,W,19.89,177.77,291217,,,A*47
$GPGGA,150948.000,4718.7665,N,00130.5148,W,1,07,1.4,20.5,M,48.5,M,,0000*71
$GPGSA,M,3,13,05,28,20,30,15,07,,,,,,2.9,1.4,2.5*38
$GPGSV,3,1,12,13,70,310,29,05,51,190,38,28,48,098,37,20,47,287,36*7C
$GPGSV,3,2,12,30,40,058,34,15,38,293,41,07,14,058,33,21,12,306,29*75
$GPGSV,3,3,12,33,33,198,29,24,05,241,,08,04,032,,04,03,218,*74
$GPRMC,150948.000,A,4718.7665,N,00130.5148,W,19.82,177.72,291217,,,A*47
$GPGGA,150949.000,4718.7612,N,00130.5144,W,1,07,1.4,21.4,M,48.5,M,,0000*7C
$GPGSA,M,3,13,05,28,20,30,15,07,,,,,,2.9,1.4,2.5*38
$GPRMC,150949.000,A,4718.7612,N,00130.5144,W,19.77,177.16,291217,,,A*42
$GPGGA,150950.000,4718.7558,N,00130.5140,W,1,07,1.4,22.2,M,48.5,M,,0000*78
$GPGSA,M,3,13,05,28,20,30,15,07,,,,,,2.9,1.4,2.5*38
$GPRMC,150950.000,A,4718.7558,N,00130.5140,W,20.05,176.53,291217,,,A*4C
$GPGGA,150951.000,4718.7502,N,00130.5135,W,1,07,1.4,23.2,M,48.5,M,,0000*75
$GPGSA,M,3,13,05,28,20,30,15,07,,,,,,2.9,1.4,2.5*38
$GPRMC,150951.000,A,4718.7502,N,00130.5135,W,21.27,176.71,291217,,,A*41
$GPGGA,150952.000,4718.7443,N,00130.5130,W,1,07,1.4,23.9,M,48.5,M,,0000*7C
$GPGSA,M,3,13,05,28,20,30,15,07,,,,,,2.9,1.4,2.5*38
$GPRMC,150952.000,A,4718.7443,N,00130.5130,W,22.63,176.62,291217,,,A*42
$GPGGA,150953.000,4718.7379,N,00130.5124,W,1,07,1.4,24.6,M,48.5,M,,0000*7E
$GPGSA,M,3,13,05,28,20,30,15,07,,,,,,2.9,1.4,2.5*38
$GPGSV,3,1,12,13,70,310,29,05,51,190,39,28,48,098,38,20,47,287,36*72
$GPGSV,3,2,12,30,40,058,34,15,38,293,37,07,14,058,32,08,04,032,23*77
$GPGSV,3,3,12,21,12,306,26,33,33,198,32,24,05,241,,04,03,218,*72
$GPRMC,150953.000,A,4718.7379,N,00130.5124,W,23.90,176.75,291217,,,A*43
$GPGGA,150954.000,4718.7313,N,00130.5119,W,1,07,1.4,25.7,M,48.5,M,,0000*7B
$GPGSA,M,3,13,05,28,20,30,15,07,,,,,,2.9,1.4,2.5*38
$GPRMC,150954.000,A,4718.7313,N,00130.5119,W,24.74,176.85,291217,,,A*44
$GPGGA,150955.000,4718.7245,N,00130.5114,W,1,07,1.4,26.8,M,48.5,M,,0000*79
$GPGSA,M,3,13,05,28,20,30,15,07,,,,,,2.9,1.4,2.5*38
$GPRMC,150955.000,A,4718.7245,N,00130.5114,W,25.19,176.35,291217,,,A*4B
$GPGGA,150956.000,4718.7175,N,00130.5107,W,1,07,1.4,27.2,M,48.5,M,,0000*73
$GPGSA,M,3,13,05,28,20,30,15,07,,,,,,2.9,1.4,2.5*38
$GPRMC,150956.000,A,4718.7175,N,00130.5107,W,25.58,175.67,291217,,,A*4B
arfcn: 1021 bsic: 18 rxLev: -96 ber: 12.07 mcc: 208 mnc: 20 lac: 420 cellId: 22769 cellStatus: CELL_SUITABLE numArfcn: 2 arfcn: 1021 1023 numChannels: 20 array: 787 790 792 794 877 879 977 978 979 980 981 982 983 984 1014 1015 1016 1017 1018 1022
arfcn: 513 rxLev: -96
arfcn: 979 rxLev: -96
$GPGGA,150957.000,4718.7103,N,00130.5095,W,1,07,1.4,27.1,M,48.5,M,,0000*7A
arfcn: 82 rxLev: -96
arfcn: 77 rxLev: -96
$GPGSA,M,3,13,05,28,20,30,15,07,,,,,,2.9,1.4,2.5*38
arfcn: 122 rxLev: -96
$GPRMC,150957.000,A,4718.7103,N,00130.5095,W,25.97,172.88,291217,,,A*44
$GPGGA,150958.000,4718.7033,N,00130.5081,W,1,07,1.4,27.1,M,48.5,M,,0000*72
$GPGSA,M,3,13,05,28,20,30,15,07,,,,,,2.9,1.4,2.5*38
$GPGSV,3,1,12,13,70,310,38,05,51,190,40,28,48,098,40,20,47,287,44*76
$GPGSV,3,2,12,30,40,058,40,15,38,293,38,07,14,058,37,08,04,032,22*7F
$GPGSV,3,3,12,21,12,306,29,33,33,198,32,24,05,241,,04,03,218,*7D
$GPRMC,150958.000,A,4718.7033,N,00130.5081,W,26.09,169.90,291217,,,A*4B
$GPGGA,150959.000,4718.6962,N,00130.5057,W,1,07,1.4,26.4,M,48.5,M,,0000*70
$GPGSA,M,3,13,05,28,20,30,15,07,,,,,,2.9,1.4,2.5*38
$GPRMC,150959.000,A,4718.6962,N,00130.5057,W,25.30,166.29,291217,,,A*49
arfcn: 119 bsic: 24 rxLev: -96 ber: 2.08 mcc: 208 mnc: 10 lac: 49409 cellId: 60966 cellStatus: CELL_FORBIDDEN numArfcn: 2 arfcn: 111 119 numChannels: 12 array: 76 78 80 82 86 115 117 119 122 612 709 710 pbcch: 0 nom: 2 rac: 30 spgc: 0 pat: 6 nco: 0 t3168: 1000 t3192: 500 drxmax: 4 ctrlAck: 1 bsCVmax: 9 alpha: 10 pcMeasCh: 0 
arfcn: 73 rxLev: -97
arfcn: 83 rxLev: -97
arfcn: 121 rxLev: -97
$GPGGA,151000.000,4718.6895,N,00130.5027,W,1,07,1.4,25.7,M,48.5,M,,0000*7A
$GPGSA,M,3,13,05,28,20,30,15,07,,,,,,2.9,1.4,2.5*38
$GPRMC,151000.000,A,4718.6895,N,00130.5027,W,24.39,162.37,291217,,,A*40
$GPGGA,151001.000,4718.6832,N,00130.4994,W,1,07,1.4,25.2,M,48.5,M,,0000*73
$GPGSA,M,3,13,05,28,20,30,15,07,,,,,,2.9,1.4,2.5*38
$GPRMC,151001.000,A,4718.6832,N,00130.4994,W,23.23,159.31,291217,,,A*4E
arfcn: 13 bsic: 30 rxLev: -97 ber: 12.10 mcc: FFF mnc: FF lac: 65535 cellId: 0 cellStatus: CELL_OTHER numArfcn: 0 arfcn: numChannels: 0 array:
arfcn: 19 rxLev: -97
arfcn: 52 rxLev: -97
$GPGGA,151002.000,4718.6770,N,00130.4958,W,1,07,1.4,24.0,M,48.5,M,,0000*7A
arfcn: 46 rxLev: -98
arfcn: 26 rxLev: -98
$GPGSA,M,3,13,05,28,20,30,15,07,,,,,,2.9,1.4,2.5*38
arfcn: 120 rxLev: -98
$GPRMC,151002.000,A,4718.6770,N,00130.4958,W,22.74,156.91,291217,,,A*42
arfcn: 76 rxLev: -98
arfcn: 1017 rxLev: -98
arfcn: 609 rxLev: -98
arfcn: 793 rxLev: -98
arfcn: 12 rxLev: -98
arfcn: 49 rxLev: -98
arfcn: 110 rxLev: -99
$GPGGA,151003.000,4718.6712,N,00130.4920,W,1,07,1.4,23.0,M,48.5,M,,0000*77
arfcn: 985 rxLev: -99
$GPGSA,M,3,13,05,28,20,30,15,07,,,,,,2.9,1.4,2.5*38
$GPGSV,3,1,12,13,71,312,37,05,50,190,35,28,48,097,40,20,47,286,42*71
$GPGSV,3,2,12,30,39,058,43,15,39,294,34,07,13,058,37,08,04,032,29*74
$GPGSV,3,3,12,21,12,305,31,24,06,241,18,33,33,198,29,04,02,218,*76
$GPRMC,151003.000,A,4718.6712,N,00130.4920,W,21.98,154.42,291217,,,A*45
$GPGGA,151004.000,4718.6659,N,00130.4879,W,1,06,1.6,22.9,M,48.5,M,,0000*78
$GPGSA,M,3,05,28,20,30,15,07,,,,,,,3.8,1.6,3.4*38
$GPRMC,151004.000,A,4718.6659,N,00130.4879,W,21.29,152.79,291217,,,A*45
$GPGGA,151005.000,4718.6608,N,00130.4839,W,1,06,1.6,22.8,M,48.5,M,,0000*78
$GPGSA,M,3,05,28,20,30,15,07,,,,,,,3.8,1.6,3.4*38
$GPRMC,151005.000,A,4718.6608,N,00130.4839,W,21.01,152.18,291217,,,A*49
$GPGGA,151006.000,4718.6557,N,00130.4798,W,1,07,1.4,22.6,M,48.5,M,,0000*7B
$GPGSA,M,3,13,05,28,20,30,15,07,,,,,,2.9,1.4,2.5*38
$GPRMC,151006.000,A,4718.6557,N,00130.4798,W,21.17,152.31,291217,,,A*4B
$GPGGA,151007.000,4718.6504,N,00130.4756,W,1,07,1.4,22.5,M,48.5,M,,0000*7D
$GPGSA,M,3,13,05,28,20,30,15,07,,,,,,2.9,1.4,2.5*38
$GPRMC,151007.000,A,4718.6504,N,00130.4756,W,22.36,152.51,291217,,,A*48
$GPGGA,151008.000,4718.6448,N,00130.4713,W,1,06,1.6,22.4,M,48.5,M,,0000*78
$GPGSA,M,3,05,28,20,30,15,07,,,,,,,3.7,1.6,3.4*37
$GPGSV,3,1,12,05,50,190,38,28,48,097,40,20,47,286,36,30,39,058,43*7C
$GPGSV,3,2,12,15,39,294,37,07,13,058,37,08,04,032,18,13,71,312,24*74
$GPGSV,3,3,12,21,12,305,26,24,06,241,19,33,33,198,26,04,02,218,*7E
$GPRMC,151008.000,A,4718.6448,N,00130.4713,W,23.20,153.50,291217,,,A*49
$GPGGA,151009.000,4718.6389,N,00130.4674,W,1,07,1.4,22.5,M,48.5,M,,0000*71
arfcn: 1015 bsic: 9 rxLev: -99 ber: 14.08 mcc: 208 mnc: 20 lac: 420 cellId: 50860 cellStatus: CELL_SUITABLE numArfcn: 0 arfcn: numChannels: 5 array: 787 791 794 796 884
$GPGSA,M,3,13,05,28,20,30,15,07,,,,,,2.9,1.4,2.5*38
arfcn: 75 rxLev: -99
arfcn: 90 rxLev: -99
$GPRMC,151009.000,A,4718.6389,N,00130.4674,W,23.00,157.42,291217,,,A*47
arfcn: 14 rxLev: -99
arfcn: 804 rxLev: -99
arfcn: 805 rxLev: -100
arfcn: 729 rxLev: -100
arfcn: 809 rxLev: -100
arfcn: 849 rxLev: -100
arfcn: 20 rxLev: -100
arfcn: 47 rxLev: -100
$GPGGA,151010.000,4718.6325,N,00130.4644,W,1,07,1.4,22.2,M,48.5,M,,0000*7B
arfcn: 74 rxLev: -100
$GPGSA,M,3,13,05,28,20,30,15,07,,,,,,2.9,1.4,2.5*38
arfcn: 606 rxLev: -100
$GPRMC,151010.000,A,4718.6325,N,00130.4644,W,24.28,165.11,291217,,,A*40
$GPGGA,151011.000,4718.6257,N,00130.4621,W,1,07,1.4,21.9,M,48.5,M,,0000*75
$GPGSA,M,3,13,05,28,20,30,15,07,,,,,,2.9,1.4,2.5*38
$GPRMC,151011.000,A,4718.6257,N,00130.4621,W,25.07,168.91,291217,,,A*4F
$GPGGA,151012.000,4718.6189,N,00130.4602,W,1,06,1.5,21.5,M,48.5,M,,0000*7B
$GPGSA,M,3,13,05,28,20,30,15,,,,,,,4.3,1.5,4.1*30
$GPRMC,151012.000,A,4718.6189,N,00130.4602,W,25.10,170.04,291217,,,A*4E
$GPGGA,151013.000,4718.6120,N,00130.4583,W,1,07,1.4,21.1,M,48.5,M,,0000*77
$GPGSA,M,3,13,05,28,20,30,15,07,,,,,,2.9,1.4,2.5*38
arfcn: 1014 bsic: 43 rxLev: -100 ber: 0.00 mcc: 208 mnc: 20 lac: 420 cellId: 38580 cellStatus: CELL_SUITABLE numArfcn: 3 arfcn: 987 1014 1023 numChannels: 19 array: 975 976 977 978 980 981 982 983 984 985 1014 1015 1016 1017 1018 1019 1020 1021 1022 pbcch: 0 nom: 2 rac: 7 spgc: 0 pat: 6 nco: 0 t3168: 1500 t3192: 500 drxmax: 0 ctrlAck: 0 bsCVmax: 8 alpha: 6 pcMeasCh: 1 
arfcn: 989 rxLev: -100
$GPGSV,3,1,12,13,71,312,35,05,50,190,35,28,48,097,40,20,47,286,28*7F
arfcn: 987 rxLev: -100
arfcn: 118 rxLev: -100
$GPGSV,3,2,12,30,39,058,34,15,39,294,44,07,13,058,18,08,04,032,17*73
arfcn: 16 rxLev: -100
arfcn: 25 rxLev: -100
$GPGSV,3,3,12,18,02,323,14,21,12,305,31,33,33,198,27,24,06,241,*70
arfcn: 6 rxLev: -100
arfcn: 814 rxLev: -100
$GPRMC,151013.000,A,4718.6120,N,00130.4583,W,24.85,169.50,291217,,,A*42
arfcn: 806 rxLev: -100
arfcn: 807 rxLev: -100
arfcn: 803 rxLev: -101
$GPGGA,151014.000,4718.6053,N,00130.4564,W,1,07,1.4,20.7,M,48.5,M,,0000*7B
arfcn: 884 rxLev: -101
$GPGSA,M,3,13,05,28,20,30,15,07,,,,,,2.9,1.4,2.5*38
arfcn: 21 rxLev: -101
arfcn: 22 rxLev: -101
$GPRMC,151014.000,A,4718.6053,N,00130.4564,W,24.37,168.92,291217,,,A*4F
arfcn: 115 rxLev: -101
arfcn: 79 rxLev: -101
$GPGGA,151015.000,4718.5988,N,00130.4544,W,1,07,1.4,20.7,M,48.5,M,,0000*74
$GPGSA,M,3,13,05,28,20,30,15,07,,,,,,2.9,1.4,2.5*38
$GPRMC,151015.000,A,4718.5988,N,00130.4544,W,23.99,168.36,291217,,,A*4D
$GPGGA,151016.000,4718.5926,N,00130.4523,W,1,07,1.4,20.4,M,48.5,M,,0000*71
$GPGSA,M,3,13,05,28,20,30,15,07,,,,,,2.9,1.4,2.5*38
$GPRMC,151016.000,A,4718.5926,N,00130.4523,W,22.88,167.75,291217,,,A*42
$GPGGA,151017.000,4718.5867,N,00130.4503,W,1,07,1.4,20.5,M,48.5,M,,0000*77
$GPGSA,M,3,13,05,28,20,30,15,07,,,,,,2.9,1.4,2.5*38
$GPRMC,151017.000,A,4718.5867,N,00130.4503,W,21.75,166.74,291217,,,A*44
arfcn: 80 bsic: 12 rxLev: -101 ber: 2.07 mcc: FFF mnc: FF lac: 65535 cellId: 0 cellStatus: CELL_OTHER numArfcn: 2 arfcn: 80 83 numChannels: 8 array: 76 77 79 80 82 84 86 123
arfcn: 1009 rxLev: -101
$GPGGA,151018.000,4718.5810,N,00130.4480,W,1,07,1.4,20.3,M,48.5,M,,0000*74
$GPGSA,M,3,13,05,28,20,30,15,07,,,,,,2.9,1.4,2.5*38
$GPGSV,3,1,12,13,71,312,34,05,50,190,36,28,48,097,37,20,47,286,32*76
$GPGSV,3,2,12,30,39,058,41,15,39,294,44,07,13,058,26,08,04,031,16*7E
$GPGSV,3,3,12,21,12,305,27,37,28,150,,24,06,241,,04,02,218,*79
$GPRMC,151018.000,A,4718.5810,N,00130.4480,W,21.23,163.63,291217,,,A*41
$GPGGA,151019.000,4718.5755,N,00130.4450,W,1,07,1.4,19.9,M,48.5,M,,0000*76
$GPGSA,M,3,13,05,28,20,15,30,07,,,,,,2.9,1.4,2.5*38
$GPRMC,151019.000,A,4718.5755,N,00130.4450,W,21.27,159.20,291217,,,A*49
$GPGGA,151020.000,4718.5701,N,00130.4412,W,1,07,1.4,19.7,M,48.5,M,,0000*75
$GPGSA,M,3,13,05,28,20,15,30,07,,,,,,2.9,1.4,2.5*38
$GPRMC,151020.000,A,4718.5701,N,00130.4412,W,22.49,153.39,291217,,,A*4D
$GPGGA,151021.000,4718.5645,N,00130.4364,W,1,07,1.4,19.6,M,48.5,M,,0000*72
$GPGSA,M,3,13,05,28,20,15,30,07,,,,,,2.9,1.4,2.5*38
$GPRMC,151021.000,A,4718.5645,N,00130.4364,W,24.65,147.93,291217,,,A*46
arfcn: 1022 bsic: 13 rxLev: -101 ber: 1.04 mcc: 208 mnc: 20 lac: 420 cellId: 20946 cellStatus: CELL_SUITABLE numArfcn: 1 arfcn: 1022 numChannels: 17 array: 876 883 975 976 977 978 980 981 982 983 984 1013 1014 1016 1017 1018 1022 pbcch: 0 nom: 2 rac: 7 spgc: 0 pat: 6 nco: 0 t3168: 1500 t3192: 500 drxmax: 0 ctrlAck: 0 bsCVmax: 8 alpha: 6 pcMeasCh: 1 
arfcn: 1016 rxLev: -101
arfcn: 89 rxLev: -101
arfcn: 111 rxLev: -101
$GPGGA,151022.000,4718.5587,N,00130.4305,W,1,07,1.4,19.3,M,48.5,M,,0000*7E
arfcn: 48 rxLev: -101
arfcn: 51 rxLev: -101
$GPGSA,M,3,13,05,28,20,15,30,07,,,,,,2.9,1.4,2.5*38
arfcn: 813 rxLev: -101
arfcn: 808 rxLev: -101
$GPRMC,151022.000,A,4718.5587,N,00130.4305,W,26.46,144.02,291217,,,A*47
arfcn: 811 rxLev: -101
arfcn: 823 rxLev: -101
arfcn: 846 rxLev: -101
arfcn: 843 rxLev: -102
arfcn: 848 rxLev: -102
arfcn: 854 rxLev: -102
arfcn: 830 rxLev: -102
arfcn: 836 rxLev: -102
$GPGGA,151023.000,4718.5527,N,00130.4237,W,1,07,1.4,19.0,M,48.5,M,,0000*76
arfcn: 838 rxLev: -102
$GPGSA,M,3,13,05,28,20,15,30,07,,,,,,2.9,1.4,2.5*38
arfcn: 822 rxLev: -102
arfcn: 818 rxLev: -102
$GPGSV,3,1,12,13,71,312,32,05,50,190,39,28,48,097,31,20,47,286,31*7A
arfcn: 815 rxLev: -102
arfcn: 791 rxLev: -102
$GPGSV,3,2,12,15,39,294,38,30,39,058,43,07,13,058,22,08,04,031,16*73
arfcn: 23 rxLev: -102
$GPGSV,3,3,12,21,12,305,25,24,06,241,23,37,28,150,,04,02,218,*7A
arfcn: 113 rxLev: -102
arfcn: 1020 rxLev: -102
$GPRMC,151023.000,A,4718.5527,N,00130.4237,W,27.72,142.42,291217,,,A*48
arfcn: 608 rxLev: -102
$GPGGA,151024.000,4718.5463,N,00130.4164,W,1,07,1.4,18.7,M,48.5,M,,0000*73
$GPGSA,M,3,13,05,28,20,15,30,07,,,,,,2.9,1.4,2.5*38
$GPRMC,151024.000,A,4718.5463,N,00130.4164,W,29.84,142.14,291217,,,A*4F
$GPGGA,151025.000,4718.5396,N,00130.4086,W,1,07,1.4,18.3,M,48.5,M,,0000*76
$GPGSA,M,3,13,05,28,20,15,30,07,,,,,,2.8,1.4,2.5*39
$GPRMC,151025.000,A,4718.5396,N,00130.4086,W,31.66,142.36,291217,,,A*4B
$GPGGA,151026.000,4718.5324,N,00130.4004,W,1,07,1.4,17.3,M,48.5,M,,0000*79
$GPGSA,M,3,13,05,28,20,15,30,07,,,,,,2.8,1.4,2.5*39
$GPRMC,151026.000,A,4718.5324,N,00130.4004,W,32.95,142.51,291217,,,A*45
$GPGGA,151027.000,4718.5250,N,00130.3921,W,1,07,1.4,16.6,M,48.5,M,,0000*77
arfcn: 604 bsic: 13 rxLev: -102 ber: 0.00 mcc: 208 mnc: 01 lac: 6404 cellId: 40526 cellStatus: CELL_FORBIDDEN numArfcn: 16 arfcn: 519 520 521 522 523 524 525 526 596 597 598 599 600 601 602 603 numChannels: 19 array: 1 2 3 4 5 7 8 9 10 11 12 13 15 513 517 605 606 608 609 pbcch: 0 nom: 2 rac: 1 spgc: 0 pat: 6 nco: 0 t3168: 1000 t3192: 500 drxmax: 2 ctrlAck: 0 bsCVmax: 9 alpha: 5 pcMeasCh: 1 
arfcn: 1018 rxLev: -102
$GPGSA,M,3,13,05,28,20,15,30,07,,,,,,2.8,1.4,2.5*39
arfcn: 1013 rxLev: -102
$GPRMC,151027.000,A,4718.5250,N,00130.3921,W,33.47,142.91,291217,,,A*4D
arfcn: 81 rxLev: -102
arfcn: 84 rxLev: -102
arfcn: 18 rxLev: -102
arfcn: 812 rxLev: -102
arfcn: 819 rxLev: -102
arfcn: 817 rxLev: -102
arfcn: 820 rxLev: -102
arfcn: 825 rxLev: -102
$GPGGA,151028.000,4718.5172,N,00130.3837,W,1,07,1.4,16.2,M,48.5,M,,0000*79
arfcn: 840 rxLev: -102
$GPGSA,M,3,13,05,28,20,15,30,07,,,,,,2.8,1.4,2.5*39
arfcn: 844 rxLev: -102
arfcn: 845 rxLev: -102
$GPGSV,3,1,12,13,71,312,33,05,50,190,39,28,48,097,29,20,47,286,33*70
arfcn: 861 rxLev: -102
arfcn: 860 rxLev: -103
$GPGSV,3,2,12,15,39,294,38,30,39,058,43,07,13,058,29,08,04,031,23*7E
arfcn: 856 rxLev: -103
arfcn: 857 rxLev: -103
$GPGSV,3,3,12,21,12,305,32,24,06,241,23,37,28,150,,04,02,218,*7C
arfcn: 858 rxLev: -103
$GPRMC,151028.000,A,4718.5172,N,00130.3837,W,34.61,143.65,291217,,,A*4E
arfcn: 859 rxLev: -103
arfcn: 841 rxLev: -103
arfcn: 842 rxLev: -103
$GPGGA,151029.000,4718.5092,N,00130.3754,W,1,07,1.4,15.4,M,48.5,M,,0000*78
arfcn: 855 rxLev: -103
$GPGSA,M,3,13,05,28,20,15,30,07,,,,,,2.8,1.4,2.5*39
arfcn: 853 rxLev: -103
arfcn: 850 rxLev: -103
$GPRMC,151029.000,A,4718.5092,N,00130.3754,W,34.51,144.84,291217,,,A*41
arfcn: 851 rxLev: -103
arfcn: 824 rxLev: -103
arfcn: 826 rxLev: -103
arfcn: 829 rxLev: -103
arfcn: 839 rxLev: -103
arfcn: 821 rxLev: -103
arfcn: 810 rxLev: -103
$GPGGA,151030.000,4718.5011,N,00130.3679,W,1,07,1.4,14.9,M,48.5,M,,0000*79
$GPGSA,M,3,13,05,28,20,15,30,07,,,,,,2.8,1.4,2.5*39
$GPRMC,151030.000,A,4718.5011,N,00130.3679,W,33.83,148.89,291217,,,A*45
$GPGGA,151031.000,4718.4930,N,00130.3613,W,1,07,1.4,14.5,M,48.5,M,,0000*73
$GPGSA,M,3,13,05,28,20,15,30,07,,,,,,2.8,1.4,2.5*39
$GPRMC,151031.000,A,4718.4930,N,00130.3613,W,33.19,151.92,291217,,,A*42
$GPGGA,151032.000,4718.4850,N,00130.3550,W,1,07,1.4,14.3,M,48.5,M,,0000*75
$GPGSA,M,3,13,05,28,20,15,30,07,,,,,,2.8,1.4,2.5*39
$GPRMC,151032.000,A,4718.4850,N,00130.3550,W,32.76,152.01,291217,,,A*43
$GPGGA,151033.000,4718.4770,N,00130.3488,W,1,07,1.4,14.1,M,48.5,M,,0000*7F
$GPGSA,M,3,13,05,28,20,15,30,07,,,,,,2.8,1.4,2.5*39
$GPGSV,3,1,12,13,71,312,33,05,50,190,30,28,48,097,40,20,47,286,38*7D
$GPGSV,3,2,12,15,39,294,35,30,39,058,43,07,13,058,41,08,04,031,27*79
$GPGSV,3,3,12,21,12,305,24,24,06,241,21,37,28,150,,04,02,218,*79
$GPRMC,151033.000,A,4718.4770,N,00130.3488,W,32.50,152.11,291217,,,A*4E
$GPGGA,151034.000,4718.4690,N,00130.3425,W,1,07,1.4,14.0,M,48.5,M,,0000*71
$GPGSA,M,3,13,05,28,20,15,30,07,,,,,,2.8,1.4,2.5*39
$GPRMC,151034.000,A,4718.4690,N,00130.3425,W,32.54,152.40,291217,,,A*41
$GPGGA,151035.000,4718.4610,N,00130.3364,W,1,07,1.4,14.0,M,48.5,M,,0000*7A
$GPGSA,M,3,13,05,28,20,15,30,07,,,,,,2.8,1.4,2.5*39
$GPRMC,151035.000,A,4718.4610,N,00130.3364,W,32.89,152.89,291217,,,A*4F
$GPGGA,151036.000,4718.4529,N,00130.3302,W,1,07,1.4,14.0,M,48.5,M,,0000*70
$GPGSA,M,3,13,05,28,20,15,30,07,,,,,,2.8,1.4,2.5*39
$GPRMC,151036.000,A,4718.4529,N,00130.3302,W,33.19,152.78,291217,,,A*43
$GPGGA,151037.000,4718.4449,N,00130.3240,W,1,07,1.4,14.2,M,48.5,M,,0000*73
$GPGSA,M,3,13,05,28,20,15,30,07,,,,,,2.8,1.4,2.5*39
$GPRMC,151037.000,A,4718.4449,N,00130.3240,W,32.07,152.53,291217,,,A*45
$GPGGA,151038.000,4718.4372,N,00130.3180,W,1,07,1.4,14.3,M,48.5,M,,0000*7D
$GPGSA,M,3,13,05,28,20,15,30,07,,,,,,2.8,1.4,2.5*39
$GPGSV,3,1,12,13,71,312,34,05,50,190,30,28,48,097,40,20,47,286,38*7A
$GPGSV,3,2,12,15,39,294,34,30,39,058,43,07,13,058,41,08,04,031,27*78
$GPGSV,3,3,12,21,12,305,23,24,06,241,27,37,28,150,,04,02,218,*78
$GPRMC,151038.000,A,4718.4372,N,00130.3180,W,31.31,152.37,291217,,,A*4E
$GPGGA,151039.000,4718.4297,N,00130.3123,W,1,07,1.4,14.4,M,48.5,M,,0000*78
$GPGSA,M,3,13,05,28,20,15,30,07,,,,,,2.8,1.4,2.5*39
$GPRMC,151039.000,A,4718.4297,N,00130.3123,W,28.84,152.19,291217,,,A*46
$GPGGA,151040.000,4718.4231,N,00130.3071,W,1,07,1.4,14.5,M,48.5,M,,0000*7D
$GPGSA,M,3,13,05,28,20,15,30,07,,,,,,2.8,1.4,2.5*39
$GPRMC,151040.000,A,4718.4231,N,00130.3071,W,26.03,152.17,291217,,,A*4D
$GPGGA,151041.000,4718.4169,N,00130.3024,W,1,07,1.4,14.5,M,48.5,M,,0000*72
arfcn: 516 bsic: 5 rxLev: -103 ber: 3.09 mcc: 208 mnc: 01 lac: 6403 cellId: 29554 cellStatus: CELL_FORBIDDEN numArfcn: 16 arfcn: 519 520 521 522 523 524 525 526 596 597 598 599 600 601 602 603 numChannels: 19 array: 1 3 4 5 6 8 9 10 12 13 14 15 513 517 604 605 607 608 609 pbcch: 0 nom: 2 rac: 1 spgc: 0 pat: 6 nco: 0 t3168: 1000 t3192: 500 drxmax: 2 ctrlAck: 0 bsCVmax: 9 alpha: 5 pcMeasCh: 1 
arfcn: 617 rxLev: -103
arfcn: 666 rxLev: -103
$GPGSA,M,3,13,05,28,20,15,30,07,,,,,,2.8,1.4,2.5*39
arfcn: 605 rxLev: -103
arfcn: 50 rxLev: -103
$GPRMC,151041.000,A,4718.4169,N,00130.3024,W,24.11,152.50,291217,,,A*40
arfcn: 85 rxLev: -103
arfcn: 87 rxLev: -103
arfcn: 117 rxLev: -103
arfcn: 816 rxLev: -103
arfcn: 837 rxLev: -103
arfcn: 834 rxLev: -103
arfcn: 835 rxLev: -103
arfcn: 828 rxLev: -103
$GPGGA,151042.000,4718.4114,N,00130.2980,W,1,07,1.4,14.7,M,48.5,M,,0000*7F
arfcn: 831 rxLev: -103
$GPGSA,M,3,13,05,28,20,15,30,07,,,,,,2.8,1.4,2.5*39
arfcn: 827 rxLev: -103
arfcn: 852 rxLev: -103
$GPRMC,151042.000,A,4718.4114,N,00130.2980,W,22.42,152.77,291217,,,A*4A
arfcn: 847 rxLev: -103
arfcn: 832 rxLev: -104
arfcn: 833 rxLev: -104
arfcn: 862 rxLev: -104
arfcn: 116 rxLev: -104
arfcn: 24 rxLev: -104
arfcn: 607 rxLev: -104
arfcn: 1011 rxLev: -104
$GPGGA,151043.000,4718.4061,N,00130.2940,W,1,07,1.4,14.9,M,48.5,M,,0000*7F
arfcn: 1019 rxLev: -104
$GPGSA,M,3,13,05,28,20,15,30,07,,,,,,2.8,1.4,2.5*39
arfcn: 1010 rxLev: -104
arfcn: 665 rxLev: -104
$GPGSV,3,1,12,13,71,312,35,05,50,190,30,28,48,097,40,20,47,286,37*74
arfcn: 112 rxLev: -104
arfcn: 88 rxLev: -105
$GPGSV,3,2,12,15,39,294,33,30,39,058,42,07,13,058,41,08,04,031,27*7E
arfcn: 17 rxLev: -105
arfcn: 669 rxLev: -105
$GPGSV,3,3,12,21,12,305,22,24,06,241,26,37,28,150,,04,02,218,*78
arfcn: 623 rxLev: -105
arfcn: 627 rxLev: -105
$GPRMC,151043.000,A,4718.4061,N,00130.2940,W,20.65,152.44,291217,,,A*43
arfcn: 518 rxLev: -105
arfcn: 546 rxLev: -105
arfcn: 986 rxLev: -105
$GPGGA,151044.000,4718.4013,N,00130.2903,W,1,07,1.4,14.9,M,48.5,M,,0000*7A
arfcn: 863 rxLev: -105
$GPGSA,M,3,13,05,28,20,15,30,07,,,,,,2.8,1.4,2.4*38
arfcn: 869 rxLev: -105
$GPRMC,151044.000,A,4718.4013,N,00130.2903,W,19.09,152.20,291217,,,A*44
arfcn: 864 rxLev: -105
arfcn: 866 rxLev: -105
arfcn: 867 rxLev: -105
arfcn: 802 rxLev: -105
arfcn: 601 rxLev: -105
arfcn: 626 rxLev: -105
arfcn: 624 rxLev: -105
arfcn: 625 rxLev: -105
arfcn: 631 rxLev: -105
$GPGGA,151045.000,4718.3969,N,00130.2868,W,1,07,1.4,15.0,M,48.5,M,,0000*7C
arfcn: 622 rxLev: -105
$GPGSA,M,3,13,05,28,20,15,30,07,,,,,,2.8,1.4,2.4*38
arfcn: 620 rxLev: -105
arfcn: 611 rxLev: -105
$GPRMC,151045.000,A,4718.3969,N,00130.2868,W,17.79,151.83,291217,,,A*49
arfcn: 632 rxLev: -105
arfcn: 633 rxLev: -105
arfcn: 634 rxLev: -106
arfcn: 635 rxLev: -106
arfcn: 636 rxLev: -106
arfcn: 637 rxLev: -106
arfcn: 639 rxLev: -106
arfcn: 618 rxLev: -106
arfcn: 630 rxLev: -106
$GPGGA,151046.000,4718.3926,N,00130.2833,W,1,07,1.4,15.0,M,48.5,M,,0000*7A
arfcn: 628 rxLev: -106
$GPGSA,M,3,13,05,28,20,15,30,07,,,,,,2.8,1.4,2.4*38
arfcn: 656 rxLev: -106
arfcn: 610 rxLev: -106
$GPRMC,151046.000,A,4718.3926,N,00130.2833,W,18.79,151.53,291217,,,A*4D
arfcn: 865 rxLev: -106
arfcn: 868 rxLev: -106
arfcn: 726 rxLev: -106
arfcn: 1023 rxLev: -106
arfcn: 660 rxLev: -106
arfcn: 662 rxLev: -106
arfcn: 664 rxLev: -106
arfcn: 671 rxLev: -106
$GPGGA,151047.000,4718.3879,N,00130.2795,W,1,07,1.4,15.2,M,48.5,M,,0000*71
arfcn: 667 rxLev: -106
$GPGSA,M,3,13,05,28,20,15,30,07,,,,,,2.8,1.4,2.4*38
arfcn: 629 rxLev: -106
arfcn: 640 rxLev: -106
$GPRMC,151047.000,A,4718.3879,N,00130.2795,W,20.81,151.33,291217,,,A*4E
arfcn: 642 rxLev: -106
arfcn: 643 rxLev: -107
arfcn: 638 rxLev: -107
arfcn: 619 rxLev: -107
arfcn: 621 rxLev: -107
arfcn: 668 rxLev: -107
arfcn: 674 rxLev: -107
arfcn: 663 rxLev: -107
arfcn: 661 rxLev: -107
$GPGGA,151048.000,4718.3823,N,00130.2751,W,1,07,1.4,15.3,M,48.5,M,,0000*78
arfcn: 659 rxLev: -107
$GPGSA,M,3,13,05,28,20,15,30,07,,,,,,2.8,1.4,2.4*38
arfcn: 657 rxLev: -107
arfcn: 653 rxLev: -107
$GPGSV,3,1,12,13,71,312,31,05,50,190,31,28,48,097,40,20,47,286,37*71
arfcn: 648 rxLev: -107
$GPGSV,3,2,12,15,39,294,33,30,39,058,43,07,13,058,41,08,04,031,27*7F
arfcn: 649 rxLev: -107
$GPGSV,3,3,12,21,12,305,22,24,06,241,25,39,32,144,,04,02,218,*7B
arfcn: 512 rxLev: -107
arfcn: 727 rxLev: -107
$GPRMC,151048.000,A,4718.3823,N,00130.2751,W,23.88,152.01,291217,,,A*4E
arfcn: 786 rxLev: -107
arfcn: 597 rxLev: -107
arfcn: 599 rxLev: -107
$GPGGA,151049.000,4718.3762,N,00130.2705,W,1,07,1.4,15.3,M,48.5,M,,0000*72
arfcn: 514 rxLev: -107
arfcn: 654 rxLev: -107
$GPGSA,M,3,13,05,28,20,15,30,07,,,,,,2.8,1.4,2.4*38
arfcn: 658 rxLev: -107
arfcn: 673 rxLev: -107
$GPRMC,151049.000,A,4718.3762,N,00130.2705,W,24.52,152.64,291217,,,A*47
arfcn: 676 rxLev: -107
arfcn: 682 rxLev: -107
arfcn: 672 rxLev: -107
arfcn: 670 rxLev: -107
arfcn: 641 rxLev: -107
arfcn: 644 rxLev: -107
arfcn: 645 rxLev: -107
$GPGGA,151050.000,4718.3703,N,00130.2660,W,1,07,1.4,15.4,M,48.5,M,,0000*78
arfcn: 0 rxLev: -107
arfcn: 646 rxLev: -108
$GPGSA,M,3,13,05,28,20,15,30,07,,,,,,2.8,1.4,2.4*38
arfcn: 647 rxLev: -108
arfcn: 680 rxLev: -108
$GPRMC,151050.000,A,4718.3703,N,00130.2660,W,23.25,152.32,291217,,,A*4E
arfcn: 677 rxLev: -108
arfcn: 678 rxLev: -108
arfcn: 675 rxLev: -108
arfcn: 655 rxLev: -108
arfcn: 650 rxLev: -108
arfcn: 651 rxLev: -108
arfcn: 515 rxLev: -108
$GPGGA,151051.000,4718.3648,N,00130.2617,W,1,07,1.4,15.5,M,48.5,M,,0000*76
arfcn: 596 rxLev: -108
$GPGSA,M,3,13,05,28,20,15,30,07,,,,,,2.8,1.4,2.4*38
arfcn: 789 rxLev: -108
arfcn: 725 rxLev: -108
$GPRMC,151051.000,A,4718.3648,N,00130.2617,W,22.13,152.05,291217,,,A*41
arfcn: 683 rxLev: -108
arfcn: 699 rxLev: -108
Network survey ended
Survey end at #CCLK: "17/12/29,16:10:52+04"
Survey duration: 122 seconds, 20 bases detected over 335 freqs scanned.
$GPGGA,151052.000,4718.3595,N,00130.2576,W,1,07,1.4,15.5,M,48.5,M,,0000*72
$GPGSA,M,3,13,05,28,20,15,30,07,,,,,,2.8,1.4,2.4*38
$GPRMC,151052.000,A,4718.3595,N,00130.2576,W,21.00,151.82,291217,,,A*48
$GPGGA,151053.000,4718.3545,N,00130.2538,W,1,07,1.4,15.6,M,48.5,M,,0000*77
$GPGSA,M,3,13,05,28,20,15,30,07,,,,,,2.8,1.4,2.4*38
Survey start at #CCLK: "17/12/29,16:10:53+04"
at#csurv
Network survey started ...
$GPGSV,3,1,12,13,71,312,35,05,50,190,38,28,48,097,40,20,47,286,39*72
$GPGSV,3,2,12,15,39,294,40,30,39,058,43,07,13,058,33,08,04,031,22*7B
$GPGSV,3,3,12,21,12,305,22,39,32,144,,24,06,241,,04,02,218,*7C
$GPRMC,151053.000,A,4718.3545,N,00130.2538,W,19.89,152.02,291217,,,A*4F
$GPGGA,151054.000,4718.3499,N,00130.2502,W,1,07,1.4,15.6,M,48.5,M,,0000*79
$GPGSA,M,3,13,05,28,20,15,30,07,,,,,,2.8,1.4,2.4*38
$GPRMC,151054.000,A,4718.3499,N,00130.2502,W,18.78,152.01,291217,,,A*4D
$GPGGA,151055.000,4718.3455,N,00130.2467,W,1,07,1.4,16.0,M,48.5,M,,0000*7F
$GPGSA,M,3,13,05,28,20,15,30,07,,,,,,2.8,1.4,2.4*38
$GPRMC,151055.000,A,4718.3455,N,00130.2467,W,17.89,152.02,291217,,,A*4C
$GPGGA,151056.000,4718.3412,N,00130.2434,W,1,07,1.4,16.5,M,48.5,M,,0000*7C
$GPGSA,M,3,13,05,28,20,15,30,07,,,,,,2.8,1.4,2.4*38
$GPRMC,151056.000,A,4718.3412,N,00130.2434,W,17.49,152.00,291217,,,A*44
$GPGGA,151057.000,4718.3371,N,00130.2402,W,1,07,1.4,16.6,M,48.5,M,,0000*79
$GPGSA,M,3,13,05,28,20,15,30,07,,,,,,2.8,1.4,2.4*38
$GPRMC,151057.000,A,4718.3371,N,00130.2402,W,17.20,152.05,291217,,,A*48
$GPGGA,151058.000,4718.3330,N,00130.2370,W,1,07,1.4,16.7,M,48.5,M,,0000*70
$GPGSA,M,3,13,05,28,20,15,30,07,,,,,,2.8,1.4,2.4*38
$GPGSV,3,1,12,13,71,312,36,05,50,190,37,28,48,097,39,20,47,286,40*7E
$GPGSV,3,2,12,15,39,294,40,30,39,058,43,07,13,058,37,08,04,031,22*7F
$GPGSV,3,3,12,21,12,305,26,39,32,144,,24,06,241,,04,02,218,*78
$GPRMC,151058.000,A,4718.3330,N,00130.2370,W,16.71,152.25,291217,,,A*47
$GPGGA,151059.000,4718.3289,N,00130.2340,W,1,07,1.4,16.7,M,48.5,M,,0000*71
$GPGSA,M,3,13,05,28,20,15,30,07,,,,,,2.8,1.4,2.4*38
$GPRMC,151059.000,A,4718.3289,N,00130.2340,W,16.58,152.92,291217,,,A*41
$GPGGA,151100.000,4718.3247,N,00130.2308,W,1,07,1.4,16.8,M,48.5,M,,0000*7D
$GPGSA,M,3,13,05,28,20,15,30,07,,,,,,2.8,1.4,2.4*38
$GPRMC,151100.000,A,4718.3247,N,00130.2308,W,17.65,152.68,291217,,,A*48
$GPGGA,151101.000,4718.3203,N,00130.2274,W,1,07,1.4,16.9,M,48.5,M,,0000*77
$GPGSA,M,3,13,05,28,20,15,30,07,,,,,,2.8,1.4,2.4*38
$GPRMC,151101.000,A,4718.3203,N,00130.2274,W,18.46,151.75,291217,,,A*42
$GPGGA,151102.000,4718.3159,N,00130.2238,W,1,07,1.4,17.0,M,48.5,M,,0000*78
$GPGSA,M,3,13,05,28,20,15,30,07,,,,,,2.8,1.4,2.4*38
$GPRMC,151102.000,A,4718.3159,N,00130.2238,W,18.50,151.39,291217,,,A*4A
arfcn: 975 bsic: 14 rxLev: -79 ber: 0.00 mcc: 208 mnc: 20 lac: 420 cellId: 38411 cellStatus: CELL_SUITABLE numArfcn: 3 arfcn: 975 986 1010 numChannels: 21 array: 789 794 880 884 975 977 978 980 981 982 983 985 1012 1013 1014 1015 1016 1017 1019 1021 1022 pbcch: 0 nom: 2 rac: 7 spgc: 0 pat: 6 nco: 0 t3168: 1500 t3192: 500 drxmax: 0 ctrlAck: 0 bsCVmax: 8 alpha: 6 pcMeasCh: 1 
arfcn: 32 rxLev: -81
arfcn: 36 rxLev: -82
$GPGGA,151103.000,4718.3115,N,00130.2203,W,1,07,1.4,17.0,M,48.5,M,,0000*79
$GPGSA,M,3,13,05,28,20,15,30,07,,,,,,2.8,1.4,2.4*38
$GPGSV,3,1,12,13,71,312,35,05,50,190,28,28,48,097,40,20,47,286,40*7D
$GPGSV,3,2,12,15,39,294,34,30,39,058,43,07,13,058,28,08,04,031,18*7B
$GPGSV,3,3,12,21,12,305,21,39,32,144,,24,06,241,,04,02,218,*7F
$GPRMC,151103.000,A,4718.3115,N,00130.2203,W,17.77,151.21,291217,,,A*48
$GPGGA,151104.000,4718.3072,N,00130.2171,W,1,07,1.4,17.0,M,48.5,M,,0000*78
$GPGSA,M,3,13,05,28,20,15,30,07,,,,,,2.8,1.4,2.4*38
$GPRMC,151104.000,A,4718.3072,N,00130.2171,W,16.74,154.84,291217,,,A*41
$GPGGA,151105.000,4718.3030,N,00130.2147,W,1,07,1.4,16.8,M,48.5,M,,0000*73
$GPGSA,M,3,13,05,28,20,15,30,07,,,,,,2.8,1.4,2.4*38
$GPRMC,151105.000,A,4718.3030,N,00130.2147,W,15.66,161.11,291217,,,A*49
arfcn: 983 bsic: 12 rxLev: -82 ber: 1.01 mcc: 208 mnc: 20 lac: 60 cellId: 21709 cellStatus: CELL_SUITABLE numArfcn: 2 arfcn: 983 1022 numChannels: 18 array: 788 791 876 880 884 975 977 978 980 981 982 985 1012 1014 1015 1016 1017 1018 pbcch: 0 nom: 2 rac: 7 spgc: 0 pat: 6 nco: 0 t3168: 1500 t3192: 500 drxmax: 0 ctrlAck: 0 bsCVmax: 8 alpha: 6 pcMeasCh: 1 
arfcn: 37 rxLev: -82
arfcn: 38 rxLev: -82
arfcn: 33 rxLev: -82
arfcn: 34 rxLev: -82
arfcn: 41 rxLev: -82
arfcn: 44 rxLev: -83
arfcn: 45 rxLev: -83
$GPGGA,151106.000,4718.2992,N,00130.2133,W,1,07,1.4,16.5,M,48.5,M,,0000*7E
arfcn: 40 rxLev: -83
$GPGSA,M,3,13,05,28,20,15,30,07,,,,,,2.8,1.4,2.4*38
arfcn: 35 rxLev: -83
arfcn: 39 rxLev: -83
$GPRMC,151106.000,A,4718.2992,N,00130.2133,W,12.84,165.77,291217,,,A*46
arfcn: 31 rxLev: -83
arfcn: 42 rxLev: -84
arfcn: 43 rxLev: -84
arfcn: 30 rxLev: -85
arfcn: 28 rxLev: -86
arfcn: 27 rxLev: -86
$GPGGA,151107.000,4718.2965,N,00130.2126,W,1,07,1.4,16.2,M,48.5,M,,0000*74
$GPGSA,M,3,13,05,28,20,15,30,07,,,,,,2.8,1.4,2.4*38
$GPRMC,151107.000,A,4718.2965,N,00130.2126,W,8.58,172.45,291217,,,A*76
$GPGGA,151108.000,4718.2944,N,00130.2127,W,1,07,1.4,16.4,M,48.5,M,,0000*7F
$GPGSA,M,3,13,05,28,20,15,30,07,,,,,,2.8,1.4,2.4*38
$GPGSV,3,1,12,13,71,312,35,05,50,190,36,28,48,097,39,20,47,286,38*73
$GPGSV,3,2,12,15,39,294,42,30,39,058,34,07,13,058,37,08,04,031,16*7A
$GPGSV,3,3,12,21,12,305,33,39,32,144,,24,06,241,,04,02,218,*7C
$GPRMC,151108.000,A,4718.2944,N,00130.2127,W,7.78,182.36,291217,,,A*7D
$GPGGA,151109.000,4718.2921,N,00130.2135,W,1,07,1.4,16.7,M,48.5,M,,0000*7D
$GPGSA,M,3,13,05,28,20,15,30,07,,,,,,2.8,1.4,2.4*38
$GPRMC,151109.000,A,4718.2921,N,00130.2135,W,9.96,193.02,291217,,,A*75
$GPGGA,151110.000,4718.2890,N,00130.2151,W,1,07,1.4,17.0,M,48.5,M,,0000*7A
$GPGSA,M,3,13,05,28,20,15,30,07,,,,,,2.8,1.4,2.4*38
$GPRMC,151110.000,A,4718.2890,N,00130.2151,W,13.13,200.41,291217,,,A*4C
arfcn: 7 bsic: 19 rxLev: -86 ber: 0.00 mcc: 208 mnc: 01 lac: 6404 cellId: 64568 cellStatus: CELL_FORBIDDEN numArfcn: 13 arfcn: 7 17 18 19 20 21 22 23 24 25 47 48 49 numChannels: 18 array: 1 2 3 4 5 6 8 9 10 12 13 15 513 517 604 606 608 609 pbcch: 0 nom: 2 rac: 1 spgc: 0 pat: 6 nco: 0 t3168: 1000 t3192: 500 drxmax: 2 ctrlAck: 0 bsCVmax: 9 alpha: 5 pcMeasCh: 1 
arfcn: 29 rxLev: -86
arfcn: 66 rxLev: -87
$GPGGA,151111.000,4718.2854,N,00130.2172,W,1,07,1.4,17.1,M,48.5,M,,0000*73
$GPGSA,M,3,13,05,28,20,15,30,07,,,,,,2.8,1.4,2.4*38
$GPRMC,151111.000,A,4718.2854,N,00130.2172,W,15.24,196.63,291217,,,A*4A
$GPGGA,151112.000,4718.2811,N,00130.2186,W,1,06,3.2,17.0,M,48.5,M,,0000*7E
$GPGSA,M,3,13,28,20,15,30,07,,,,,,,4.4,3.2,3.0*36
$GPRMC,151112.000,A,4718.2811,N,00130.2186,W,17.10,181.72,291217,,,A*40
$GPGGA,151113.000,4718.2766,N,00130.2177,W,1,07,1.4,17.2,M,48.5,M,,0000*79
$GPGSA,M,3,13,05,28,20,15,30,07,,,,,,2.8,1.4,2.4*38
$GPGSV,3,1,12,13,71,312,35,05,50,190,37,28,48,097,41,20,47,286,38*7D
$GPGSV,3,2,12,15,39,294,41,30,39,058,40,07,13,058,38,08,04,031,26*76
$GPGSV,3,3,12,21,12,305,35,39,32,144,,24,06,241,,04,02,218,*7A
$GPRMC,151113.000,A,4718.2766,N,00130.2177,W,17.21,161.96,291217,,,A*46
arfcn: 1012 bsic: 9 rxLev: -87 ber: 0.00 mcc: 208 mnc: 20 lac: 420 cellId: 50862 cellStatus: CELL_SUITABLE numArfcn: 2 arfcn: 984 1012 numChannels: 18 array: 791 792 876 975 976 977 978 980 981 982 983 985 1014 1015 1017 1018 1019 1021 pbcch: 0 nom: 2 rac: 7 spgc: 0 pat: 6 nco: 0 t3168: 1500 t3192: 500 drxmax: 4 ctrlAck: 0 bsCVmax: 8 alpha: 6 pcMeasCh: 1 
arfcn: 67 rxLev: -88
$GPGGA,151114.000,4718.2724,N,00130.2145,W,1,07,1.4,17.6,M,48.5,M,,0000*7D
arfcn: 46 rxLev: -88
arfcn: 65 rxLev: -88
$GPGSA,M,3,13,05,28,20,15,30,07,,,,,,2.8,1.4,2.4*38
arfcn: 68 rxLev: -89
arfcn: 57 rxLev: -89
$GPRMC,151114.000,A,4718.2724,N,00130.2145,W,16.93,144.45,291217,,,A*47
arfcn: 58 rxLev: -89
arfcn: 59 rxLev: -89
arfcn: 991 rxLev: -89
arfcn: 992 rxLev: -90
arfcn: 56 rxLev: -90
arfcn: 60 rxLev: -90
arfcn: 61 rxLev: -91
arfcn: 69 rxLev: -91
$GPGGA,151115.000,4718.2689,N,00130.2095,W,1,07,1.4,18.1,M,48.5,M,,0000*7E
arfcn: 64 rxLev: -91
arfcn: 1003 rxLev: -91
$GPGSA,M,3,13,05,28,20,15,30,07,,,,,,2.8,1.4,2.4*38
arfcn: 1010 rxLev: -91
arfcn: 1002 rxLev: -91
$GPRMC,151115.000,A,4718.2689,N,00130.2095,W,17.85,133.78,291217,,,A*44
arfcn: 990 rxLev: -91
arfcn: 70 rxLev: -91
arfcn: 55 rxLev: -91
arfcn: 54 rxLev: -92
arfcn: 993 rxLev: -92
arfcn: 1004 rxLev: -92
$GPGGA,151116.000,4718.2663,N,00130.2033,W,1,07,1.4,18.3,M,48.5,M,,0000*77
arfcn: 1007 rxLev: -92
$GPGSA,M,3,13,05,28,20,15,30,07,,,,,,2.8,1.4,2.4*38
arfcn: 997 rxLev: -92
arfcn: 998 rxLev: -92
$GPRMC,151116.000,A,4718.2663,N,00130.2033,W,18.04,123.12,291217,,,A*44
arfcn: 999 rxLev: -92
arfcn: 996 rxLev: -92
arfcn: 1006 rxLev: -92
arfcn: 1008 rxLev: -92
arfcn: 53 rxLev: -92
arfcn: 26 rxLev: -92
arfcn: 62 rxLev: -93
arfcn: 63 rxLev: -93
arfcn: 71 rxLev: -93
$GPGGA,151117.000,4718.2639,N,00130.1968,W,1,07,1.4,18.4,M,48.5,M,,0000*7A
arfcn: 1005 rxLev: -93
$GPGSA,M,3,13,05,28,20,15,30,07,,,,,,2.8,1.4,2.4*38
arfcn: 1001 rxLev: -93
arfcn: 978 bsic: 40 rxLev: -93 ber: 0.02 mcc: 208 mnc: 20 lac: 420 cellId: 38409 cellStatus: CELL_SUITABLE numArfcn: 5 arfcn: 874 876 978 987 1020 numChannels: 24 array: 975 976 977 978 980 981 982 983 985 1011 1012 1014 1015 1016 1017 1019 1021 1022 791 792 880 881 884 885 pbcch: 0 nom: 2 rac: 7 spgc: 0 pat: 6 nco: 0 t3168: 1500 t3192: 500 drxmax: 0 ctrlAck: 0 bsCVmax: 8 alpha: 6 pcMeasCh: 1 
arfcn: 981 rxLev: -93
$GPRMC,151117.000,A,4718.2639,N,00130.1968,W,17.56,120.54,291217,,,A*47
arfcn: 977 rxLev: -93
arfcn: 124 rxLev: -94
arfcn: 72 rxLev: -94
arfcn: 994 rxLev: -94
arfcn: 995 rxLev: -94
arfcn: 976 rxLev: -94
$GPGGA,151118.000,4718.2609,N,00130.1911,W,1,07,1.4,18.7,M,48.5,M,,0000*7B
$GPGSA,M,3,13,05,28,20,15,30,07,,,,,,2.8,1.4,2.4*38
$GPGSV,3,1,12,13,71,312,29,05,50,190,40,28,48,097,34,20,47,286,31*7B
$GPGSV,3,2,12,15,39,294,36,30,39,058,41,07,13,058,38,08,04,031,34*74
$GPGSV,3,3,12,18,02,323,24,21,12,305,32,24,06,241,26,33,33,198,*71
$GPRMC,151118.000,A,4718.2609,N,00130.1911,W,17.64,133.03,291217,,,A*44
$GPGGA,151119.000,4718.2571,N,00130.1864,W,1,07,1.4,19.1,M,48.5,M,,0000*72
$GPGSA,M,3,13,05,28,20,15,30,07,,,,,,2.8,1.4,2.4*38
$GPRMC,151119.000,A,4718.2571,N,00130.1864,W,17.95,142.03,291217,,,A*42
arfcn: 114 bsic: 58 rxLev: -94 ber: 0.00 mcc: 208 mnc: 10 lac: 49409 cellId: 34486 cellStatus: CELL_FORBIDDEN numArfcn: 3 arfcn: 77 88 114 numChannels: 13 array: 76 78 79 80 82 83 84 86 114 115 120 123 612 pbcch: 0 nom: 2 rac: 30 spgc: 0 pat: 6 nco: 0 t3168: 1000 t3192: 500 drxmax: 4 ctrlAck: 1 bsCVmax: 9 alpha: 10 pcMeasCh: 0 
arfcn: 52 rxLev: -94
$GPGGA,151120.000,4718.2521,N,00130.1822,W,1,07,1.4,19.4,M,48.5,M,,0000*7A
arfcn: 8 rxLev: -95
$GPGSA,M,3,13,05,28,20,15,30,07,,,,,,2.8,1.4,2.4*38
$GPRMC,151120.000,A,4718.2521,N,00130.1822,W,21.17,150.18,291217,,,A*49
arfcn: 15 rxLev: -95
arfcn: 5 rxLev: -95
arfcn: 1000 rxLev: -95
$GPGGA,151121.000,4718.2464,N,00130.1780,W,1,07,1.4,19.2,M,48.5,M,,0000*7A
$GPGSA,M,3,13,05,28,20,15,30,07,,,,,,2.8,1.4,2.4*38
$GPRMC,151121.000,A,4718.2464,N,00130.1780,W,21.65,153.33,291217,,,A*40
$GPGGA,151122.000,4718.2407,N,00130.1740,W,1,07,1.4,19.2,M,48.5,M,,0000*70
$GPGSA,M,3,13,05,28,20,15,30,07,,,,,,2.8,1.4,2.4*38
$GPRMC,151122.000,A,4718.2407,N,00130.1740,W,22.51,154.56,291217,,,A*4A
$GPGGA,151123.000,4718.2349,N,00130.1700,W,1,07,1.4,19.3,M,48.5,M,,0000*79
$GPGSA,M,3,13,05,28,20,15,30,07,,,,,,2.8,1.4,2.4*38
$GPGSV,3,1,12,13,71,312,24,05,50,190,35,28,48,097,41,20,47,286,43*73
$GPGSV,3,2,12,15,39,294,35,30,39,058,42,07,13,058,21,08,04,031,22*7B
$GPGSV,3,3,12,18,02,323,27,21,12,305,32,24,06,241,33,33,33,198,26*72
$GPRMC,151123.000,A,4718.2349,N,00130.1700,W,24.09,155.71,291217,,,A*4D
$GPGGA,151124.000,4718.2285,N,00130.1660,W,1,07,1.4,19.3,M,48.5,M,,0000*78
$GPGSA,M,3,13,05,28,20,15,30,07,,,,,,2.8,1.4,2.4*38
$GPRMC,151124.000,A,4718.2285,N,00130.1660,W,24.84,157.90,291217,,,A*44
arfcn: 604 bsic: 13 rxLev: -96 ber: 0.00 mcc: 208 mnc: 01 lac: 6404 cellId: 40526 cellStatus: CELL_FORBIDDEN numArfcn: 16 arfcn: 519 520 521 522 523 524 525 526 596 597 598 599 600 601 602 603 numChannels: 19 array: 1 2 3 4 5 7 8 9 10 11 12 13 15 513 517 605 606 608 609 pbcch: 0 nom: 2 rac: 1 spgc: 0 pat: 6 nco: 0 t3168: 1000 t3192: 500 drxmax: 2 ctrlAck: 0 bsCVmax: 9 alpha: 5 pcMeasCh: 1 
$GPGGA,151125.000,4718.2220,N,00130.1619,W,1,07,1.4,19.2,M,48.5,M,,0000*79
$GPGSA,M,3,13,05,28,20,15,30,07,,,,,,2.8,1.4,2.4*38
$GPRMC,151125.000,A,4718.2220,N,00130.1619,W,25.76,156.97,291217,,,A*4E
$GPGGA,151126.000,4718.2154,N,00130.1576,W,1,07,1.4,19.2,M,48.5,M,,0000*70
$GPGSA,M,3,13,05,28,20,15,30,07,,,,,,2.8,1.4,2.4*38
$GPRMC,151126.000,A,4718.2154,N,00130.1576,W,26.46,156.85,291217,,,A*44
$GPGGA,151127.000,4718.2085,N,00130.1531,W,1,07,1.4,19.5,M,48.5,M,,0000*78
$GPGSA,M,3,13,05,28,20,15,30,07,,,,,,2.8,1.4,2.4*38
$GPRMC,151127.000,A,4718.2085,N,00130.1531,W,27.41,157.07,291217,,,A*46
arfcn: 11 bsic: 60 rxLev: -96 ber: 7.08 mcc: 208 mnc: 01 lac: 6404 cellId: 57804 cellStatus: CELL_FORBIDDEN numArfcn: 0 arfcn: numChannels: 6 array: 514 518 605 607 608 609
arfcn: 25 rxLev: -96
arfcn: 48 rxLev: -96
arfcn: 49 rxLev: -96
$GPGGA,151128.000,4718.2019,N,00130.1486,W,1,07,1.4,20.3,M,48.5,M,,0000*73
$GPGSA,M,3,13,05,28,20,15,30,07,,,,,,2.8,1.4,2.4*38
$GPGSV,3,1,12,13,71,313,31,05,49,190,34,28,48,096,40,20,47,285,37*7F
$GPGSV,3,2,12,15,40,294,34,30,38,058,43,07,13,058,37,08,04,031,18*7A
$GPGSV,3,3,12,18,02,323,25,21,12,305,30,24,06,242,27,33,33,198,29*7B
$GPRMC,151128.000,A,4718.2019,N,00130.1486,W,26.55,156.76,291217,,,A*42
$GPGGA,151129.000,4718.1953,N,00130.1443,W,1,07,1.4,20.6,M,48.5,M,,0000*7A
$GPGSA,M,3,13,05,28,20,15,30,07,,,,,,2.8,1.4,2.4*38
$GPRMC,151129.000,A,4718.1953,N,00130.1443,W,25.45,156.85,291217,,,A*40
$GPGGA,151130.000,4718.1891,N,00130.1401,W,1,07,1.4,21.2,M,48.5,M,,0000*7E
$GPGSA,M,3,13,05,28,20,15,30,07,,,,,,2.8,1.4,2.4*38
$GPRMC,151130.000,A,4718.1891,N,00130.1401,W,24.55,156.17,291217,,,A*4A
$GPGGA,151131.000,4718.1830,N,00130.1360,W,1,07,1.4,21.5,M,48.5,M,,0000*73
$GPGSA,M,3,13,05,28,20,15,30,07,,,,,,2.8,1.4,2.4*38
$GPRMC,151131.000,A,4718.1830,N,00130.1360,W,24.41,155.85,291217,,,A*4D
$GPGGA,151132.000,4718.1768,N,00130.1318,W,1,07,1.4,22.3,M,48.5,M,,0000*78
$GPGSA,M,3,13,05,28,20,15,30,07,,,,,,2.8,1.4,2.4*38
$GPRMC,151132.000,A,4718.1768,N,00130.1318,W,24.35,155.66,291217,,,A*4D
arfcn: 78 bsic: 59 rxLev: -96 ber: 0.00 mcc: 208 mnc: 10 lac: 30500 cellId: 20248 cellStatus: CELL_FORBIDDEN numArfcn: 1 arfcn: 78 numChannels: 19 array: 76 77 78 79 80 82 84 85 86 113 114 115 116 118 119 120 121 122 124 pbcch: 0 nom: 2 rac: 1 spgc: 0 pat: 6 nco: 0 t3168: 1500 t3192: 500 drxmax: 0 ctrlAck: 0 bsCVmax: 8 alpha: 6 pcMeasCh: 1 
arfcn: 123 rxLev: -97
$GPGGA,151133.000,4718.1706,N,00130.1277,W,1,07,1.4,22.8,M,48.5,M,,0000*72
arfcn: 1009 rxLev: -97
arfcn: 97 rxLev: -97
$GPGSA,M,3,13,05,28,20,15,30,07,,,,,,2.8,1.4,2.4*38
arfcn: 98 rxLev: -97
arfcn: 73 rxLev: -97
$GPGSV,3,1,12,13,71,313,33,05,49,190,32,28,48,096,41,20,47,285,39*74
arfcn: 92 rxLev: -97
arfcn: 93 rxLev: -97
$GPGSV,3,2,12,15,40,294,32,30,38,058,44,07,13,058,41,08,04,031,38*78
arfcn: 94 rxLev: -97
arfcn: 95 rxLev: -98
$GPGSV,3,3,12,18,02,323,25,21,12,305,30,24,06,242,14,33,33,198,28*7A
arfcn: 99 rxLev: -98
arfcn: 96 rxLev: -98
$GPRMC,151133.000,A,4718.1706,N,00130.1277,W,24.11,155.43,291217,,,A*4D
$GPGGA,151134.000,4718.1644,N,00130.1235,W,1,07,1.4,23.0,M,48.5,M,,0000*7D
$GPGSA,M,3,13,05,28,20,15,30,07,,,,,,2.8,1.4,2.4*38
$GPRMC,151134.000,A,4718.1644,N,00130.1235,W,24.04,154.91,291217,,,A*41
$GPGGA,151135.000,4718.1583,N,00130.1192,W,1,07,1.4,23.0,M,48.5,M,,0000*7A
$GPGSA,M,3,13,05,28,20,15,30,07,,,,,,2.8,1.4,2.4*38
$GPRMC,151135.000,A,4718.1583,N,00130.1192,W,24.07,153.81,291217,,,A*43
$GPGGA,151136.000,4718.1522,N,00130.1147,W,1,07,1.4,22.8,M,48.5,M,,0000*73
$GPGSA,M,3,13,05,28,20,15,30,07,,,,,,2.8,1.4,2.4*38
$GPRMC,151136.000,A,4718.1522,N,00130.1147,W,24.19,152.69,291217,,,A*4B
arfcn: 980 bsic: 17 rxLev: -98 ber: 0.00 mcc: 208 mnc: 20 lac: 420 cellId: 20175 cellStatus: CELL_SUITABLE numArfcn: 3 arfcn: 976 980 988 numChannels: 17 array: 876 975 976 977 978 980 983 985 1012 1013 1014 1015 1016 1017 1018 1019 1022 pbcch: 0 nom: 2 rac: 7 spgc: 0 pat: 6 nco: 0 t3168: 1500 t3192: 500 drxmax: 0 ctrlAck: 0 bsCVmax: 8 alpha: 6 pcMeasCh: 1 
arfcn: 982 rxLev: -98
$GPGGA,151137.000,4718.1462,N,00130.1101,W,1,07,1.4,22.3,M,48.5,M,,0000*7E
$GPGSA,M,3,13,05,28,20,15,30,07,,,,,,2.8,1.4,2.4*38
$GPRMC,151137.000,A,4718.1462,N,00130.1101,W,24.23,151.65,291217,,,A*4B
$GPGGA,151138.000,4718.1401,N,00130.1053,W,1,07,1.4,21.6,M,48.5,M,,0000*74
