$GPGSA,M,3,08,01,22,27,32,10,14,,,,,,3.1,1.3,2.9*3C
$GPRMC,024440.000,A,4806.8694,N,00139.3902,W,2.78,257.11,060218,,,A*70
Survey start at #CCLK: "18/02/06,03:44:41+04"
at#csurv
Network survey started ...
$GPGGA,024441.000,4806.8686,N,00139.3907,W,1,07,1.3,156.4,M,48.3,M,,0000*49
$GPGSA,M,3,08,01,22,27,32,10,14,,,,,,3.1,1.3,2.9*3C
$GPRMC,024441.000,A,4806.8686,N,00139.3907,W,3.01,244.88,060218,,,A*7A
$GPGGA,024442.000,4806.8679,N,00139.3910,W,1,07,1.3,156.2,M,48.3,M,,0000*4A
$GPGSA,M,3,08,01,22,27,32,10,14,,,,,,3.1,1.3,2.9*3C
$GPRMC,024442.000,A,4806.8679,N,00139.3910,W,2.59,233.27,060218,,,A*76
$GPGGA,024443.000,4806.8675,N,00139.3908,W,1,07,1.3,155.7,M,48.3,M,,0000*48
$GPGSA,M,3,08,01,22,27,32,10,14,,,,,,3.2,1.3,2.9*3F
$GPGSV,3,1,12,08,72,160,19,01,48,276,14,22,39,209,14,27,33,138,19*72
$GPGSV,3,2,12,32,29,092,15,10,29,050,19,14,22,116,19,37,27,150,*77
$GPGSV,3,3,12,11,57,288,,28,29,308,,03,18,213,,18,00,046,*71
$GPRMC,024443.000,A,4806.8675,N,00139.3908,W,1.98,219.17,060218,,,A*77
$GPGGA,024444.000,4806.8671,N,00139.3904,W,1,07,1.3,155.4,M,48.3,M,,0000*44
$GPGSA,M,3,08,01,22,27,32,10,14,,,,,,3.2,1.3,2.9*3F
$GPRMC,024444.000,A,4806.8671,N,00139.3904,W,2.04,206.81,060218,,,A*7F
$GPGGA,024445.000,4806.8667,N,00139.3901,W,1,07,1.3,155.2,M,48.3,M,,0000*41
$GPGSA,M,3,08,01,22,27,32,10,14,,,,,,3.2,1.3,2.9*3F
$GPRMC,024445.000,A,4806.8667,N,00139.3901,W,1.10,206.81,060218,,,A*7A
$GPGGA,024446.000,4806.8665,N,00139.3901,W,1,07,1.3,154.9,M,48.3,M,,0000*4A
$GPGSA,M,3,08,01,22,27,32,10,14,,,,,,3.2,1.3,2.9*3F
$GPRMC,024446.000,A,4806.8665,N,00139.3901,W,1.08,206.81,060218,,,A*72
$GPGGA,024447.000,4806.8664,N,00139.3913,W,1,06,1.4,154.5,M,48.3,M,,0000*43
$GPGSA,M,3,08,01,22,27,10,14,,,,,,,3.2,1.4,2.9*39
$GPRMC,024447.000,A,4806.8664,N,00139.3913,W,3.04,220.42,060218,,,A*74
$GPGGA,024448.000,4806.8662,N,00139.3925,W,1,06,1.4,154.1,M,48.3,M,,0000*4B
$GPGSA,M,3,08,01,22,27,10,14,,,,,,,3.2,1.4,2.9*39
$GPGSV,3,1,12,08,72,160,20,01,48,276,08,22,39,209,14,27,33,138,20*7F
$GPGSV,3,2,12,10,29,050,19,14,22,116,19,32,29,092,07,37,27,150,*74
$GPGSV,3,3,12,11,57,288,,28,29,308,,03,18,213,,18,00,046,*71
$GPRMC,024448.000,A,4806.8662,N,00139.3925,W,2.03,224.57,060218,,,A*7E
$GPGGA,024449.000,4806.8660,N,00139.3935,W,1,06,1.4,153.6,M,48.3,M,,0000*49
$GPGSA,M,3,08,01,22,27,10,14,,,,,,,3.2,1.4,2.9*39
$GPRMC,024449.000,A,4806.8660,N,00139.3935,W,1.56,228.13,060218,,,A*73
arfcn: 981 bsic: 46 rxLev: -54 ber: 0.00 mcc: 208 mnc: 20 lac: 418 cellId: 21807 cellStatus: CELL_SUITABLE numArfcn: 1 arfcn: 981 numChannels: 16 array: 787 790 791 793 796 882 884 979 982 983 985 1012 1014 1017 1019 1020 pbcch: 0 nom: 2 rac: 6 spgc: 0 pat: 6 nco: 0 t3168: 1500 t3192: 500 drxmax: 0 ctrlAck: 0 bsCVmax: 8 alpha: 6 pcMeasCh: 1 
arfcn: 985 bsic: 44 rxLev: -56 ber: 0.00 mcc: 208 mnc: 20 lac: 418 cellId: 21808 cellStatus: CELL_SUITABLE numArfcn: 1 arfcn: 985 numChannels: 25 array: 975 977 978 979 980 981 982 983 1011 1012 1014 1015 1017 1019 1020 1021 1022 787 788 790 793 795 796 879 884 pbcch: 0 nom: 2 rac: 6 spgc: 0 pat: 6 nco: 0 t3168: 1500 t3192: 500 drxmax: 0 ctrlAck: 0 bsCVmax: 8 alpha: 6 pcMeasCh: 1 
arfcn: 994 rxLev: -62
arfcn: 995 rxLev: -62
arfcn: 993 rxLev: -62
arfcn: 991 rxLev: -62
arfcn: 992 rxLev: -62
arfcn: 997 rxLev: -62
arfcn: 998 rxLev: -62
$GPGGA,024450.000,4806.8663,N,00139.3936,W,1,07,1.3,153.6,M,48.3,M,,0000*47
arfcn: 999 rxLev: -62
$GPGSA,M,3,08,01,22,27,32,10,14,,,,,,3.2,1.3,2.9*3F
arfcn: 1000 rxLev: -62
arfcn: 1003 rxLev: -62
$GPRMC,024450.000,A,4806.8663,N,00139.3936,W,0.82,228.13,060218,,,A*73
arfcn: 1004 rxLev: -63
arfcn: 1001 rxLev: -63
arfcn: 990 rxLev: -63
arfcn: 996 rxLev: -63
arfcn: 1007 rxLev: -63
arfcn: 1008 rxLev: -63
arfcn: 1005 rxLev: -63
$GPGGA,024451.000,4806.8664,N,00139.3940,W,1,06,1.4,153.3,M,48.3,M,,0000*43
arfcn: 1006 rxLev: -64
arfcn: 1002 rxLev: -64
$GPGSA,M,3,08,01,22,27,10,14,,,,,,,3.2,1.4,2.9*39
arfcn: 989 rxLev: -71
$GPRMC,024451.000,A,4806.8664,N,00139.3940,W,0.49,228.13,060218,,,A*73
arfcn: 980 rxLev: -71
arfcn: 12 rxLev: -71
arfcn: 1009 rxLev: -72
arfcn: 982 rxLev: -72
$GPGGA,024452.000,4806.8664,N,00139.3939,W,1,06,1.4,152.7,M,48.3,M,,0000*4B
$GPGSA,M,3,08,01,22,27,10,14,,,,,,,3.2,1.4,2.9*39
$GPRMC,024452.000,A,4806.8664,N,00139.3939,W,1.11,228.13,060218,,,A*72
$GPGGA,024453.000,4806.8667,N,00139.3947,W,1,06,1.4,152.3,M,48.3,M,,0000*44
$GPGSA,M,3,08,01,22,27,10,14,,,,,,,3.2,1.4,2.9*39
$GPGSV,3,1,12,08,72,160,19,01,48,276,09,22,39,209,14,27,33,138,20*74
arfcn: 80 bsic: 47 rxLev: -72 ber: 0.00 mcc: 208 mnc: 10 lac: 49415 cellId: 23568 cellStatus: CELL_FORBIDDEN numArfcn: 2 arfcn: 80 89 numChannels: 19 array: 76 77 78 80 82 83 84 85 113 114 115 116 117 118 119 120 122 123 124 pbcch: 0 nom: 2 rac: 31 spgc: 0 pat: 6 nco: 0 t3168: 1000 t3192: 500 drxmax: 4 ctrlAck: 1 bsCVmax: 9 alpha: 10 pcMeasCh: 0 
$GPGSV,3,2,12,10,29,050,19,14,22,116,18,32,29,092,07,37,27,150,*75
$GPGSV,3,3,12,11,57,288,,28,29,308,,03,18,213,,18,00,046,*71
$GPRMC,024453.000,A,4806.8667,N,00139.3947,W,1.69,236.41,060218,,,A*7E
$GPGGA,024454.000,4806.8671,N,00139.3957,W,1,06,1.4,151.9,M,48.3,M,,0000*4C
$GPGSA,M,3,08,01,22,27,10,14,,,,,,,3.2,1.4,2.9*39
$GPRMC,024454.000,A,4806.8671,N,00139.3957,W,2.74,250.70,060218,,,A*72
$GPGGA,024455.000,4806.8674,N,00139.3952,W,1,05,1.5,155.4,M,48.3,M,,0000*46
$GPGSA,M,3,08,01,27,10,14,,,,,,,,2.7,1.5,2.2*37
arfcn: 8 bsic: 48 rxLev: -74 ber: 0.00 mcc: 208 mnc: 01 lac: 10300 cellId: 6473 cellStatus: CELL_FORBIDDEN numArfcn: 13 arfcn: 8 17 18 19 20 21 22 23 24 25 47 48 49 numChannels: 18 array: 1 2 3 4 5 10 12 13 14 15 512 513 514 515 516 517 605 610 pbcch: 0 nom: 2 rac: 1 spgc: 0 pat: 6 nco: 0 t3168: 1000 t3192: 500 drxmax: 2 ctrlAck: 0 bsCVmax: 9 alpha: 5 pcMeasCh: 1 
arfcn: 986 rxLev: -74
$GPRMC,024455.000,A,4806.8674,N,00139.3952,W,1.25,254.80,060218,,,A*7F
arfcn: 984 rxLev: -75
$GPGGA,024456.000,4806.8681,N,00139.3963,W,1,05,1.5,156.7,M,48.3,M,,0000*4D
$GPGSA,M,3,08,01,27,10,14,,,,,,,,2.7,1.5,2.2*37
$GPRMC,024456.000,A,4806.8681,N,00139.3963,W,2.66,270.63,060218,,,A*7B
$GPGGA,024457.000,4806.8686,N,00139.3979,W,1,05,1.5,157.5,M,48.3,M,,0000*43
$GPGSA,M,3,08,01,27,10,14,,,,,,,,2.7,1.5,2.2*37
$GPRMC,024457.000,A,4806.8686,N,00139.3979,W,3.88,279.07,060218,,,A*7C
arfcn: 85 bsic: 0 rxLev: -76 ber: 0.00 mcc: 208 mnc: 10 lac: 49415 cellId: 44814 cellStatus: CELL_FORBIDDEN numArfcn: 2 arfcn: 85 119 numChannels: 20 array: 76 77 78 79 80 82 83 85 86 114 115 116 117 118 119 120 121 122 123 124 pbcch: 0 nom: 2 rac: 31 spgc: 0 pat: 6 nco: 0 t3168: 1000 t3192: 500 drxmax: 4 ctrlAck: 1 bsCVmax: 9 alpha: 10 pcMeasCh: 0 
$GPGGA,024458.000,4806.8690,N,00139.3997,W,1,05,1.5,157.9,M,48.3,M,,0000*47
$GPGSA,M,3,08,01,27,10,14,,,,,,,,2.7,1.5,2.3*36
$GPGSV,3,1,12,08,72,160,20,01,48,276,08,27,33,138,20,10,29,050,20*76
$GPGSV,3,2,12,14,22,116,18,22,39,209,05,32,29,092,06,37,27,150,*77
$GPGSV,3,3,12,11,57,288,,28,29,308,,03,18,213,,18,00,046,*71
$GPRMC,024458.000,A,4806.8690,N,00139.3997,W,4.47,283.63,060218,,,A*77
arfcn: 78 bsic: 2 rxLev: -77 ber: 0.00 mcc: 208 mnc: 10 lac: 49415 cellId: 45280 cellStatus: CELL_FORBIDDEN numArfcn: 2 arfcn: 78 116 numChannels: 20 array: 76 77 78 79 80 82 83 84 85 86 114 115 116 117 118 120 121 122 123 124 pbcch: 0 nom: 2 rac: 31 spgc: 0 pat: 6 nco: 0 t3168: 1000 t3192: 500 drxmax: 4 ctrlAck: 1 bsCVmax: 9 alpha: 10 pcMeasCh: 0 
$GPGGA,024459.000,4806.8692,N,00139.4010,W,1,04,3.3,158.1,M,48.3,M,,0000*47
$GPGSA,M,3,08,27,10,14,,,,,,,,,4.6,3.3,3.1*37
$GPRMC,024459.000,A,4806.8692,N,00139.4010,W,3.01,282.91,060218,,,A*7C
$GPGGA,024500.000,4806.8689,N,00139.4019,W,1,04,3.3,158.3,M,48.3,M,,0000*4B
$GPGSA,M,3,08,27,10,14,,,,,,,,,4.6,3.3,3.1*37
$GPRMC,024500.000,A,4806.8689,N,00139.4019,W,2.79,277.36,060218,,,A*7B
$GPGGA,024501.000,4806.8682,N,00139.4029,W,1,04,3.3,158.5,M,48.3,M,,0000*44
$GPGSA,M,3,08,27,10,14,,,,,,,,,4.6,3.3,3.1*37
$GPRMC,024501.000,A,4806.8682,N,00139.4029,W,4.00,266.70,060218,,,A*78
$GPGGA,024502.000,4806.8677,N,00139.4035,W,1,04,3.3,158.6,M,48.3,M,,0000*43
$GPGSA,M,3,08,27,10,14,,,,,,,,,4.6,3.3,3.1*37
$GPRMC,024502.000,A,4806.8677,N,00139.4035,W,2.29,263.42,060218,,,A*75
arfcn: 10 bsic: 45 rxLev: -77 ber: 3.07 mcc: 208 mnc: 01 lac: 10301 cellId: 6461 cellStatus: CELL_FORBIDDEN numArfcn: 13 arfcn: 10 17 18 19 20 21 22 23 24 25 47 48 49 numChannels: 17 array: 1 3 4 5 6 8 12 14 512 513 514 516 517 604 605 606 608 pbcch: 0 nom: 2 rac: 1 spgc: 0 pat: 6 nco: 0 t3168: 1000 t3192: 500 drxmax: 2 ctrlAck: 0 bsCVmax: 9 alpha: 5 pcMeasCh: 1 
$GPGGA,024503.000,4806.8676,N,00139.4034,W,1,04,3.3,158.7,M,48.3,M,,0000*43
$GPGSA,M,3,08,27,10,14,,,,,,,,,4.6,3.3,3.1*37
$GPGSV,3,1,12,08,72,160,19,27,33,138,20,10,29,050,21,14,22,116,18*71
$GPGSV,3,2,12,01,48,276,07,22,39,209,06,32,29,092,06,37,27,150,*77
$GPGSV,3,3,12,11,57,288,,28,29,308,,03,18,213,,18,00,046,*71
$GPRMC,024503.000,A,4806.8676,N,00139.4034,W,0.50,263.42,060218,,,A*78
$GPGGA,024504.000,4806.8674,N,00139.4028,W,1,04,3.3,158.8,M,48.3,M,,0000*44
$GPGSA,M,3,08,27,10,14,,,,,,,,,4.6,3.3,3.1*37
$GPRMC,024504.000,A,4806.8674,N,00139.4028,W,0.96,263.42,060218,,,A*7A
$GPGGA,024505.000,4806.8675,N,00139.4025,W,1,04,3.3,158.8,M,48.3,M,,0000*49
$GPGSA,M,3,08,27,10,14,,,,,,,,,4.6,3.3,3.1*37
$GPRMC,024505.000,A,4806.8675,N,00139.4025,W,0.80,263.42,060218,,,A*70
$GPGGA,024506.000,4806.8674,N,00139.4029,W,1,04,3.3,158.9,M,48.3,M,,0000*46
$GPGSA,M,3,08,27,10,14,,,,,,,,,4.6,3.3,3.1*37
$GPRMC,024506.000,A,4806.8674,N,00139.4029,W,0.93,263.42,060218,,,A*7C
arfcn: 983 bsic: 21 rxLev: -80 ber: 0.00 mcc: 208 mnc: 20 lac: 418 cellId: 21809 cellStatus: CELL_SUITABLE numArfcn: 1 arfcn: 983 numChannels: 24 array: 788 790 792 793 795 796 878 882 884 976 977 979 981 985 986 987 1012 1013 1014 1016 1017 1019 1020 1022 pbcch: 0 nom: 2 rac: 6 spgc: 0 pat: 6 nco: 0 t3168: 1500 t3192: 500 drxmax: 0 ctrlAck: 0 bsCVmax: 8 alpha: 6 pcMeasCh: 1 
arfcn: 797 rxLev: -80
arfcn: 795 rxLev: -80
arfcn: 836 rxLev: -80
arfcn: 801 rxLev: -81
arfcn: 793 rxLev: -82
$GPGGA,024507.000,4806.8669,N,00139.4025,W,1,04,3.3,159.0,M,48.3,M,,0000*4F
$GPGSA,M,3,08,27,10,14,,,,,,,,,4.6,3.3,3.1*37
$GPRMC,024507.000,A,4806.8669,N,00139.4025,W,1.85,252.48,060218,,,A*73
$GPGGA,024508.000,4806.8667,N,00139.4018,W,1,04,3.3,159.0,M,48.3,M,,0000*40
$GPGSA,M,3,08,27,10,14,,,,,,,,,4.6,3.3,3.1*37
$GPGSV,3,1,12,08,72,160,19,27,33,138,20,10,29,050,22,14,22,116,18*72
$GPGSV,3,2,12,01,48,276,05,22,39,209,04,32,29,092,06,37,27,150,*77
$GPGSV,3,3,12,11,57,288,,28,29,308,,03,18,213,,18,00,046,*71
$GPRMC,024508.000,A,4806.8667,N,00139.4018,W,1.40,238.48,060218,,,A*79
arfcn: 5 bsic: 1 rxLev: -82 ber: 0.00 mcc: 208 mnc: 01 lac: 10300 cellId: 40079 cellStatus: CELL_FORBIDDEN numArfcn: 13 arfcn: 5 17 18 19 20 21 22 23 24 25 47 48 49 numChannels: 20 array: 1 2 3 4 5 8 9 10 11 13 14 15 16 512 513 518 604 606 608 610 pbcch: 0 nom: 2 rac: 1 spgc: 0 pat: 6 nco: 0 t3168: 1000 t3192: 500 drxmax: 2 ctrlAck: 0 bsCVmax: 9 alpha: 5 pcMeasCh: 1 
arfcn: 818 rxLev: -82
arfcn: 821 rxLev: -82
arfcn: 824 rxLev: -82
$GPGGA,024509.000,4806.8669,N,00139.4010,W,1,04,3.3,159.1,M,48.3,M,,0000*46
arfcn: 825 rxLev: -82
arfcn: 828 rxLev: -83
$GPGSA,M,3,08,27,10,14,,,,,,,,,4.6,3.3,3.1*37
arfcn: 830 rxLev: -83
arfcn: 822 rxLev: -83
$GPRMC,024509.000,A,4806.8669,N,00139.4010,W,2.19,273.09,060218,,,A*7B
arfcn: 820 rxLev: -83
arfcn: 816 rxLev: -83
arfcn: 799 rxLev: -83
arfcn: 800 rxLev: -83
arfcn: 803 rxLev: -83
arfcn: 808 rxLev: -83
arfcn: 813 rxLev: -83
$GPGGA,024510.000,4806.8671,N,00139.4001,W,1,04,3.3,159.1,M,48.3,M,,0000*47
arfcn: 814 rxLev: -83
$GPGSA,M,3,08,27,10,14,,,,,,,,,4.6,3.3,3.1*37
arfcn: 792 rxLev: -83
arfcn: 796 rxLev: -83
$GPRMC,024510.000,A,4806.8671,N,00139.4001,W,1.97,300.10,060218,,,A*72
arfcn: 838 rxLev: -83
arfcn: 842 rxLev: -83
arfcn: 867 rxLev: -83
$GPGGA,024511.000,4806.8672,N,00139.3994,W,1,04,3.3,159.2,M,48.3,M,,0000*44
$GPGSA,M,3,08,27,10,14,,,,,,,,,4.5,3.3,3.1*34
$GPRMC,024511.000,A,4806.8672,N,00139.3994,W,2.13,326.40,060218,,,A*7C
$GPGGA,024512.000,4806.8673,N,00139.3988,W,1,04,3.3,159.2,M,48.3,M,,0000*4B
$GPGSA,M,3,08,27,10,14,,,,,,,,,4.5,3.3,3.1*34
$GPRMC,024512.000,A,4806.8673,N,00139.3988,W,1.67,341.76,060218,,,A*77
arfcn: 512 bsic: 25 rxLev: -83 ber: 0.05 mcc: 208 mnc: 01 lac: 10300 cellId: 40155 cellStatus: CELL_FORBIDDEN numArfcn: 16 arfcn: 519 520 521 522 523 524 525 526 596 597 598 599 600 601 602 603 numChannels: 16 array: 2 3 5 8 10 11 12 15 16 517 518 604 605 606 609 610 pbcch: 0 nom: 2 rac: 1 spgc: 0 pat: 6 nco: 0 t3168: 1000 t3192: 500 drxmax: 2 ctrlAck: 0 bsCVmax: 9 alpha: 5 pcMeasCh: 1 
arfcn: 875 rxLev: -83
arfcn: 879 rxLev: -83
arfcn: 839 rxLev: -83
arfcn: 840 rxLev: -83
arfcn: 844 rxLev: -83
arfcn: 837 rxLev: -83
$GPGGA,024513.000,4806.8669,N,00139.3986,W,1,04,3.3,159.2,M,48.3,M,,0000*4F
arfcn: 831 rxLev: -83
$GPGSA,M,3,08,27,10,14,,,,,,,,,4.5,3.3,3.1*34
arfcn: 834 rxLev: -83
arfcn: 857 rxLev: -83
$GPGSV,3,1,12,08,72,160,20,27,33,138,20,10,29,050,22,14,22,116,18*78
arfcn: 798 rxLev: -83
arfcn: 791 rxLev: -83
$GPGSV,3,2,12,01,48,276,04,22,39,209,04,32,29,092,04,39,31,144,*78
arfcn: 794 rxLev: -83
arfcn: 811 rxLev: -83
$GPGSV,3,3,12,11,57,288,,28,29,308,,03,18,213,,18,00,046,*71
arfcn: 809 rxLev: -83
arfcn: 810 rxLev: -83
$GPRMC,024513.000,A,4806.8669,N,00139.3986,W,1.74,352.62,060218,,,A*76
arfcn: 805 rxLev: -83
arfcn: 806 rxLev: -83
$GPGGA,024514.000,4806.8667,N,00139.3983,W,1,04,3.3,159.3,M,48.3,M,,0000*42
arfcn: 802 rxLev: -83
arfcn: 826 rxLev: -83
$GPGSA,M,3,08,27,10,14,,,,,,,,,4.5,3.3,3.1*34
arfcn: 823 rxLev: -84
arfcn: 815 rxLev: -84
$GPRMC,024514.000,A,4806.8667,N,00139.3983,W,0.95,352.62,060218,,,A*74
arfcn: 817 rxLev: -84
arfcn: 819 rxLev: -84
arfcn: 804 rxLev: -84
arfcn: 807 rxLev: -84
arfcn: 812 rxLev: -84
arfcn: 859 rxLev: -84
arfcn: 850 rxLev: -84
arfcn: 851 rxLev: -84
$GPGGA,024515.000,4806.8671,N,00139.3988,W,1,04,3.3,159.3,M,48.3,M,,0000*4F
arfcn: 852 rxLev: -84
arfcn: 832 rxLev: -84
$GPGSA,M,3,08,27,10,14,,,,,,,,,4.5,3.3,3.1*34
arfcn: 835 rxLev: -84
arfcn: 845 rxLev: -84
$GPRMC,024515.000,A,4806.8671,N,00139.3988,W,1.29,352.64,060218,,,A*79
arfcn: 880 rxLev: -84
arfcn: 877 rxLev: -84
arfcn: 873 rxLev: -84
arfcn: 869 rxLev: -84
$GPGGA,024516.000,4806.8674,N,00139.3980,W,1,04,3.3,159.3,M,48.3,M,,0000*41
$GPGSA,M,3,08,27,10,14,,,,,,,,,4.5,3.3,3.1*34
$GPRMC,024516.000,A,4806.8674,N,00139.3980,W,1.29,356.49,060218,,,A*7C
$GPGGA,024517.000,4806.8672,N,00139.3970,W,1,04,3.3,159.3,M,48.3,M,,0000*49
$GPGSA,M,3,08,27,10,14,,,,,,,,,4.5,3.3,3.1*34
$GPRMC,024517.000,A,4806.8672,N,00139.3970,W,1.68,10.00,060218,,,A*4D
arfcn: 604 bsic: 20 rxLev: -84 ber: 0.00 mcc: 208 mnc: 01 lac: 10300 cellId: 39915 cellStatus: CELL_FORBIDDEN numArfcn: 16 arfcn: 519 520 521 522 523 524 525 526 596 597 598 599 600 601 602 603 numChannels: 13 array: 5 6 10 15 16 512 514 516 517 518 608 609 610 pbcch: 0 nom: 2 rac: 1 spgc: 0 pat: 6 nco: 0 t3168: 1000 t3192: 500 drxmax: 2 ctrlAck: 0 bsCVmax: 9 alpha: 5 pcMeasCh: 1 
arfcn: 35 rxLev: -84
arfcn: 34 rxLev: -84
arfcn: 32 rxLev: -84
arfcn: 36 rxLev: -84
$GPGGA,024518.000,4806.8672,N,00139.3973,W,1,04,3.3,159.3,M,48.3,M,,0000*45
$GPGSA,M,3,08,27,10,14,,,,,,,,,4.5,3.3,3.1*34
$GPGSV,3,1,12,08,72,160,20,27,33,138,21,10,29,050,23,14,22,116,19*79
$GPGSV,3,2,12,01,48,276,04,32,29,092,10,39,31,144,,11,57,288,*78
$GPGSV,3,3,12,22,39,209,,28,29,308,,03,18,213,,18,00,046,*70
$GPRMC,024518.000,A,4806.8672,N,00139.3973,W,0.47,10.00,060218,,,A*4D
$GPGGA,024519.000,4806.8672,N,00139.3973,W,1,04,3.3,159.4,M,48.3,M,,0000*43
$GPGSA,M,3,08,27,10,14,,,,,,,,,4.5,3.3,3.1*34
$GPRMC,024519.000,A,4806.8672,N,00139.3973,W,0.51,10.00,060218,,,A*4B
arfcn: 117 bsic: 12 rxLev: -84 ber: 0.00 mcc: 208 mnc: 10 lac: 49415 cellId: 3568 cellStatus: CELL_FORBIDDEN numArfcn: 2 arfcn: 82 117 numChannels: 17 array: 76 77 78 79 80 83 84 85 87 113 114 116 117 120 122 123 124 pbcch: 0 nom: 2 rac: 31 spgc: 0 pat: 6 nco: 0 t3168: 1000 t3192: 500 drxmax: 4 ctrlAck: 1 bsCVmax: 9 alpha: 10 pcMeasCh: 0 
arfcn: 866 rxLev: -84
arfcn: 878 rxLev: -84
arfcn: 876 rxLev: -84
$GPGGA,024520.000,4806.8672,N,00139.3973,W,1,04,3.3,159.4,M,48.3,M,,0000*49
arfcn: 843 rxLev: -84
$GPGSA,M,3,08,27,10,14,,,,,,,,,4.5,3.3,3.1*34
arfcn: 841 rxLev: -84
arfcn: 833 rxLev: -84
$GPRMC,024520.000,A,4806.8672,N,00139.3973,W,0.44,10.00,060218,,,A*45
arfcn: 853 rxLev: -84
arfcn: 849 rxLev: -84
arfcn: 847 rxLev: -84
arfcn: 848 rxLev: -84
arfcn: 861 rxLev: -84
arfcn: 858 rxLev: -84
arfcn: 855 rxLev: -84
arfcn: 827 rxLev: -84
$GPGGA,024521.000,4806.8673,N,00139.3975,W,1,04,3.3,159.4,M,48.3,M,,0000*4F
arfcn: 829 rxLev: -85
arfcn: 860 rxLev: -85
$GPGSA,M,3,08,27,10,14,,,,,,,,,4.5,3.3,3.1*34
arfcn: 854 rxLev: -85
$GPRMC,024521.000,A,4806.8673,N,00139.3975,W,0.33,10.00,060218,,,A*43
arfcn: 846 rxLev: -85
arfcn: 874 rxLev: -85
arfcn: 871 rxLev: -85
arfcn: 872 rxLev: -85
arfcn: 865 rxLev: -85
arfcn: 863 rxLev: -85
arfcn: 868 rxLev: -85
arfcn: 30 rxLev: -85
arfcn: 31 rxLev: -85
$GPGGA,024522.000,4806.8675,N,00139.3980,W,1,04,3.3,159.4,M,48.3,M,,0000*40
arfcn: 44 rxLev: -85
$GPGSA,M,3,08,27,10,14,,,,,,,,,4.5,3.3,3.1*34
arfcn: 43 rxLev: -85
arfcn: 37 rxLev: -85
$GPRMC,024522.000,A,4806.8675,N,00139.3980,W,0.88,10.00,060218,,,A*4C
arfcn: 33 rxLev: -85
$GPGGA,024523.000,4806.8677,N,00139.3986,W,1,04,3.3,159.4,M,48.3,M,,0000*45
$GPGSA,M,3,08,27,10,14,,,,,,,,,4.5,3.3,3.1*34
$GPGSV,3,1,12,08,72,160,19,27,33,138,21,10,29,050,23,14,22,116,19*73
$GPGSV,3,2,12,01,48,276,04,32,29,092,04,39,31,144,,11,57,288,*7D
$GPGSV,3,3,12,22,39,209,,28,29,308,,03,18,213,,18,00,046,*70
$GPRMC,024523.000,A,4806.8677,N,00139.3986,W,2.28,351.88,060218,,,A*77
$GPGGA,024524.000,4806.8679,N,00139.3978,W,1,04,3.3,159.5,M,48.3,M,,0000*4C
$GPGSA,M,3,08,27,10,14,,,,,,,,,4.5,3.3,3.1*34
$GPRMC,024524.000,A,4806.8679,N,00139.3978,W,0.74,351.88,060218,,,A*74
$GPGGA,024525.000,4806.8681,N,00139.3985,W,1,04,3.3,159.5,M,48.3,M,,0000*48
$GPGSA,M,3,08,27,10,14,,,,,,,,,4.5,3.3,3.1*34
$GPRMC,024525.000,A,4806.8681,N,00139.3985,W,1.22,345.47,060218,,,A*74
$GPGGA,024526.000,4806.8679,N,00139.3983,W,1,04,3.3,159.5,M,48.3,M,,0000*4A
$GPGSA,M,3,08,27,10,14,,,,,,,,,4.5,3.3,3.1*34
$GPRMC,024526.000,A,4806.8679,N,00139.3983,W,1.22,335.68,060218,,,A*7C
$GPGGA,024527.000,4806.8676,N,00139.3980,W,1,04,3.3,159.5,M,48.3,M,,0000*47
$GPGSA,M,3,08,27,10,14,,,,,,,,,4.5,3.3,3.1*34
$GPRMC,024527.000,A,4806.8676,N,00139.3980,W,1.94,3.28,060218,,,A*7E
$GPGGA,024528.000,4806.8672,N,00139.3978,W,1,04,3.3,159.5,M,48.3,M,,0000*4B
$GPGSA,M,3,08,27,10,14,,,,,,,,,4.5,3.3,3.1*34
$GPGSV,3,1,12,08,72,160,19,27,33,138,20,10,29,050,23,14,22,116,19*72
$GPGSV,3,2,12,39,31,144,,11,57,288,,01,48,276,,22,39,209,*7D
$GPGSV,3,3,12,32,29,092,,28,29,308,,03,18,213,,18,00,046,*70
$GPRMC,024528.000,A,4806.8672,N,00139.3978,W,2.03,31.08,060218,,,A*4C
$GPGGA,024529.000,4806.8671,N,00139.3984,W,1,04,3.3,159.5,M,48.3,M,,0000*4A
$GPGSA,M,3,08,27,10,14,,,,,,,,,4.5,3.3,3.1*34
$GPRMC,024529.000,A,4806.8671,N,00139.3984,W,1.30,38.82,060218,,,A*45
$GPGGA,024530.000,4806.8670,N,00139.3998,W,1,04,3.3,159.6,M,48.3,M,,0000*4D
$GPGSA,M,3,08,27,10,14,,,,,,,,,4.5,3.3,3.1*34
$GPRMC,024530.000,A,4806.8670,N,00139.3998,W,2.67,346.82,060218,,,A*7A
$GPGGA,024531.000,4806.8672,N,00139.4004,W,1,04,3.3,159.6,M,48.3,M,,0000*45
$GPGSA,M,3,08,27,10,14,,,,,,,,,4.5,3.3,3.1*34
$GPRMC,024531.000,A,4806.8672,N,00139.4004,W,1.92,339.61,060218,,,A*7E
$GPGGA,024532.000,4806.8674,N,00139.4002,W,1,04,3.3,159.6,M,48.3,M,,0000*46
$GPGSA,M,3,08,27,10,14,,,,,,,,,4.5,3.3,3.1*34
$GPRMC,024532.000,A,4806.8674,N,00139.4002,W,0.70,339.61,060218,,,A*70
$GPGGA,024533.000,4806.8678,N,00139.4012,W,1,04,3.3,159.6,M,48.3,M,,0000*4A
$GPGSA,M,3,08,27,10,14,,,,,,,,,4.5,3.3,3.1*34
$GPGSV,3,1,12,08,72,160,19,27,33,138,20,10,29,050,23,14,22,116,19*72
arfcn: 605 bsic: 33 rxLev: -85 ber: 2.07 mcc: 208 mnc: 01 lac: 10300 cellId: 27588 cellStatus: CELL_FORBIDDEN numArfcn: 22 arfcn: 525 526 527 528 529 530 531 532 533 534 535 587 588 589 590 591 592 593 594 595 596 597 numChannels: 18 array: 1 3 5 8 12 15 512 513 514 515 516 517 518 604 605 606 607 609
arfcn: 870 rxLev: -85
arfcn: 864 rxLev: -85
$GPGSV,3,2,12,39,31,144,,11,57,288,,01,48,276,,22,39,209,*7D
arfcn: 862 rxLev: -85
$GPGSV,3,3,12,32,29,092,,28,29,308,,03,18,213,,18,00,046,*70
arfcn: 856 rxLev: -85
arfcn: 881 rxLev: -86
$GPRMC,024533.000,A,4806.8678,N,00139.4012,W,2.51,327.47,060218,,,A*76
$GPGGA,024534.000,4806.8679,N,00139.4015,W,1,04,3.3,159.6,M,48.3,M,,0000*4B
$GPGSA,M,3,08,27,10,14,,,,,,,,,4.5,3.3,3.1*34
$GPRMC,024534.000,A,4806.8679,N,00139.4015,W,1.74,317.26,060218,,,A*77
$GPGGA,024535.000,4806.8679,N,00139.4019,W,1,04,3.3,159.6,M,48.3,M,,0000*46
$GPGSA,M,3,08,27,10,14,,,,,,,,,4.5,3.3,3.1*34
$GPRMC,024535.000,A,4806.8679,N,00139.4019,W,1.92,305.94,060218,,,A*78
$GPGGA,024536.000,4806.8680,N,00139.4019,W,1,04,3.3,159.6,M,48.3,M,,0000*43
$GPGSA,M,3,08,27,10,14,,,,,,,,,4.5,3.3,3.1*34
$GPRMC,024536.000,A,4806.8680,N,00139.4019,W,1.28,305.66,060218,,,A*71
arfcn: 606 bsic: 57 rxLev: -86 ber: 7.02 mcc: 208 mnc: 01 lac: 10301 cellId: 27485 cellStatus: CELL_FORBIDDEN numArfcn: 16 arfcn: 519 520 521 522 523 524 525 526 596 597 598 599 600 601 602 603 numChannels: 15 array: 3 4 6 10 12 512 513 514 515 516 517 604 605 608 609 pbcch: 0 nom: 2 rac: 1 spgc: 0 pat: 6 nco: 0 t3168: 1000 t3192: 500 drxmax: 2 ctrlAck: 0 bsCVmax: 9 alpha: 5 pcMeasCh: 1 
arfcn: 28 rxLev: -86
arfcn: 45 rxLev: -86
arfcn: 42 rxLev: -86
$GPGGA,024537.000,4806.8684,N,00139.4022,W,1,04,3.3,159.6,M,48.3,M,,0000*4E
arfcn: 41 rxLev: -87
$GPGSA,M,3,08,27,10,14,,,,,,,,,4.5,3.3,3.1*34
$GPRMC,024537.000,A,4806.8684,N,00139.4022,W,1.48,305.51,060218,,,A*7E
arfcn: 29 rxLev: -87
arfcn: 38 rxLev: -87
arfcn: 13 rxLev: -87
$GPGGA,024538.000,4806.8686,N,00139.4031,W,1,04,3.3,159.6,M,48.3,M,,0000*41
$GPGSA,M,3,08,27,10,14,,,,,,,,,4.5,3.3,3.1*34
$GPGSV,3,1,12,08,72,160,19,27,33,138,19,10,29,050,23,14,22,116,18*79
$GPGSV,3,2,12,39,31,144,,11,57,288,,01,48,276,,22,39,209,*7D
$GPGSV,3,3,12,32,29,092,,28,29,308,,03,18,213,,18,00,046,*70
$GPRMC,024538.000,A,4806.8686,N,00139.4031,W,2.28,299.35,060218,,,A*72
$GPGGA,024539.000,4806.8684,N,00139.4030,W,1,04,3.3,159.6,M,48.3,M,,0000*43
$GPGSA,M,3,08,27,10,14,,,,,,,,,4.5,3.3,3.1*34
$GPRMC,024539.000,A,4806.8684,N,00139.4030,W,0.31,299.35,060218,,,A*7A
Survey end at  [aborted]
Survey duration: 58 seconds, 14 bases detected over 148 freqs scanned.
