$GPGSA,M,1,,,,,,,,,,,,,,,*12
$GPRMC,002329.203,V,,,,,,,060218,,,N*4B
Survey start at #CCLK: "18/02/06,01:23:29+04"
at#csurv
Network survey started ...
Survey end at #CCLK: "18/02/06,01:23:29+04"
Survey duration: 0 seconds, 0 bases detected over 0 freqs scanned.
$GPGGA,002330.203,,,,,0,00,,,M,0.0,M,,0000*55
$GPGSA,M,1,,,,,,,,,,,,,,,*12
$GPGSV,3,1,12,08,41,293,04,11,03,257,15,15,05,041,11,16,55,179,04*76
$GPGSV,3,2,12,21,27,060,18,27,80,338,25,10,47,127,,18,43,075,*7A
$GPGSV,3,3,12,26,26,165,,07,17,302,,30,09,325,,20,04,034,*77
$GPRMC,002330.203,V,,,,,,,060218,,,N*43
$GPGGA,002331.203,,,,,0,00,,,M,0.0,M,,0000*54
$GPGSA,M,1,,,,,,,,,,,,,,,*12
$GPRMC,002331.203,V,,,,,,,060218,,,N*42
Survey start at #CCLK: "18/02/06,01:23:31+04"
at#csurv
Network survey started ...
$GPGGA,002332.203,,,,,0,00,,,M,0.0,M,,0000*57
$GPGSA,M,1,,,,,,,,,,,,,,,*12
$GPRMC,002332.203,V,,,,,,,060218,,,N*41
$GPGGA,002333.203,,,,,0,00,,,M,0.0,M,,0000*56
$GPGSA,M,1,,,,,,,,,,,,,,,*12
$GPRMC,002333.203,V,,,,,,,060218,,,N*40
$GPGGA,002334.203,,,,,0,00,,,M,0.0,M,,0000*51
$GPGSA,M,1,,,,,,,,,,,,,,,*12
$GPRMC,002334.203,V,,,,,,,060218,,,N*47
$GPGGA,002335.203,,,,,0,00,,,M,0.0,M,,0000*50
$GPGSA,M,1,,,,,,,,,,,,,,,*12
$GPGSV,3,1,12,11,03,257,15,15,05,041,11,16,55,179,04,21,27,060,18*7E
$GPGSV,3,2,12,27,80,338,25,10,47,127,,18,43,075,,08,41,293,*76
$GPGSV,3,3,12,26,26,165,,07,17,302,,30,09,325,,20,04,034,*77
$GPRMC,002335.203,V,,,,,,,060218,,,N*46
$GPGGA,002336.203,,,,,0,00,,,M,0.0,M,,0000*53
$GPGSA,M,1,,,,,,,,,,,,,,,*12
$GPRMC,002336.203,V,,,,,,,060218,,,N*45
$GPGGA,002337.204,,,,,0,00,,,M,0.0,M,,0000*55
$GPGSA,M,1,,,,,,,,,,,,,,,*12
arfcn: 981 bsic: 46 rxLev: -51 ber: 0.00 mcc: 208 mnc: 20 lac: 418 cellId: 21807 cellStatus: CELL_SUITABLE numArfcn: 1 arfcn: 981 numChannels: 16 array: 979 982 983 985 1012 1014 1017 1019 1020 787 790 791 793 796 882 884 pbcch: 0 nom: 2 rac: 6 spgc: 0 pat: 6 nco: 0 t3168: 1500 t3192: 500 drxmax: 0 ctrlAck: 0 bsCVmax: 8 alpha: 6 pcMeasCh: 1 
$GPRMC,002337.204,V,,,,,,,060218,,,N*43
$GPGGA,002338.204,,,,,0,00,,,M,0.0,M,,0000*5A
$GPGSA,M,1,,,,,,,,,,,,,,,*12
$GPRMC,002338.204,V,,,,,,,060218,,,N*4C
$GPGGA,002339.203,,,,,0,04,3.3,,M,0.0,M,,0000*76
$GPGSA,M,1,,,,,,,,,,,,,,,*12
$GPRMC,002339.203,V,,,,,,,060218,,,N*4A
$GPGGA,002340.203,,,,,0,00,,,M,0.0,M,,0000*52
$GPGSA,M,1,,,,,,,,,,,,,,,*12
$GPGSV,3,1,12,11,03,257,14,15,05,041,11,16,55,179,19,20,03,034,06*7A
$GPGSV,3,2,12,21,26,060,18,27,80,340,24,33,33,198,,10,47,126,*78
$GPGSV,3,3,12,18,43,075,,08,41,293,,26,26,165,,07,17,302,*71
$GPRMC,002340.203,V,,,,,,,060218,,,N*44
$GPGGA,002341.203,,,,,0,00,,,M,0.0,M,,0000*53
$GPGSA,M,1,,,,,,,,,,,,,,,*12
$GPRMC,002341.203,V,,,,,,,060218,,,N*45
$GPGGA,002342.203,,,,,0,04,3.3,,M,0.0,M,,0000*7A
$GPGSA,M,1,,,,,,,,,,,,,,,*12
$GPRMC,002342.203,V,,,,,,,060218,,,N*46
$GPGGA,002343.203,,,,,0,04,3.3,,M,0.0,M,,0000*7B
$GPGSA,M,1,,,,,,,,,,,,,,,*12
$GPRMC,002343.203,V,,,,,,,060218,,,N*47
Survey end at #CCLK: "18/02/06,01:23:43+04"
Survey duration: 12 seconds, 1 bases detected over 1 freqs scanned.
$GPGGA,002344.203,,,,,0,04,3.3,,M,0.0,M,,0000*7C
$GPGSA,M,1,,,,,,,,,,,,,,,*12
$GPRMC,002344.203,V,,,,,,,060218,,,N*40
$GPGGA,002345.203,,,,,0,04,3.3,,M,0.0,M,,0000*7D
$GPGSA,M,1,,,,,,,,,,,,,,,*12
$GPGSV,3,1,12,27,80,340,24,16,55,179,18,21,26,060,18,15,05,041,11*79
$GPGSV,3,2,12,11,03,257,14,20,03,034,06,33,33,198,,10,47,126,*7A
$GPGSV,3,3,12,18,43,075,,08,41,293,,26,26,165,,07,17,302,*71
$GPRMC,002345.203,V,,,,,,,060218,,,N*41
Survey start at #CCLK: "18/02/06,01:23:45+04"
at#csurv
Network survey started ...
Survey end at #CCLK: "18/02/06,01:23:45+04"
Survey duration: 0 seconds, 0 bases detected over 0 freqs scanned.
$GPGGA,002346.203,,,,,0,04,3.3,,M,0.0,M,,0000*7E
$GPGSA,M,1,,,,,,,,,,,,,,,*12
$GPRMC,002346.203,V,,,,,,,060218,,,N*42
$GPGGA,002347.203,,,,,0,04,3.3,,M,0.0,M,,0000*7F
$GPGSA,M,1,,,,,,,,,,,,,,,*12
$GPRMC,002347.203,V,,,,,,,060218,,,N*43
Survey start at #CCLK: "18/02/06,01:23:47+04"
at#csurv
Network survey started ...
Survey end at #CCLK: "18/02/06,01:23:47+04"
Survey duration: 0 seconds, 0 bases detected over 0 freqs scanned.
$GPGGA,002348.203,,,,,0,04,3.3,,M,0.0,M,,0000*70
$GPGSA,M,1,,,,,,,,,,,,,,,*12
$GPRMC,002348.203,V,,,,,,,060218,,,N*4C
$GPGGA,002349.203,,,,,0,04,3.3,,M,0.0,M,,0000*71
$GPGSA,M,1,,,,,,,,,,,,,,,*12
$GPRMC,002349.203,V,,,,,,,060218,,,N*4D
Survey start at #CCLK: "18/02/06,01:23:49+04"
at#csurv
Network survey started ...
$GPGGA,002350.203,,,,,0,04,3.3,,M,0.0,M,,0000*79
$GPGSA,M,1,,,,,,,,,,,,,,,*12
$GPGSV,3,1,12,27,80,340,24,16,55,179,18,21,26,060,18,15,05,041,11*79
$GPGSV,3,2,12,11,03,257,15,20,03,034,04,33,33,198,,10,47,126,*79
$GPGSV,3,3,12,18,43,075,,08,41,293,,26,26,165,,07,17,302,*71
$GPRMC,002350.203,V,,,,,,,060218,,,N*45
$GPGGA,002351.203,,,,,0,04,3.3,,M,0.0,M,,0000*78
$GPGSA,M,1,,,,,,,,,,,,,,,*12
$GPRMC,002351.203,V,,,,,,,060218,,,N*44
$GPGGA,002352.203,,,,,0,04,3.3,,M,0.0,M,,0000*7B
$GPGSA,M,1,,,,,,,,,,,,,,,*12
$GPRMC,002352.203,V,,,,,,,060218,,,N*47
$GPGGA,002353.203,,,,,0,04,3.3,,M,0.0,M,,0000*7A
$GPGSA,M,1,,,,,,,,,,,,,,,*12
$GPRMC,002353.203,V,,,,,,,060218,,,N*46
$GPGGA,002354.203,,,,,0,04,3.3,,M,0.0,M,,0000*7D
$GPGSA,M,1,,,,,,,,,,,,,,,*12
$GPRMC,002354.203,V,,,,,,,060218,,,N*41
$GPGGA,002355.203,,,,,0,04,3.3,,M,0.0,M,,0000*7C
$GPGSA,M,1,,,,,,,,,,,,,,,*12
$GPGSV,3,1,12,27,80,340,24,16,55,179,18,21,26,060,18,15,05,041,11*79
$GPGSV,3,2,12,11,03,257,15,20,03,034,04,33,33,198,,10,47,126,*79
$GPGSV,3,3,12,18,43,075,,08,41,293,,26,26,165,,07,17,302,*71
$GPRMC,002355.203,V,,,,,,,060218,,,N*40
$GPGGA,002356.205,,,,,0,04,3.3,,M,0.0,M,,0000*79
$GPGSA,M,1,,,,,,,,,,,,,,,*12
arfcn: 981 bsic: 46 rxLev: -51 ber: 0.00 mcc: 208 mnc: 20 lac: 418 cellId: 21807 cellStatus: CELL_SUITABLE numArfcn: 1 arfcn: 981 numChannels: 16 array: 979 982 983 985 1012 1014 1017 1019 1020 787 790 791 793 796 882 884 pbcch: 0 nom: 2 rac: 6 spgc: 0 pat: 6 nco: 0 t3168: 1500 t3192: 500 drxmax: 0 ctrlAck: 0 bsCVmax: 8 alpha: 6 pcMeasCh: 1 
$GPRMC,002356.205,V,,,,,,,060218,,,N*45
$GPGGA,002357.205,,,,,0,04,3.3,,M,0.0,M,,0000*78
$GPGSA,M,1,,,,,,,,,,,,,,,*12
$GPRMC,002357.205,V,,,,,,,060218,,,N*44
$GPGGA,002358.206,,,,,0,04,3.3,,M,0.0,M,,0000*74
$GPGSA,M,1,,,,,,,,,,,,,,,*12
$GPRMC,002358.206,V,,,,,,,060218,,,N*48
$GPGGA,002359.203,,,,,0,04,3.3,,M,0.0,M,,0000*70
$GPGSA,M,1,,,,,,,,,,,,,,,*12
$GPRMC,002359.203,V,,,,,,,060218,,,N*4C
$GPGGA,002400.203,,,,,0,04,3.3,,M,0.0,M,,0000*7B
$GPGSA,M,1,,,,,,,,,,,,,,,*12
$GPGSV,3,1,12,27,80,340,24,16,55,179,16,21,26,060,18,15,05,041,10*76
$GPGSV,3,2,12,11,03,257,15,33,33,198,,10,47,126,,18,43,075,*77
$GPGSV,3,3,12,08,41,293,,26,26,165,,07,17,302,,30,09,325,*73
$GPRMC,002400.203,V,,,,,,,060218,,,N*47
$GPGGA,002401.203,,,,,0,00,,,M,0.0,M,,0000*50
$GPGSA,M,1,,,,,,,,,,,,,,,*12
$GPRMC,002401.203,V,,,,,,,060218,,,N*46
$GPGGA,002402.203,,,,,0,00,,,M,0.0,M,,0000*53
$GPGSA,M,1,,,,,,,,,,,,,,,*12
$GPRMC,002402.203,V,,,,,,,060218,,,N*45
Survey end at #CCLK: "18/02/06,01:24:02+04"
Survey duration: 13 seconds, 1 bases detected over 1 freqs scanned.
$GPGGA,002403.203,,,,,0,00,,,M,0.0,M,,0000*52
$GPGSA,M,1,,,,,,,,,,,,,,,*12
$GPRMC,002403.203,V,,,,,,,060218,,,N*44
$GPGGA,002404.203,,,,,0,04,2.5,,M,0.0,M,,0000*78
$GPGSA,M,1,,,,,,,,,,,,,,,*12
$GPRMC,002404.203,V,,,,,,,060218,,,N*43
Survey start at #CCLK: "18/02/06,01:24:04+04"
at#csurv
Network survey started ...
Survey end at #CCLK: "18/02/06,01:24:04+04"
Survey duration: 0 seconds, 0 bases detected over 0 freqs scanned.
$GPGGA,002405.203,,,,,0,04,2.5,,M,0.0,M,,0000*79
$GPGSA,M,1,,,,,,,,,,,,,,,*12
$GPGSV,3,1,12,27,80,340,24,16,55,179,14,10,47,126,15,21,26,060,18*72
$GPGSV,3,2,12,11,03,257,14,33,33,198,,18,43,075,,08,41,293,*74
$GPGSV,3,3,12,26,26,165,,07,17,302,,30,09,325,,15,05,041,*72
$GPRMC,002405.203,V,,,,,,,060218,,,N*42
$GPGGA,002406.203,,,,,0,00,,,M,0.0,M,,0000*57
$GPGSA,M,1,,,,,,,,,,,,,,,*12
$GPRMC,002406.203,V,,,,,,,060218,,,N*41
Survey start at #CCLK: "18/02/06,01:24:06+04"
at#csurv
Network survey started ...
Survey end at #CCLK: "18/02/06,01:24:06+04"
Survey duration: 0 seconds, 0 bases detected over 0 freqs scanned.
$GPGGA,002407.203,,,,,0,00,,,M,0.0,M,,0000*56
$GPGSA,M,1,,,,,,,,,,,,,,,*12
$GPRMC,002407.203,V,,,,,,,060218,,,N*40
$GPGGA,002408.203,,,,,0,00,,,M,0.0,M,,0000*59
$GPGSA,M,1,,,,,,,,,,,,,,,*12
$GPRMC,002408.203,V,,,,,,,060218,,,N*4F
Survey start at #CCLK: "18/02/06,01:24:08+04"
at#csurv
Network survey started ...
$GPGGA,002409.203,,,,,0,00,,,M,0.0,M,,0000*58
$GPGSA,M,1,,,,,,,,,,,,,,,*12
$GPRMC,002409.203,V,,,,,,,060218,,,N*4E
$GPGGA,002410.203,,,,,0,00,,,M,0.0,M,,0000*50
$GPGSA,M,1,,,,,,,,,,,,,,,*12
$GPGSV,3,1,12,10,47,126,16,11,03,257,14,16,55,179,04,21,26,060,17*75
$GPGSV,3,2,12,27,80,340,24,33,33,198,,18,43,075,,08,41,293,*7E
$GPGSV,3,3,12,26,26,165,,07,17,302,,30,09,325,,15,05,041,*72
$GPRMC,002410.203,V,,,,,,,060218,,,N*46
$GPGGA,002411.203,,,,,0,00,,,M,0.0,M,,0000*51
$GPGSA,M,1,,,,,,,,,,,,,,,*12
$GPRMC,002411.203,V,,,,,,,060218,,,N*47
$GPGGA,002412.201,,,,,0,00,,,M,0.0,M,,0000*50
$GPGSA,M,1,,,,,,,,,,,,,,,*12
$GPRMC,002412.201,V,,,,,,,060218,,,N*46
$GPGGA,002413.203,,,,,0,00,,,M,0.0,M,,0000*53
$GPGSA,M,1,,,,,,,,,,,,,,,*12
$GPRMC,002413.203,V,,,,,,,060218,,,N*45
$GPGGA,002414.203,,,,,0,00,,,M,0.0,M,,0000*54
$GPGSA,M,1,,,,,,,,,,,,,,,*12
$GPRMC,002414.203,V,,,,,,,060218,,,N*42
$GPGGA,002415.203,,,,,0,04,2.5,,M,0.0,M,,0000*78
$GPGSA,M,1,,,,,,,,,,,,,,,*12
arfcn: 981 bsic: 46 rxLev: -51 ber: 50.00 mcc: 208 mnc: 20 lac: 418 cellId: 21807 cellStatus: CELL_SUITABLE numArfcn: 1 arfcn: 981 numChannels: 16 array: 979 982 983 985 1012 1014 1017 1019 1020 787 790 791 793 796 882 884 pbcch: 0 nom: 2 rac: 6 spgc: 0 pat: 6 nco: 0 t3168: 1500 t3192: 500 drxmax: 0 ctrlAck: 0 bsCVmax: 8 alpha: 6 pcMeasCh: 1 
$GPGSV,3,1,12,27,80,340,24,16,55,179,12,10,47,126,16,21,26,060,17*78
$GPGSV,3,2,12,11,03,257,14,33,33,198,,18,43,075,,08,41,293,*74
$GPGSV,3,3,12,26,26,165,,07,17,302,,30,09,325,,15,05,041,*72
$GPRMC,002415.203,V,,,,,,,060218,,,N*43
$GPGGA,002416.201,,,,,0,04,2.5,,M,0.0,M,,0000*79
$GPGSA,M,1,,,,,,,,,,,,,,,*12
$GPRMC,002416.201,V,,,,,,,060218,,,N*42
$GPGGA,002417.203,,,,,0,04,2.5,,M,0.0,M,,0000*7A
$GPGSA,M,1,,,,,,,,,,,,,,,*12
$GPRMC,002417.203,V,,,,,,,060218,,,N*41
$GPGGA,002418.203,,,,,0,04,2.5,,M,0.0,M,,0000*75
$GPGSA,M,1,,,,,,,,,,,,,,,*12
$GPRMC,002418.203,V,,,,,,,060218,,,N*4E
$GPGGA,002419.203,,,,,0,00,,,M,0.0,M,,0000*59
$GPGSA,M,1,,,,,,,,,,,,,,,*12
$GPRMC,002419.203,V,,,,,,,060218,,,N*4F
$GPGGA,002420.203,,,,,0,04,2.5,,M,0.0,M,,0000*7E
$GPGSA,M,1,,,,,,,,,,,,,,,*12
$GPGSV,3,1,12,27,80,340,24,16,55,179,12,10,47,126,17,21,26,060,17*79
$GPGSV,3,2,12,11,03,257,14,33,33,198,,18,43,075,,08,41,293,*74
$GPGSV,3,3,12,26,26,165,,07,17,302,,30,09,325,,15,05,041,*72
$GPRMC,002420.203,V,,,,,,,060218,,,N*45
$GPGGA,002421.203,,,,,0,04,2.5,,M,0.0,M,,0000*7F
$GPGSA,M,1,,,,,,,,,,,,,,,*12
$GPRMC,002421.203,V,,,,,,,060218,,,N*44
Survey end at #CCLK: "18/02/06,01:24:21+04"
Survey duration: 12 seconds, 1 bases detected over 1 freqs scanned.
$GPGGA,002422.203,,,,,0,04,2.5,,M,0.0,M,,0000*7C
$GPGSA,M,1,,,,,,,,,,,,,,,*12
$GPRMC,002422.203,V,,,,,,,060218,,,N*47
$GPGGA,002423.203,,,,,0,04,2.5,,M,0.0,M,,0000*7D
$GPGSA,M,1,,,,,,,,,,,,,,,*12
$GPRMC,002423.203,V,,,,,,,060218,,,N*46
Survey start at #CCLK: "18/02/06,01:24:23+04"
at#csurv
Network survey started ...
$GPGGA,002424.203,,,,,0,04,2.5,,M,0.0,M,,0000*7A
$GPGSA,M,1,,,,,,,,,,,,,,,*12
$GPRMC,002424.203,V,,,,,,,060218,,,N*41
$GPGGA,002425.203,,,,,0,00,,,M,0.0,M,,0000*56
$GPGSA,M,1,,,,,,,,,,,,,,,*12
$GPGSV,3,1,12,10,47,126,17,11,03,257,14,16,55,179,11,21,26,060,16*71
$GPGSV,3,2,12,27,80,340,23,33,33,198,,18,43,075,,08,41,293,*79
$GPGSV,3,3,12,26,26,165,,07,17,302,,30,09,325,,15,05,041,*72
$GPRMC,002425.203,V,,,,,,,060218,,,N*40
$GPGGA,002426.203,,,,,0,00,,,M,0.0,M,,0000*55
$GPGSA,M,1,,,,,,,,,,,,,,,*12
$GPRMC,002426.203,V,,,,,,,060218,,,N*43
$GPGGA,002427.203,,,,,0,00,,,M,0.0,M,,0000*54
$GPGSA,M,1,,,,,,,,,,,,,,,*12
$GPRMC,002427.203,V,,,,,,,060218,,,N*42
$GPGGA,002428.203,,,,,0,04,2.5,,M,0.0,M,,0000*76
$GPGSA,M,1,,,,,,,,,,,,,,,*12
$GPRMC,002428.203,V,,,,,,,060218,,,N*4D
$GPGGA,002429.203,,,,,0,04,2.5,,M,0.0,M,,0000*77
$GPGSA,M,1,,,,,,,,,,,,,,,*12
$GPRMC,002429.203,V,,,,,,,060218,,,N*4C
$GPGGA,002430.203,,,,,0,04,2.5,,M,0.0,M,,0000*7F
arfcn: 981 bsic: 46 rxLev: -51 ber: 0.00 mcc: 208 mnc: 20 lac: 418 cellId: 21807 cellStatus: CELL_SUITABLE numArfcn: 1 arfcn: 981 numChannels: 16 array: 979 982 983 985 1012 1014 1017 1019 1020 787 790 791 793 796 882 884 pbcch: 0 nom: 2 rac: 6 spgc: 0 pat: 6 nco: 0 t3168: 1500 t3192: 500 drxmax: 0 ctrlAck: 0 bsCVmax: 8 alpha: 6 pcMeasCh: 1 
$GPGSA,M,1,,,,,,,,,,,,,,,*12
$GPGSV,3,1,12,27,80,340,23,16,55,179,16,10,47,126,18,21,26,060,16*74
$GPGSV,3,2,12,11,03,257,15,33,33,198,,18,43,075,,08,41,293,*75
$GPGSV,3,3,12,26,26,165,,07,17,302,,30,09,325,,15,05,041,*72
$GPRMC,002430.203,V,,,,,,,060218,,,N*44
$GPGGA,002431.203,,,,,0,04,2.5,,M,0.0,M,,0000*7E
$GPGSA,M,1,,,,,,,,,,,,,,,*12
$GPRMC,002431.203,V,,,,,,,060218,,,N*45
$GPGGA,002432.203,,,,,0,04,2.5,,M,0.0,M,,0000*7D
$GPGSA,M,1,,,,,,,,,,,,,,,*12
$GPRMC,002432.203,V,,,,,,,060218,,,N*46
$GPGGA,002433.203,,,,,0,00,,,M,0.0,M,,0000*51
$GPGSA,M,1,,,,,,,,,,,,,,,*12
$GPRMC,002433.203,V,,,,,,,060218,,,N*47
$GPGGA,002434.203,,,,,0,04,2.5,,M,0.0,M,,0000*7B
$GPGSA,M,1,,,,,,,,,,,,,,,*12
$GPRMC,002434.203,V,,,,,,,060218,,,N*40
$GPGGA,002435.203,,,,,0,04,2.5,,M,0.0,M,,0000*7A
$GPGSA,M,1,,,,,,,,,,,,,,,*12
$GPGSV,3,1,12,27,80,340,23,16,55,179,17,10,47,126,18,21,26,060,15*76
$GPGSV,3,2,12,11,03,257,14,33,33,198,,18,43,075,,08,41,293,*74
$GPGSV,3,3,12,26,26,165,,07,17,302,,30,09,325,,15,05,041,*72
$GPRMC,002435.203,V,,,,,,,060218,,,N*41
$GPGGA,002436.203,,,,,0,00,,,M,0.0,M,,0000*54
$GPGSA,M,1,,,,,,,,,,,,,,,*12
$GPRMC,002436.203,V,,,,,,,060218,,,N*42
$GPGGA,002437.203,,,,,0,04,2.5,,M,0.0,M,,0000*78
$GPGSA,M,1,,,,,,,,,,,,,,,*12
$GPRMC,002437.203,V,,,,,,,060218,,,N*43
$GPGGA,002438.203,,,,,0,04,2.5,,M,0.0,M,,0000*77
$GPGSA,M,1,,,,,,,,,,,,,,,*12
$GPRMC,002438.203,V,,,,,,,060218,,,N*4C
Survey end at #CCLK: "18/02/06,01:24:38+04"
Survey duration: 15 seconds, 1 bases detected over 1 freqs scanned.
$GPGGA,002439.203,,,,,0,04,2.5,,M,0.0,M,,0000*76
$GPGSA,M,1,,,,,,,,,,,,,,,*12
$GPRMC,002439.203,V,,,,,,,060218,,,N*4D
$GPGGA,002440.203,,,,,0,04,2.5,,M,0.0,M,,0000*78
$GPGSA,M,1,,,,,,,,,,,,,,,*12
$GPGSV,3,1,12,27,80,340,23,16,55,179,16,10,47,126,18,21,26,060,15*77
Survey start at #CCLK: "18/02/06,01:24:40+04"
at#csurv
Network survey started ...
Survey end at #CCLK: "18/02/06,01:24:40+04"
Survey duration: 0 seconds, 0 bases detected over 0 freqs scanned.
$GPGSV,3,2,12,11,03,257,14,33,33,198,,18,43,075,,08,41,293,*74
$GPGSV,3,3,12,26,26,165,,07,17,302,,30,09,325,,15,05,041,*72
$GPRMC,002440.203,V,,,,,,,060218,,,N*43
$GPGGA,002441.203,,,,,0,04,2.5,,M,0.0,M,,0000*79
$GPGSA,M,1,,,,,,,,,,,,,,,*12
$GPRMC,002441.203,V,,,,,,,060218,,,N*42
Survey start at #CCLK: "18/02/06,01:24:41+04"
at#csurv
Network survey started ...
$GPGGA,002442.203,4806.8775,N,00139.4070,W,1,04,2.5,84.8,M,48.3,M,,0000*78
Survey end at #CCLK: "18/02/06,01:24:41+04"
Survey duration: 0 seconds, 0 bases detected over 0 freqs scanned.
$GPGSA,M,3,27,16,10,21,,,,,,,,,3.8,2.5,2.8*38
$GPRMC,002442.203,A,4806.8775,N,00139.4070,W,5.54,171.26,060218,,,A*78
$GPGGA,002443.203,4806.8818,N,00139.3993,W,1,04,2.5,84.3,M,48.3,M,,0000*75
$GPGSA,M,3,27,16,10,21,,,,,,,,,3.8,2.5,2.8*38
$GPRMC,002443.203,A,4806.8818,N,00139.3993,W,5.30,116.37,060218,,,A*7D
$GPGGA,002444.203,4806.8887,N,00139.4030,W,1,04,2.5,84.6,M,48.3,M,,0000*76
$GPGSA,M,3,27,16,10,21,,,,,,,,,3.8,2.5,2.8*38
$GPRMC,002444.203,A,4806.8887,N,00139.4030,W,1.29,82.17,060218,,,A*49
Survey start at #CCLK: "18/02/06,01:24:44+04"
at#csurv
Network survey started ...
$GPGGA,002445.203,4806.8911,N,00139.4021,W,1,04,2.5,84.7,M,48.3,M,,0000*78
$GPGSA,M,3,27,16,10,21,,,,,,,,,3.8,2.5,2.8*38
$GPGSV,3,1,12,27,80,340,24,16,55,179,16,10,47,126,18,21,26,060,15*70
$GPGSV,3,2,12,11,03,257,15,33,33,198,,18,43,075,,08,41,293,*75
$GPGSV,3,3,12,26,26,165,,07,17,302,,30,09,325,,15,05,041,*72
$GPRMC,002445.203,A,4806.8911,N,00139.4021,W,9.49,293.43,060218,,,A*7B
$GPGGA,002446.203,4806.8945,N,00139.4016,W,1,04,2.5,84.4,M,48.3,M,,0000*7D
$GPGSA,M,3,27,16,10,21,,,,,,,,,3.8,2.5,2.8*38
$GPRMC,002446.203,A,4806.8945,N,00139.4016,W,11.59,307.08,060218,,,A*46
$GPGGA,002447.203,4806.8954,N,00139.3908,W,1,04,2.5,83.5,M,48.3,M,,0000*7B
$GPGSA,M,3,27,16,10,21,,,,,,,,,3.8,2.5,2.8*38
$GPRMC,002447.203,A,4806.8954,N,00139.3908,W,16.91,49.06,060218,,,A*72
$GPGGA,002448.203,4806.9036,N,00139.3824,W,1,04,2.5,83.6,M,48.3,M,,0000*74
$GPGSA,M,3,27,16,10,21,,,,,,,,,3.8,2.5,2.8*38
$GPRMC,002448.203,A,4806.9036,N,00139.3824,W,19.18,43.34,060218,,,A*7B
$GPGGA,002449.203,4806.9020,N,00139.3647,W,1,04,2.5,84.1,M,48.3,M,,0000*79
$GPGSA,M,3,27,16,10,21,,,,,,,,,3.8,2.5,2.8*38
$GPRMC,002449.203,A,4806.9020,N,00139.3647,W,8.17,82.71,060218,,,A*45
$GPGGA,002450.203,4806.9057,N,00139.3674,W,1,04,2.5,84.8,M,48.3,M,,0000*78
$GPGSA,M,3,27,16,10,21,,,,,,,,,3.8,2.5,2.8*38
$GPGSV,3,1,12,27,80,340,24,16,55,179,15,10,47,126,18,21,26,060,14*72
$GPGSV,3,2,12,11,03,257,15,33,33,198,,18,43,075,,08,41,293,*75
$GPGSV,3,3,12,26,26,165,,07,17,302,,30,09,325,,15,05,041,*72
$GPRMC,002450.203,A,4806.9057,N,00139.3674,W,6.17,58.38,060218,,,A*49
$GPGGA,002451.203,4806.8987,N,00139.3583,W,1,04,2.5,85.4,M,48.3,M,,0000*7A
$GPGSA,M,3,27,16,10,21,,,,,,,,,3.8,2.5,2.8*38
$GPRMC,002451.203,A,4806.8987,N,00139.3583,W,8.07,262.16,060218,,,A*7E
$GPGGA,002452.203,4806.9035,N,00139.3632,W,1,04,2.5,83.9,M,48.3,M,,0000*7A
$GPGSA,M,3,27,16,10,21,,,,,,,,,3.8,2.5,2.8*38
$GPRMC,002452.203,A,4806.9035,N,00139.3632,W,2.43,234.37,060218,,,A*7F
$GPGGA,002453.203,,,,,0,00,,,M,0.0,M,,0000*57
$GPGSA,M,1,,,,,,,,,,,,,,,*12
$GPRMC,002453.203,V,,,,,,,060218,,,N*41
arfcn: 981 bsic: 46 rxLev: -51 ber: 0.00 mcc: 208 mnc: 20 lac: 418 cellId: 21807 cellStatus: CELL_SUITABLE numArfcn: 1 arfcn: 981 numChannels: 16 array: 979 982 983 985 1012 1014 1017 1019 1020 787 790 791 793 796 882 884 pbcch: 0 nom: 2 rac: 6 spgc: 0 pat: 6 nco: 0 t3168: 1500 t3192: 500 drxmax: 0 ctrlAck: 0 bsCVmax: 8 alpha: 6 pcMeasCh: 1 
$GPGGA,002454.203,,,,,0,00,,,M,0.0,M,,0000*50
$GPGSA,M,1,,,,,,,,,,,,,,,*12
$GPRMC,002454.203,V,,,,,,,060218,,,N*46
$GPGGA,002455.203,,,,,0,00,,,M,0.0,M,,0000*51
$GPGSA,M,1,,,,,,,,,,,,,,,*12
$GPGSV,3,1,12,10,47,126,17,11,03,257,15,16,55,179,14,21,26,060,04*76
$GPGSV,3,2,12,27,80,340,24,33,33,198,,18,43,075,,08,41,293,*7E
$GPGSV,3,3,12,26,26,165,,07,17,302,,30,09,325,,15,05,041,*72
$GPRMC,002455.203,V,,,,,,,060218,,,N*47
$GPGGA,002456.203,,,,,0,00,,,M,0.0,M,,0000*52
$GPGSA,M,1,,,,,,,,,,,,,,,*12
$GPRMC,002456.203,V,,,,,,,060218,,,N*44
arfcn: 985 bsic: 44 rxLev: -55 ber: 0.00 mcc: 208 mnc: 20 lac: 418 cellId: 21808 cellStatus: CELL_SUITABLE numArfcn: 1 arfcn: 985 numChannels: 25 array: 787 788 790 793 795 796 879 884 975 977 978 979 980 981 982 983 1011 1012 1014 1015 1017 1019 1020 1021 1022 pbcch: 0 nom: 2 rac: 6 spgc: 0 pat: 6 nco: 0 t3168: 1500 t3192: 500 drxmax: 0 ctrlAck: 0 bsCVmax: 8 alpha: 6 pcMeasCh: 1 
arfcn: 991 rxLev: -62
arfcn: 992 rxLev: -62
arfcn: 994 rxLev: -62
arfcn: 995 rxLev: -62
arfcn: 997 rxLev: -62
arfcn: 996 rxLev: -62
$GPGGA,002457.203,,,,,0,00,,,M,0.0,M,,0000*53
arfcn: 998 rxLev: -62
$GPGSA,M,1,,,,,,,,,,,,,,,*12
$GPRMC,002457.203,V,,,,,,,060218,,,N*45
arfcn: 999 rxLev: -62
arfcn: 1000 rxLev: -62
arfcn: 993 rxLev: -62
arfcn: 1003 rxLev: -62
arfcn: 1004 rxLev: -62
arfcn: 1007 rxLev: -63
arfcn: 1008 rxLev: -63
arfcn: 990 rxLev: -63
arfcn: 1001 rxLev: -63
$GPGGA,002458.203,,,,,0,00,,,M,0.0,M,,0000*5C
arfcn: 1006 rxLev: -63
$GPGSA,M,1,,,,,,,,,,,,,,,*12
arfcn: 1005 rxLev: -63
$GPRMC,002458.203,V,,,,,,,060218,,,N*4A
arfcn: 1002 rxLev: -63
arfcn: 982 rxLev: -69
arfcn: 980 rxLev: -69
arfcn: 989 rxLev: -71
$GPGGA,002459.203,,,,,0,00,,,M,0.0,M,,0000*5D
$GPGSA,M,1,,,,,,,,,,,,,,,*12
$GPRMC,002459.203,V,,,,,,,060218,,,N*4B
$GPGGA,002500.201,,,,,0,00,,,M,0.0,M,,0000*52
$GPGSA,M,1,,,,,,,,,,,,,,,*12
$GPGSV,3,1,12,10,47,126,17,11,03,257,15,16,55,179,07,27,80,340,24*7D
$GPGSV,3,2,12,33,33,198,,18,43,075,,08,41,293,,21,26,060,*73
arfcn: 80 bsic: 47 rxLev: -71 ber: 0.00 mcc: 208 mnc: 10 lac: 49415 cellId: 23568 cellStatus: CELL_FORBIDDEN numArfcn: 2 arfcn: 80 89 numChannels: 19 array: 76 77 78 80 82 83 84 85 113 114 115 116 117 118 119 120 122 123 124 pbcch: 0 nom: 2 rac: 31 spgc: 0 pat: 6 nco: 0 t3168: 1000 t3192: 500 drxmax: 4 ctrlAck: 1 bsCVmax: 9 alpha: 10 pcMeasCh: 0 
$GPGSV,3,3,12,26,26,165,,07,17,302,,30,09,325,,15,05,041,*72
$GPRMC,002500.201,V,,,,,,,060218,,,N*44
$GPGGA,002501.203,,,,,0,00,,,M,0.0,M,,0000*51
$GPGSA,M,1,,,,,,,,,,,,,,,*12
$GPRMC,002501.203,V,,,,,,,060218,,,N*47
$GPGGA,002502.203,,,,,0,00,,,M,0.0,M,,0000*52
$GPGSA,M,1,,,,,,,,,,,,,,,*12
$GPRMC,002502.203,V,,,,,,,060218,,,N*44
arfcn: 12 bsic: 0 rxLev: -72 ber: 0.00 mcc: 208 mnc: 01 lac: 10300 cellId: 6467 cellStatus: CELL_FORBIDDEN numArfcn: 13 arfcn: 12 17 18 19 20 21 22 23 24 25 47 48 49 numChannels: 15 array: 1 2 3 8 9 10 14 512 513 514 515 518 605 606 608 pbcch: 0 nom: 2 rac: 1 spgc: 0 pat: 6 nco: 0 t3168: 1000 t3192: 500 drxmax: 2 ctrlAck: 0 bsCVmax: 9 alpha: 5 pcMeasCh: 1 
arfcn: 986 rxLev: -72
arfcn: 1009 rxLev: -72
arfcn: 984 rxLev: -73
$GPGGA,002503.203,,,,,0,00,,,M,0.0,M,,0000*53
$GPGSA,M,1,,,,,,,,,,,,,,,*12
$GPRMC,002503.203,V,,,,,,,060218,,,N*45
$GPGGA,002504.203,,,,,0,00,,,M,0.0,M,,0000*54
$GPGSA,M,1,,,,,,,,,,,,,,,*12
$GPRMC,002504.203,V,,,,,,,060218,,,N*42
arfcn: 10 bsic: 45 rxLev: -76 ber: 0.00 mcc: 208 mnc: 01 lac: 10301 cellId: 6461 cellStatus: CELL_FORBIDDEN numArfcn: 13 arfcn: 10 17 18 19 20 21 22 23 24 25 47 48 49 numChannels: 17 array: 1 3 4 5 6 8 12 14 512 513 514 516 517 604 605 606 608 pbcch: 0 nom: 2 rac: 1 spgc: 0 pat: 6 nco: 0 t3168: 1000 t3192: 500 drxmax: 2 ctrlAck: 0 bsCVmax: 9 alpha: 5 pcMeasCh: 1 
$GPGGA,002505.202,,,,,0,04,3.2,,M,0.0,M,,0000*7F
$GPGSA,M,1,,,,,,,,,,,,,,,*12
$GPGSV,3,1,12,27,80,340,24,16,55,179,12,10,47,126,17,15,05,041,12*79
$GPGSV,3,2,12,11,03,257,16,33,33,198,,18,43,075,,08,41,293,*76
$GPGSV,3,3,12,21,26,060,,26,26,165,,07,17,302,,30,09,325,*77
$GPRMC,002505.202,V,,,,,,,060218,,,N*42
$GPGGA,002506.202,,,,,0,04,3.2,,M,0.0,M,,0000*7C
$GPGSA,M,1,,,,,,,,,,,,,,,*12
$GPRMC,002506.202,V,,,,,,,060218,,,N*41
arfcn: 8 bsic: 48 rxLev: -77 ber: 0.00 mcc: 208 mnc: 01 lac: 10300 cellId: 6473 cellStatus: CELL_FORBIDDEN numArfcn: 13 arfcn: 8 17 18 19 20 21 22 23 24 25 47 48 49 numChannels: 18 array: 1 2 3 4 5 10 12 13 14 15 512 513 514 515 516 517 605 610 pbcch: 0 nom: 2 rac: 1 spgc: 0 pat: 6 nco: 0 t3168: 1000 t3192: 500 drxmax: 2 ctrlAck: 0 bsCVmax: 9 alpha: 5 pcMeasCh: 1 
$GPGGA,002507.202,,,,,0,04,3.2,,M,0.0,M,,0000*7D
$GPGSA,M,1,,,,,,,,,,,,,,,*12
$GPRMC,002507.202,V,,,,,,,060218,,,N*40
$GPGGA,002508.202,,,,,0,04,3.2,,M,0.0,M,,0000*72
$GPGSA,M,1,,,,,,,,,,,,,,,*12
$GPRMC,002508.202,V,,,,,,,060218,,,N*4F
arfcn: 78 bsic: 2 rxLev: -77 ber: 0.00 mcc: 208 mnc: 10 lac: 49415 cellId: 45280 cellStatus: CELL_FORBIDDEN numArfcn: 2 arfcn: 78 116 numChannels: 20 array: 76 77 78 79 80 82 83 84 85 86 114 115 116 117 118 120 121 122 123 124 pbcch: 0 nom: 2 rac: 31 spgc: 0 pat: 6 nco: 0 t3168: 1000 t3192: 500 drxmax: 4 ctrlAck: 1 bsCVmax: 9 alpha: 10 pcMeasCh: 0 
$GPGGA,002509.202,,,,,0,04,3.2,,M,0.0,M,,0000*73
$GPGSA,M,1,,,,,,,,,,,,,,,*12
$GPRMC,002509.202,V,,,,,,,060218,,,N*4E
arfcn: 85 bsic: 0 rxLev: -78 ber: 0.00 mcc: 208 mnc: 10 lac: 49415 cellId: 44814 cellStatus: CELL_FORBIDDEN numArfcn: 2 arfcn: 85 119 numChannels: 20 array: 76 77 78 79 80 82 83 85 86 114 115 116 117 118 119 120 121 122 123 124 pbcch: 0 nom: 2 rac: 31 spgc: 0 pat: 6 nco: 0 t3168: 1000 t3192: 500 drxmax: 4 ctrlAck: 1 bsCVmax: 9 alpha: 10 pcMeasCh: 0 
$GPGGA,002510.202,,,,,0,04,3.2,,M,0.0,M,,0000*7B
$GPGSA,M,1,,,,,,,,,,,,,,,*12
$GPGSV,3,1,12,27,80,340,24,16,55,179,13,10,47,126,18,15,05,041,13*76
$GPGSV,3,2,12,11,03,257,16,33,33,198,,18,43,075,,08,41,293,*76
$GPGSV,3,3,12,21,26,060,,26,26,165,,07,17,302,,30,09,325,*77
$GPRMC,002510.202,V,,,,,,,060218,,,N*46
$GPGGA,002511.202,,,,,0,04,3.2,,M,0.0,M,,0000*7A
$GPGSA,M,1,,,,,,,,,,,,,,,*12
$GPRMC,002511.202,V,,,,,,,060218,,,N*47
$GPGGA,002512.202,,,,,0,04,3.2,,M,0.0,M,,0000*79
$GPGSA,M,1,,,,,,,,,,,,,,,*12
$GPRMC,002512.202,V,,,,,,,060218,,,N*44
$GPGGA,002513.202,,,,,0,04,3.2,,M,0.0,M,,0000*78
$GPGSA,M,1,,,,,,,,,,,,,,,*12
$GPRMC,002513.202,V,,,,,,,060218,,,N*45
arfcn: 983 bsic: 21 rxLev: -79 ber: 0.00 mcc: 208 mnc: 20 lac: 418 cellId: 21809 cellStatus: CELL_SUITABLE numArfcn: 1 arfcn: 983 numChannels: 24 array: 788 790 792 793 795 796 878 882 884 976 977 979 981 985 986 987 1012 1013 1014 1016 1017 1019 1020 1022 pbcch: 0 nom: 2 rac: 6 spgc: 0 pat: 6 nco: 0 t3168: 1500 t3192: 500 drxmax: 0 ctrlAck: 0 bsCVmax: 8 alpha: 6 pcMeasCh: 1 
arfcn: 797 rxLev: -80
arfcn: 800 rxLev: -80
arfcn: 805 rxLev: -80
arfcn: 822 rxLev: -80
arfcn: 796 rxLev: -80
arfcn: 831 rxLev: -80
arfcn: 836 rxLev: -80
$GPGGA,002514.202,,,,,0,04,3.2,,M,0.0,M,,0000*7F
$GPGSA,M,1,,,,,,,,,,,,,,,*12
arfcn: 859 rxLev: -81
$GPRMC,002514.202,V,,,,,,,060218,,,N*42
arfcn: 795 rxLev: -81
arfcn: 821 rxLev: -81
arfcn: 827 rxLev: -81
arfcn: 817 rxLev: -81
arfcn: 819 rxLev: -81
arfcn: 809 rxLev: -81
arfcn: 802 rxLev: -81
arfcn: 804 rxLev: -81
arfcn: 792 rxLev: -81
arfcn: 858 rxLev: -81
$GPGGA,002515.202,,,,,0,05,2.5,,M,0.0,M,,0000*79
$GPGSA,M,1,,,,,,,,,,,,,,,*12
arfcn: 854 rxLev: -81
arfcn: 848 rxLev: -81
$GPGSV,3,1,12,27,80,340,24,16,55,179,17,10,47,126,18,21,26,060,14*70
arfcn: 833 rxLev: -81
arfcn: 844 rxLev: -81
$GPGSV,3,2,12,15,05,041,13,11,03,257,16,33,33,198,,18,43,075,*75
arfcn: 880 rxLev: -81
$GPGSV,3,3,12,08,41,293,,26,26,165,,07,17,302,,30,09,325,*73
$GPRMC,002515.202,V,,,,,,,060218,,,N*43
$GPGGA,002516.202,,,,,0,05,2.3,,M,0.0,M,,0000*7C
$GPGSA,M,1,,,,,,,,,,,,,,,*12
$GPRMC,002516.202,V,,,,,,,060218,,,N*40
$GPGGA,002517.202,4806.8574,N,00139.4804,W,1,05,2.3,-61.4,M,48.3,M,,0000*5D
$GPGSA,M,3,27,16,10,21,15,,,,,,,,3.1,2.3,2.1*3A
$GPRMC,002517.202,A,4806.8574,N,00139.4804,W,7.92,208.89,060218,,,A*70
$GPGGA,002518.000,4806.8557,N,00139.4784,W,1,05,2.3,-55.9,M,48.3,M,,0000*5E
$GPGSA,M,3,27,16,10,21,15,,,,,,,,3.1,2.3,2.1*3A
arfcn: 124 bsic: 2 rxLev: -81 ber: 0.03 mcc: 208 mnc: 10 lac: 49415 cellId: 43517 cellStatus: CELL_FORBIDDEN numArfcn: 2 arfcn: 112 124 numChannels: 14 array: 76 77 78 80 82 85 114 115 117 118 120 121 122 124 pbcch: 0 nom: 2 rac: 31 spgc: 0 pat: 6 nco: 0 t3168: 1000 t3192: 500 drxmax: 4 ctrlAck: 1 bsCVmax: 9 alpha: 10 pcMeasCh: 0 
$GPRMC,002518.000,A,4806.8557,N,00139.4784,W,7.52,210.53,060218,,,A*7B
arfcn: 843 rxLev: -82
arfcn: 842 rxLev: -82
arfcn: 834 rxLev: -82
arfcn: 832 rxLev: -82
arfcn: 829 rxLev: -82
arfcn: 850 rxLev: -82
arfcn: 851 rxLev: -82
$GPGGA,002519.000,4806.8555,N,00139.4738,W,1,05,2.3,-47.9,M,48.3,M,,0000*59
arfcn: 856 rxLev: -82
arfcn: 860 rxLev: -82
$GPGSA,M,3,27,16,10,21,15,,,,,,,,3.1,2.3,2.1*3A
arfcn: 794 rxLev: -82
arfcn: 803 rxLev: -82
$GPRMC,002519.000,A,4806.8555,N,00139.4738,W,6.32,210.12,060218,,,A*7D
arfcn: 811 rxLev: -82
arfcn: 806 rxLev: -82
arfcn: 807 rxLev: -82
arfcn: 813 rxLev: -82
arfcn: 814 rxLev: -82
arfcn: 815 rxLev: -82
arfcn: 816 rxLev: -82
arfcn: 828 rxLev: -82
$GPGGA,002520.000,4806.8557,N,00139.4730,W,1,04,2.5,-49.3,M,48.3,M,,0000*5A
arfcn: 823 rxLev: -82
arfcn: 824 rxLev: -82
$GPGSA,M,3,27,16,10,21,,,,,,,,,3.8,2.5,2.8*38
arfcn: 825 rxLev: -82
arfcn: 826 rxLev: -82
$GPGSV,3,1,12,27,80,340,24,16,55,179,17,10,47,126,18,21,26,060,15*71
arfcn: 818 rxLev: -82
$GPGSV,3,2,12,11,03,257,16,15,05,041,06,37,27,150,,18,43,075,*74
arfcn: 808 rxLev: -82
$GPGSV,3,3,12,08,41,293,,26,26,165,,07,17,302,,30,09,325,*73
arfcn: 812 rxLev: -82
arfcn: 810 rxLev: -82
$GPRMC,002520.000,A,4806.8557,N,00139.4730,W,5.45,209.88,060218,,,A*75
arfcn: 801 rxLev: -82
arfcn: 799 rxLev: -82
arfcn: 798 rxLev: -82
$GPGGA,002521.000,4806.8558,N,00139.4718,W,1,04,2.5,-51.5,M,48.3,M,,0000*51
arfcn: 793 rxLev: -82
$GPGSA,M,3,27,16,10,21,,,,,,,,,3.8,2.5,2.8*38
arfcn: 855 rxLev: -82
arfcn: 853 rxLev: -82
$GPRMC,002521.000,A,4806.8558,N,00139.4718,W,3.21,209.26,060218,,,A*71
arfcn: 852 rxLev: -82
arfcn: 849 rxLev: -82
arfcn: 845 rxLev: -82
arfcn: 846 rxLev: -82
arfcn: 835 rxLev: -82
arfcn: 841 rxLev: -82
arfcn: 838 rxLev: -82
arfcn: 839 rxLev: -82
$GPGGA,002522.000,4806.8553,N,00139.4728,W,1,04,2.5,-55.1,M,48.3,M,,0000*5A
$GPGSA,M,3,27,16,10,21,,,,,,,,,3.8,2.5,2.8*38
$GPRMC,002522.000,A,4806.8553,N,00139.4728,W,2.63,208.64,060218,,,A*7A
$GPGGA,002523.000,4806.8549,N,00139.4756,W,1,04,2.5,-61.6,M,48.3,M,,0000*59
$GPGSA,M,3,27,16,10,21,,,,,,,,,3.8,2.5,2.8*38
$GPRMC,002523.000,A,4806.8549,N,00139.4756,W,1.91,209.78,060218,,,A*7B
arfcn: 604 bsic: 20 rxLev: -82 ber: 0.00 mcc: 208 mnc: 01 lac: 10300 cellId: 39915 cellStatus: CELL_FORBIDDEN numArfcn: 16 arfcn: 519 520 521 522 523 524 525 526 596 597 598 599 600 601 602 603 numChannels: 13 array: 5 6 10 15 16 512 514 516 517 518 608 609 610 pbcch: 0 nom: 2 rac: 1 spgc: 0 pat: 6 nco: 0 t3168: 1000 t3192: 500 drxmax: 2 ctrlAck: 0 bsCVmax: 9 alpha: 5 pcMeasCh: 1 
$GPGGA,002524.000,4806.8566,N,00139.4784,W,1,04,2.5,-64.6,M,48.3,M,,0000*59
$GPGSA,M,3,27,16,10,21,,,,,,,,,3.8,2.5,2.8*38
$GPRMC,002524.000,A,4806.8566,N,00139.4784,W,1.75,213.65,060218,,,A*73
$GPGGA,002525.000,4806.8576,N,00139.4805,W,1,04,2.5,-67.3,M,48.3,M,,0000*59
$GPGSA,M,3,27,16,10,21,,,,,,,,,3.8,2.5,2.8*38
$GPGSV,3,1,12,27,80,340,24,16,55,179,17,10,47,126,17,21,26,060,16*7D
$GPGSV,3,2,12,11,03,257,17,15,05,041,07,37,27,150,,18,43,075,*74
$GPGSV,3,3,12,08,41,293,,26,26,165,,07,17,302,,30,09,325,*73
$GPRMC,002525.000,A,4806.8576,N,00139.4805,W,0.81,213.65,060218,,,A*7F
$GPGGA,002526.000,4806.8584,N,00139.4840,W,1,05,2.3,-72.9,M,48.3,M,,0000*5F
$GPGSA,M,3,27,16,10,21,15,,,,,,,,3.1,2.3,2.1*3A
$GPRMC,002526.000,A,4806.8584,N,00139.4840,W,2.40,210.49,060218,,,A*72
$GPGGA,002527.000,4806.8584,N,00139.4846,W,1,04,2.5,-73.9,M,48.3,M,,0000*5E
$GPGSA,M,3,27,16,10,21,,,,,,,,,3.8,2.5,2.8*38
arfcn: 605 bsic: 33 rxLev: -83 ber: 0.01 mcc: 208 mnc: 01 lac: 10300 cellId: 27588 cellStatus: CELL_FORBIDDEN numArfcn: 22 arfcn: 525 526 527 528 529 530 531 532 533 534 535 587 588 589 590 591 592 593 594 595 596 597 numChannels: 18 array: 1 3 5 8 12 15 512 513 514 515 516 517 518 604 605 606 607 609 pbcch: 0 nom: 2 rac: 1 spgc: 0 pat: 6 nco: 0 t3168: 1000 t3192: 500 drxmax: 2 ctrlAck: 0 bsCVmax: 9 alpha: 5 pcMeasCh: 1 
$GPRMC,002527.000,A,4806.8584,N,00139.4846,W,3.51,204.05,060218,,,A*79
$GPGGA,002528.000,4806.8590,N,00139.4848,W,1,04,2.5,-74.5,M,48.3,M,,0000*51
$GPGSA,M,3,27,16,10,21,,,,,,,,,3.8,2.5,2.8*38
$GPRMC,002528.000,A,4806.8590,N,00139.4848,W,3.22,199.82,060218,,,A*71
$GPGGA,002529.000,4806.8597,N,00139.4834,W,1,04,2.5,-74.0,M,48.3,M,,0000*59
$GPGSA,M,3,27,16,10,21,,,,,,,,,3.8,2.5,2.8*38
arfcn: 5 bsic: 1 rxLev: -83 ber: 0.00 mcc: 208 mnc: 01 lac: 10300 cellId: 40079 cellStatus: CELL_FORBIDDEN numArfcn: 13 arfcn: 5 17 18 19 20 21 22 23 24 25 47 48 49 numChannels: 20 array: 1 2 3 4 5 8 9 10 11 13 14 15 16 512 513 518 604 606 608 610 pbcch: 0 nom: 2 rac: 1 spgc: 0 pat: 6 nco: 0 t3168: 1000 t3192: 500 drxmax: 2 ctrlAck: 0 bsCVmax: 9 alpha: 5 pcMeasCh: 1 
arfcn: 837 rxLev: -83
$GPRMC,002529.000,A,4806.8597,N,00139.4834,W,2.03,198.69,060218,,,A*7A
arfcn: 830 rxLev: -83
arfcn: 857 rxLev: -83
arfcn: 877 rxLev: -83
arfcn: 878 rxLev: -83
arfcn: 866 rxLev: -83
arfcn: 868 rxLev: -83
arfcn: 861 rxLev: -83
arfcn: 872 rxLev: -83
arfcn: 876 rxLev: -83
$GPGGA,002530.000,4806.8600,N,00139.4824,W,1,05,2.3,-74.2,M,48.3,M,,0000*58
arfcn: 879 rxLev: -83
$GPGSA,M,3,27,16,10,21,15,,,,,,,,3.1,2.3,2.1*3A
arfcn: 847 rxLev: -83
arfcn: 840 rxLev: -83
$GPGSV,3,1,12,27,80,340,24,16,55,179,16,10,47,126,16,21,26,060,16*7D
arfcn: 820 rxLev: -83
arfcn: 870 rxLev: -84
$GPGSV,3,2,12,15,05,041,08,11,03,257,17,37,27,150,,18,43,075,*7B
arfcn: 862 rxLev: -84
$GPGSV,3,3,12,08,41,293,,26,26,165,,07,17,302,,30,09,325,*73
arfcn: 864 rxLev: -84
arfcn: 865 rxLev: -84
$GPRMC,002530.000,A,4806.8600,N,00139.4824,W,1.61,197.37,060218,,,A*7D
$GPGGA,002531.000,4806.8601,N,00139.4822,W,1,05,2.3,-74.1,M,48.3,M,,0000*5D
$GPGSA,M,3,27,16,10,21,15,,,,,,,,3.1,2.3,2.1*3A
$GPRMC,002531.000,A,4806.8601,N,00139.4822,W,2.18,197.90,060218,,,A*7B
$GPGGA,002532.000,4806.8609,N,00139.4824,W,1,05,2.3,-73.4,M,48.3,M,,0000*52
$GPGSA,M,3,27,16,10,21,15,,,,,,,,3.1,2.3,2.1*3A
$GPRMC,002532.000,A,4806.8609,N,00139.4824,W,2.87,203.54,060218,,,A*76
arfcn: 117 bsic: 12 rxLev: -84 ber: 0.00 mcc: 208 mnc: 10 lac: 49415 cellId: 3568 cellStatus: CELL_FORBIDDEN numArfcn: 2 arfcn: 82 117 numChannels: 17 array: 76 77 78 79 80 83 84 85 87 113 114 116 117 120 122 123 124 pbcch: 0 nom: 2 rac: 31 spgc: 0 pat: 6 nco: 0 t3168: 1000 t3192: 500 drxmax: 4 ctrlAck: 1 bsCVmax: 9 alpha: 10 pcMeasCh: 0 
$GPGGA,002533.000,4806.8607,N,00139.4838,W,1,05,2.3,-74.6,M,48.3,M,,0000*55
$GPGSA,M,3,27,16,10,21,15,,,,,,,,3.1,2.3,2.1*3A
$GPRMC,002533.000,A,4806.8607,N,00139.4838,W,4.47,214.91,060218,,,A*71
$GPGGA,002534.000,4806.8606,N,00139.4828,W,1,05,2.3,-72.5,M,48.3,M,,0000*57
$GPGSA,M,3,27,16,10,21,15,,,,,,,,3.1,2.3,2.1*3A
$GPRMC,002534.000,A,4806.8606,N,00139.4828,W,5.43,222.40,060218,,,A*7A
arfcn: 606 bsic: 57 rxLev: -84 ber: 5.10 mcc: 208 mnc: 01 lac: 10301 cellId: 27485 cellStatus: CELL_FORBIDDEN numArfcn: 16 arfcn: 519 520 521 522 523 524 525 526 596 597 598 599 600 601 602 603 numChannels: 15 array: 3 4 6 10 12 512 513 514 515 516 517 604 605 608 609 pbcch: 0 nom: 2 rac: 1 spgc: 0 pat: 6 nco: 0 t3168: 1000 t3192: 500 drxmax: 2 ctrlAck: 0 bsCVmax: 9 alpha: 5 pcMeasCh: 1 
$GPGGA,002535.000,4806.8602,N,00139.4821,W,1,05,2.3,-70.4,M,48.3,M,,0000*58
$GPGSA,M,3,27,16,10,21,15,,,,,,,,3.1,2.3,2.1*3A
$GPGSV,3,1,12,27,80,340,24,16,55,179,15,10,47,126,17,21,26,060,17*7E
$GPGSV,3,2,12,15,05,041,09,11,03,257,17,37,27,150,,18,43,075,*7A
$GPGSV,3,3,12,08,41,293,,26,26,165,,07,17,302,,30,09,325,*73
$GPRMC,002535.000,A,4806.8602,N,00139.4821,W,4.84,222.14,060218,,,A*7D
$GPGGA,002536.000,4806.8597,N,00139.4821,W,1,05,2.3,-68.4,M,48.3,M,,0000*5D
$GPGSA,M,3,27,16,10,21,15,,,,,,,,3.1,2.3,2.1*3A
$GPRMC,002536.000,A,4806.8597,N,00139.4821,W,5.02,221.67,060218,,,A*79
arfcn: 512 bsic: 25 rxLev: -84 ber: 0.00 mcc: 208 mnc: 01 lac: 10300 cellId: 40155 cellStatus: CELL_FORBIDDEN numArfcn: 16 arfcn: 519 520 521 522 523 524 525 526 596 597 598 599 600 601 602 603 numChannels: 16 array: 2 3 5 8 10 11 12 15 16 517 518 604 605 606 609 610 pbcch: 0 nom: 2 rac: 1 spgc: 0 pat: 6 nco: 0 t3168: 1000 t3192: 500 drxmax: 2 ctrlAck: 0 bsCVmax: 9 alpha: 5 pcMeasCh: 1 
arfcn: 867 rxLev: -84
arfcn: 863 rxLev: -84
arfcn: 875 rxLev: -84
arfcn: 873 rxLev: -84
arfcn: 874 rxLev: -84
arfcn: 869 rxLev: -85
$GPGGA,002537.000,4806.8594,N,00139.4809,W,1,05,2.3,-66.3,M,48.3,M,,0000*5C
arfcn: 871 rxLev: -85
$GPGSA,M,3,27,16,10,21,15,,,,,,,,3.1,2.3,2.1*3A
arfcn: 31 rxLev: -85
arfcn: 56 rxLev: -85
$GPRMC,002537.000,A,4806.8594,N,00139.4809,W,3.76,216.46,060218,,,A*73
arfcn: 57 rxLev: -85
arfcn: 63 rxLev: -85
arfcn: 43 rxLev: -85
arfcn: 44 rxLev: -85
arfcn: 32 rxLev: -85
arfcn: 34 rxLev: -85
arfcn: 30 rxLev: -85
arfcn: 35 rxLev: -86
$GPGGA,002538.000,4806.8588,N,00139.4799,W,1,04,2.9,-63.4,M,48.3,M,,0000*51
$GPGSA,M,3,27,10,21,15,,,,,,,,,3.9,2.9,2.6*38
$GPRMC,002538.000,A,4806.8588,N,00139.4799,W,3.92,212.60,060218,,,A*7D
$GPGGA,002539.000,4806.8585,N,00139.4778,W,1,04,2.9,-60.3,M,48.3,M,,0000*56
$GPGSA,M,3,27,10,21,15,,,,,,,,,3.9,2.9,2.6*38
$GPRMC,002539.000,A,4806.8585,N,00139.4778,W,3.15,209.72,060218,,,A*78
arfcn: 3 bsic: 0 rxLev: -86 ber: 0.04 mcc: 208 mnc: 01 lac: 10300 cellId: 2686 cellStatus: CELL_FORBIDDEN numArfcn: 13 arfcn: 3 17 18 19 20 21 22 23 24 25 47 48 49 numChannels: 13 array: 1 5 6 7 10 12 14 512 515 517 604 606 608 pbcch: 0 nom: 2 rac: 1 spgc: 0 pat: 6 nco: 0 t3168: 1000 t3192: 500 drxmax: 2 ctrlAck: 0 bsCVmax: 9 alpha: 5 pcMeasCh: 1 
arfcn: 64 rxLev: -86
arfcn: 55 rxLev: -86
arfcn: 881 rxLev: -86
arfcn: 791 rxLev: -86
arfcn: 62 rxLev: -86
$GPGGA,002540.000,4806.8588,N,00139.4753,W,1,04,2.9,-57.3,M,48.3,M,,0000*58
arfcn: 68 rxLev: -86
arfcn: 45 rxLev: -86
$GPGSA,M,3,27,10,21,15,,,,,,,,,3.9,2.9,2.6*38
arfcn: 33 rxLev: -86
arfcn: 36 rxLev: -87
$GPGSV,3,1,12,27,80,340,24,10,47,126,17,21,26,060,18,15,05,041,09*70
arfcn: 41 rxLev: -87
$GPGSV,3,2,12,11,03,257,17,16,55,179,06,26,26,165,10,37,27,150,*76
arfcn: 42 rxLev: -87
arfcn: 67 rxLev: -87
$GPGSV,3,3,12,18,43,075,,08,41,293,,07,17,302,,30,09,325,*7D
arfcn: 65 rxLev: -87
arfcn: 58 rxLev: -87
$GPRMC,002540.000,A,4806.8588,N,00139.4753,W,1.82,207.35,060218,,,A*73
arfcn: 40 rxLev: -87
arfcn: 54 rxLev: -87
arfcn: 37 rxLev: -87
$GPGGA,002541.000,4806.8581,N,00139.4737,W,1,04,2.9,-54.4,M,48.3,M,,0000*56
arfcn: 29 rxLev: -87
arfcn: 28 rxLev: -87
$GPGSA,M,3,27,10,21,15,,,,,,,,,3.9,2.9,2.6*38
arfcn: 13 rxLev: -87
arfcn: 39 rxLev: -88
$GPRMC,002541.000,A,4806.8581,N,00139.4737,W,1.86,206.02,060218,,,A*78
arfcn: 61 rxLev: -88
arfcn: 69 rxLev: -88
arfcn: 66 rxLev: -88
arfcn: 53 rxLev: -88
arfcn: 38 rxLev: -88
$GPGGA,002542.000,4806.8579,N,00139.4711,W,1,04,2.9,-50.8,M,48.3,M,,0000*5E
$GPGSA,M,3,27,10,21,15,,,,,,,,,3.9,2.9,2.6*38
$GPRMC,002542.000,A,4806.8579,N,00139.4711,W,1.74,204.13,060218,,,A*77
$GPGGA,002543.000,4806.8582,N,00139.4686,W,1,04,2.9,-47.1,M,48.3,M,,0000*5B
$GPGSA,M,3,27,10,21,15,,,,,,,,,3.9,2.9,2.6*38
$GPRMC,002543.000,A,4806.8582,N,00139.4686,W,1.53,202.73,060218,,,A*78
$GPGGA,002544.000,4806.8598,N,00139.4668,W,1,04,2.9,-43.4,M,48.3,M,,0000*56
$GPGSA,M,3,27,10,21,15,,,,,,,,,3.9,2.9,2.6*38
$GPRMC,002544.000,A,4806.8598,N,00139.4668,W,0.55,202.73,060218,,,A*73
$GPGGA,002545.000,4806.8620,N,00139.4622,W,1,05,2.1,-34.7,M,48.3,M,,0000*53
$GPGSA,M,3,27,10,21,26,15,,,,,,,,2.7,2.1,1.7*39
$GPGSV,3,1,12,27,80,340,24,10,47,126,16,21,26,060,18,26,26,165,11*7E
$GPGSV,3,2,12,15,05,041,09,11,03,257,17,16,55,179,04,37,27,150,*7A
$GPGSV,3,3,12,18,43,075,,08,41,293,,07,17,302,,30,09,325,*7D
$GPRMC,002545.000,A,4806.8620,N,00139.4622,W,1.01,202.73,060218,,,A*7C
arfcn: 122 bsic: 3 rxLev: -88 ber: 0.00 mcc: 208 mnc: 10 lac: 49415 cellId: 33517 cellStatus: CELL_FORBIDDEN numArfcn: 3 arfcn: 77 88 122 numChannels: 17 array: 77 78 79 80 82 84 85 86 114 115 117 118 119 120 122 123 124 pbcch: 0 nom: 2 rac: 31 spgc: 0 pat: 6 nco: 0 t3168: 1000 t3192: 500 drxmax: 4 ctrlAck: 1 bsCVmax: 9 alpha: 10 pcMeasCh: 0 
arfcn: 79 rxLev: -88
$GPGGA,002546.000,4806.8649,N,00139.4583,W,1,05,2.1,-26.2,M,48.3,M,,0000*51
$GPGSA,M,3,27,10,21,26,15,,,,,,,,2.7,2.1,1.7*39
$GPRMC,002546.000,A,4806.8649,N,00139.4583,W,1.54,218.99,060218,,,A*77
$GPGGA,002547.000,4806.8666,N,00139.4545,W,1,05,2.1,-19.5,M,48.3,M,,0000*5C
$GPGSA,M,3,27,10,21,26,15,,,,,,,,2.7,2.1,1.7*39
$GPRMC,002547.000,A,4806.8666,N,00139.4545,W,2.60,172.51,060218,,,A*7E
$GPGGA,002548.000,4806.8680,N,00139.4531,W,1,04,2.4,-18.3,M,48.3,M,,0000*5B
$GPGSA,M,3,27,10,21,26,,,,,,,,,3.3,2.4,2.3*3A
$GPRMC,002548.000,A,4806.8680,N,00139.4531,W,2.35,163.71,060218,,,A*78
$GPGGA,002549.000,4806.8687,N,00139.4526,W,1,04,2.4,-17.6,M,48.3,M,,0000*51
$GPGSA,M,3,27,10,21,26,,,,,,,,,3.3,2.4,2.3*3A
$GPRMC,002549.000,A,4806.8687,N,00139.4526,W,1.69,161.38,060218,,,A*7D
arfcn: 1014 bsic: 31 rxLev: -88 ber: 1.05 mcc: 208 mnc: 20 lac: 418 cellId: 20649 cellStatus: CELL_SUITABLE numArfcn: 1 arfcn: 1014 numChannels: 25 array: 788 789 790 791 793 795 796 879 884 977 978 979 980 981 982 983 984 985 987 1012 1013 1017 1020 1021 1022 pbcch: 0 nom: 2 rac: 6 spgc: 0 pat: 6 nco: 0 t3168: 1500 t3192: 500 drxmax: 0 ctrlAck: 0 bsCVmax: 8 alpha: 6 pcMeasCh: 1 
arfcn: 81 rxLev: -89
arfcn: 92 rxLev: -89
$GPGGA,002550.000,4806.8680,N,00139.4532,W,1,05,2.3,-18.8,M,48.3,M,,0000*5C
arfcn: 94 rxLev: -89
$GPGSA,M,3,27,16,10,21,26,,,,,,,,3.2,2.3,2.3*3B
arfcn: 95 rxLev: -89
$GPGSV,3,1,12,27,80,340,24,16,55,179,14,10,47,126,16,21,26,060,19*70
arfcn: 96 rxLev: -89
arfcn: 11 rxLev: -89
$GPGSV,3,2,12,26,26,165,11,11,03,257,17,15,05,041,06,39,31,144,*77
arfcn: 1 rxLev: -89
$GPGSV,3,3,12,18,43,075,,08,41,293,,07,17,302,,30,09,325,*7D
arfcn: 60 rxLev: -89
arfcn: 59 rxLev: -89
$GPRMC,002550.000,A,4806.8680,N,00139.4532,W,0.93,161.38,060218,,,A*73
arfcn: 52 rxLev: -89
arfcn: 46 rxLev: -89
arfcn: 27 rxLev: -89
$GPGGA,002551.000,4806.8662,N,00139.4535,W,1,05,2.3,-20.1,M,48.3,M,,0000*54
arfcn: 93 rxLev: -89
$GPGSA,M,3,27,16,10,21,26,,,,,,,,3.2,2.3,2.3*3B
$GPRMC,002551.000,A,4806.8662,N,00139.4535,W,3.36,165.17,060218,,,A*7C
$GPGGA,002552.000,4806.8645,N,00139.4546,W,1,05,2.3,-22.3,M,48.3,M,,0000*56
$GPGSA,M,3,27,16,10,21,26,,,,,,,,3.2,2.3,2.3*3B
$GPRMC,002552.000,A,4806.8645,N,00139.4546,W,3.15,169.12,060218,,,A*76
arfcn: 514 bsic: 1 rxLev: -89 ber: 0.01 mcc: 208 mnc: 01 lac: 10300 cellId: 39259 cellStatus: CELL_FORBIDDEN numArfcn: 17 arfcn: 514 519 520 521 522 523 524 525 526 596 597 598 599 600 601 602 603 numChannels: 14 array: 1 6 8 10 12 14 512 513 514 517 604 605 606 608 pbcch: 0 nom: 2 rac: 1 spgc: 1 pat: 6 nco: 0 t3168: 1000 t3192: 500 drxmax: 4 ctrlAck: 1 bsCVmax: 9 alpha: 7 pcMeasCh: 0 
$GPGGA,002553.000,4806.8627,N,00139.4551,W,1,05,2.3,-25.2,M,48.3,M,,0000*53
$GPGSA,M,3,27,16,10,21,26,,,,,,,,3.2,2.3,2.3*3B
$GPRMC,002553.000,A,4806.8627,N,00139.4551,W,1.95,168.66,060218,,,A*7D
$GPGGA,002554.000,4806.8611,N,00139.4556,W,1,05,2.3,-28.6,M,48.3,M,,0000*5F
$GPGSA,M,3,27,16,10,21,26,,,,,,,,3.2,2.3,2.3*3B
$GPRMC,002554.000,A,4806.8611,N,00139.4556,W,2.05,168.72,060218,,,A*77
$GPGGA,002555.000,4806.8599,N,00139.4566,W,1,05,2.3,-32.4,M,48.3,M,,0000*57
$GPGSA,M,3,27,16,10,21,26,,,,,,,,3.2,2.3,2.3*3B
$GPGSV,3,1,12,27,80,340,23,16,55,179,15,10,47,126,16,21,26,060,19*76
$GPGSV,3,2,12,26,26,165,11,11,03,257,17,15,05,041,04,39,31,144,*75
$GPGSV,3,3,12,18,43,075,,08,41,293,,07,17,302,,30,09,325,*7D
$GPRMC,002555.000,A,4806.8599,N,00139.4566,W,0.99,168.72,060218,,,A*71
$GPGGA,002556.000,4806.8599,N,00139.4566,W,1,04,2.5,-32.9,M,48.3,M,,0000*5E
$GPGSA,M,3,27,16,10,21,,,,,,,,,3.8,2.5,2.8*38
$GPRMC,002556.000,A,4806.8599,N,00139.4566,W,1.50,171.47,060218,,,A*78
$GPGGA,002557.000,4806.8602,N,00139.4577,W,1,04,2.5,-33.4,M,48.3,M,,0000*52
$GPGSA,M,3,27,16,10,21,,,,,,,,,3.8,2.5,2.8*38
$GPRMC,002557.000,A,4806.8602,N,00139.4577,W,1.54,179.32,060218,,,A*76
$GPGGA,002558.000,4806.8602,N,00139.4587,W,1,04,2.5,-33.8,M,48.3,M,,0000*5E
$GPGSA,M,3,27,16,10,21,,,,,,,,,3.8,2.5,2.8*38
$GPRMC,002558.000,A,4806.8602,N,00139.4587,W,2.78,195.55,060218,,,A*78
$GPGGA,002559.000,4806.8604,N,00139.4598,W,1,04,2.5,-34.2,M,48.3,M,,0000*5A
$GPGSA,M,3,27,16,10,21,,,,,,,,,3.8,2.5,2.8*38
$GPRMC,002559.000,A,4806.8604,N,00139.4598,W,1.93,202.88,060218,,,A*7A
$GPGGA,002600.000,4806.8602,N,00139.4587,W,1,05,2.3,-32.4,M,48.3,M,,0000*5A
$GPGSA,M,3,27,16,10,21,15,,,,,,,,3.1,2.3,2.1*3A
$GPGSV,3,1,12,27,80,340,23,16,55,179,17,10,47,126,16,21,26,060,19*74
arfcn: 515 bsic: 34 rxLev: -90 ber: 0.00 mcc: 208 mnc: 01 lac: 10300 cellId: 27586 cellStatus: CELL_FORBIDDEN numArfcn: 16 arfcn: 519 520 521 522 523 524 525 526 596 597 598 599 600 601 602 603 numChannels: 9 array: 1 8 12 512 513 516 605 606 607 pbcch: 0 nom: 2 rac: 1 spgc: 0 pat: 6 nco: 0 t3168: 1000 t3192: 500 drxmax: 2 ctrlAck: 0 bsCVmax: 9 alpha: 5 pcMeasCh: 1 
$GPGSV,3,2,12,15,05,041,12,11,03,257,17,39,31,144,,18,43,075,*7C
arfcn: 97 rxLev: -90
arfcn: 105 rxLev: -90
$GPGSV,3,3,12,08,41,293,,26,26,165,,07,17,302,,30,09,325,*73
arfcn: 106 rxLev: -90
$GPRMC,002600.000,A,4806.8602,N,00139.4587,W,0.64,202.88,060218,,,A*74
$GPGGA,002601.000,4806.8600,N,00139.4571,W,1,05,2.3,-30.6,M,48.3,M,,0000*50
$GPGSA,M,3,27,16,10,21,15,,,,,,,,3.1,2.3,2.1*3A
$GPRMC,002601.000,A,4806.8600,N,00139.4571,W,0.90,202.88,060218,,,A*75
$GPGGA,002602.000,4806.8601,N,00139.4553,W,1,05,2.3,-29.4,M,48.3,M,,0000*58
$GPGSA,M,3,27,16,10,21,15,,,,,,,,3.1,2.3,2.1*3A
$GPRMC,002602.000,A,4806.8601,N,00139.4553,W,2.30,189.45,060218,,,A*7E
$GPGGA,002603.000,4806.8604,N,00139.4534,W,1,05,2.3,-28.6,M,48.3,M,,0000*5E
$GPGSA,M,3,27,16,10,21,15,,,,,,,,3.1,2.3,2.1*3A
$GPRMC,002603.000,A,4806.8604,N,00139.4534,W,2.22,173.02,060218,,,A*7E
arfcn: 2 bsic: 54 rxLev: -90 ber: 0.00 mcc: 208 mnc: 01 lac: 10300 cellId: 42646 cellStatus: CELL_FORBIDDEN numArfcn: 13 arfcn: 2 17 18 19 20 21 22 23 24 25 47 48 49 numChannels: 22 array: 1 5 6 7 8 10 12 13 15 16 512 514 515 516 517 518 604 606 607 608 609 610 pbcch: 0 nom: 2 rac: 1 spgc: 0 pat: 6 nco: 0 t3168: 1000 t3192: 500 drxmax: 2 ctrlAck: 0 bsCVmax: 9 alpha: 5 pcMeasCh: 1 
arfcn: 70 rxLev: -90
$GPGGA,002604.000,4806.8607,N,00139.4512,W,1,05,2.3,-27.8,M,48.3,M,,0000*5F
$GPGSA,M,3,27,16,10,21,15,,,,,,,,3.1,2.3,2.1*3A
$GPRMC,002604.000,A,4806.8607,N,00139.4512,W,3.47,143.42,060218,,,A*7B
$GPGGA,002605.000,4806.8610,N,00139.4488,W,1,05,2.3,-27.0,M,48.3,M,,0000*52
$GPGSA,M,3,27,16,10,21,15,,,,,,,,3.1,2.3,2.1*3A
$GPGSV,3,1,12,27,80,340,23,16,55,179,17,10,47,126,16,21,26,060,19*74
$GPGSV,3,2,12,15,05,041,11,11,03,257,17,39,31,144,,18,43,075,*7F
$GPGSV,3,3,12,08,41,293,,26,26,165,,07,17,302,,30,09,325,*73
$GPRMC,002605.000,A,4806.8610,N,00139.4488,W,4.33,131.84,060218,,,A*75
$GPGGA,002606.000,4806.8607,N,00139.4470,W,1,05,2.3,-26.4,M,48.3,M,,0000*55
$GPGSA,M,3,27,16,10,21,15,,,,,,,,3.1,2.3,2.1*3A
$GPRMC,002606.000,A,4806.8607,N,00139.4470,W,3.73,126.17,060218,,,A*78
arfcn: 979 bsic: 19 rxLev: -90 ber: 1.02 mcc: 208 mnc: 20 lac: 418 cellId: 20718 cellStatus: CELL_SUITABLE numArfcn: 1 arfcn: 979 numChannels: 22 array: 788 789 790 792 793 795 878 882 884 977 981 983 984 985 986 987 1012 1013 1014 1017 1019 1020 pbcch: 0 nom: 2 rac: 6 spgc: 0 pat: 6 nco: 0 t3168: 1500 t3192: 500 drxmax: 0 ctrlAck: 0 bsCVmax: 8 alpha: 6 pcMeasCh: 1 
arfcn: 98 rxLev: -90
$GPGGA,002607.000,4806.8606,N,00139.4459,W,1,05,2.3,-26.4,M,48.3,M,,0000*5E
arfcn: 100 rxLev: -90
$GPGSA,M,3,27,16,10,21,15,,,,,,,,3.1,2.3,2.1*3A
arfcn: 103 rxLev: -90
$GPRMC,002607.000,A,4806.8606,N,00139.4459,W,2.93,122.69,060218,,,A*71
$GPGGA,002608.000,4806.8604,N,00139.4456,W,1,05,2.3,-26.9,M,48.3,M,,0000*51
$GPGSA,M,3,27,16,10,21,15,,,,,,,,3.1,2.3,2.1*3A
$GPRMC,002608.000,A,4806.8604,N,00139.4456,W,3.18,121.04,060218,,,A*79
$GPGGA,002609.000,4806.8603,N,00139.4452,W,1,05,2.3,-27.1,M,48.3,M,,0000*5A
$GPGSA,M,3,27,16,10,21,15,,,,,,,,3.1,2.3,2.1*3A
arfcn: 76 bsic: 5 rxLev: -90 ber: 2.05 mcc: 208 mnc: 10 lac: 49415 cellId: 44813 cellStatus: CELL_FORBIDDEN numArfcn: 2 arfcn: 76 121 numChannels: 16 array: 76 77 78 79 80 82 84 85 86 113 114 117 118 121 123 124 pbcch: 0 nom: 2 rac: 31 spgc: 0 pat: 6 nco: 0 t3168: 1000 t3192: 500 drxmax: 4 ctrlAck: 1 bsCVmax: 9 alpha: 10 pcMeasCh: 0 
$GPRMC,002609.000,A,4806.8603,N,00139.4452,W,2.01,121.45,060218,,,A*77
$GPGGA,002610.000,4806.8604,N,00139.4458,W,1,05,2.3,-27.7,M,48.3,M,,0000*59
$GPGSA,M,3,27,16,10,21,15,,,,,,,,3.1,2.3,2.1*3A
$GPGSV,3,1,12,27,80,340,23,16,55,179,16,10,47,126,17,21,26,060,19*74
$GPGSV,3,2,12,15,05,041,12,11,03,257,17,39,31,144,,18,43,075,*7C
$GPGSV,3,3,12,08,41,293,,26,26,165,,07,17,302,,30,09,325,*73
arfcn: 608 bsic: 46 rxLev: -90 ber: 0.00 mcc: 208 mnc: 01 lac: 10300 cellId: 36733 cellStatus: CELL_FORBIDDEN numArfcn: 16 arfcn: 519 520 521 522 523 524 525 526 596 597 598 599 600 601 602 603 numChannels: 15 array: 1 3 6 7 10 12 14 512 513 514 515 517 604 605 606 pbcch: 0 nom: 2 rac: 1 spgc: 0 pat: 6 nco: 0 t3168: 1000 t3192: 500 drxmax: 2 ctrlAck: 0 bsCVmax: 9 alpha: 5 pcMeasCh: 1 
$GPRMC,002610.000,A,4806.8604,N,00139.4458,W,0.86,121.45,060218,,,A*7F
$GPGGA,002611.000,4806.8605,N,00139.4468,W,1,05,2.3,-27.9,M,48.3,M,,0000*54
$GPGSA,M,3,27,16,10,21,15,,,,,,,,3.1,2.3,2.1*3A
$GPRMC,002611.000,A,4806.8605,N,00139.4468,W,1.46,133.95,060218,,,A*7F
$GPGGA,002612.000,4806.8608,N,00139.4472,W,1,05,2.3,-28.1,M,48.3,M,,0000*56
$GPGSA,M,3,27,16,10,21,15,,,,,,,,3.1,2.3,2.1*3A
$GPRMC,002612.000,A,4806.8608,N,00139.4472,W,0.82,133.95,060218,,,A*73
$GPGGA,002613.000,4806.8611,N,00139.4466,W,1,05,2.3,-27.7,M,48.3,M,,0000*53
$GPGSA,M,3,27,16,10,21,15,,,,,,,,3.1,2.3,2.1*3A
$GPRMC,002613.000,A,4806.8611,N,00139.4466,W,1.55,130.75,060218,,,A*79
arfcn: 1017 bsic: 33 rxLev: -90 ber: 0.00 mcc: 208 mnc: 20 lac: 418 cellId: 20104 cellStatus: CELL_SUITABLE numArfcn: 3 arfcn: 986 987 1017 numChannels: 20 array: 788 790 885 975 976 978 979 980 981 982 986 987 1011 1012 1015 1017 1019 1020 1021 1022 pbcch: 0 nom: 2 rac: 7 spgc: 0 pat: 6 nco: 0 t3168: 1500 t3192: 500 drxmax: 4 ctrlAck: 1 bsCVmax: 8 alpha: 6 pcMeasCh: 1 
arfcn: 102 rxLev: -91
arfcn: 101 rxLev: -91
arfcn: 99 rxLev: -91
$GPGGA,002614.000,4806.8613,N,00139.4448,W,1,05,2.3,-26.9,M,48.3,M,,0000*55
arfcn: 107 rxLev: -91
arfcn: 104 rxLev: -91
$GPGSA,M,3,27,16,10,21,15,,,,,,,,3.1,2.3,2.1*3A
$GPRMC,002614.000,A,4806.8613,N,00139.4448,W,3.15,124.62,060218,,,A*75
$GPGGA,002615.000,4806.8621,N,00139.4423,W,1,05,2.3,-25.9,M,48.3,M,,0000*5B
$GPGSA,M,3,27,16,10,21,15,,,,,,,,3.1,2.3,2.1*3A
$GPGSV,3,1,12,27,80,340,23,16,55,179,15,10,47,126,18,21,26,060,18*79
$GPGSV,3,2,12,15,05,041,12,11,03,257,17,39,31,144,,18,43,075,*7C
$GPGSV,3,3,12,08,41,293,,26,26,165,,07,17,302,,30,09,325,*73
$GPRMC,002615.000,A,4806.8621,N,00139.4423,W,3.96,117.29,060218,,,A*7C
arfcn: 114 bsic: 6 rxLev: -91 ber: 1.04 mcc: 208 mnc: 10 lac: 49415 cellId: 44202 cellStatus: CELL_FORBIDDEN numArfcn: 2 arfcn: 80 114 numChannels: 20 array: 76 77 78 79 80 84 85 86 113 114 115 116 117 118 119 120 121 122 123 124 pbcch: 0 nom: 2 rac: 31 spgc: 0 pat: 6 nco: 0 t3168: 1000 t3192: 500 drxmax: 4 ctrlAck: 1 bsCVmax: 9 alpha: 10 pcMeasCh: 0 
$GPGGA,002616.000,4806.8636,N,00139.4391,W,1,05,2.3,-24.6,M,48.3,M,,0000*5E
$GPGSA,M,3,27,16,10,21,15,,,,,,,,3.1,2.3,2.1*3A
$GPRMC,002616.000,A,4806.8636,N,00139.4391,W,5.69,102.77,060218,,,A*7E
$GPGGA,002617.000,4806.8638,N,00139.4363,W,1,04,2.9,-23.5,M,48.3,M,,0000*53
$GPGSA,M,3,27,10,21,15,,,,,,,,,3.9,2.9,2.6*38
$GPRMC,002617.000,A,4806.8638,N,00139.4363,W,5.12,92.73,060218,,,A*4C
$GPGGA,002618.000,4806.8640,N,00139.4343,W,1,04,2.9,-22.5,M,48.3,M,,0000*50
$GPGSA,M,3,27,10,21,15,,,,,,,,,3.9,2.9,2.6*38
$GPRMC,002618.000,A,4806.8640,N,00139.4343,W,4.04,90.34,060218,,,A*49
$GPGGA,002619.000,4806.8639,N,00139.4326,W,1,04,2.9,-21.8,M,48.3,M,,0000*52
$GPGSA,M,3,27,10,21,15,,,,,,,,,3.9,2.9,2.6*38
$GPRMC,002619.000,A,4806.8639,N,00139.4326,W,2.65,90.27,060218,,,A*46
arfcn: 4 bsic: 54 rxLev: -91 ber: 2.03 mcc: 208 mnc: 01 lac: 10300 cellId: 43768 cellStatus: CELL_FORBIDDEN numArfcn: 13 arfcn: 4 17 18 19 20 21 22 23 24 25 47 48 49 numChannels: 20 array: 1 3 5 6 7 8 12 13 14 513 514 515 517 518 601 605 606 608 609 610 pbcch: 0 nom: 2 rac: 1 spgc: 0 pat: 6 nco: 0 t3168: 1000 t3192: 500 drxmax: 2 ctrlAck: 0 bsCVmax: 9 alpha: 5 pcMeasCh: 1 
$GPGGA,002620.000,4806.8639,N,00139.4315,W,0,00,,-21.8,M,48.3,M,,0000*78
$GPGSA,M,1,,,,,,,,,,,,,,,*12
$GPGSV,3,1,12,10,47,126,18,11,03,257,18,15,05,041,05,16,55,179,04*71
$GPGSV,3,2,12,21,26,060,17,26,26,165,14,27,80,340,24,33,33,198,*77
$GPGSV,3,3,12,18,43,075,,08,41,293,,07,17,302,,30,09,325,*7D
$GPRMC,002620.000,V,4806.8639,N,00139.4315,W,,,060218,,,N*69
$GPGGA,002621.000,4806.8639,N,00139.4304,W,0,00,,-21.8,M,48.3,M,,0000*79
$GPGSA,M,1,,,,,,,,,,,,,,,*12
arfcn: 14 bsic: 35 rxLev: -91 ber: 1.07 mcc: 208 mnc: 01 lac: 10300 cellId: 39250 cellStatus: CELL_FORBIDDEN numArfcn: 13 arfcn: 14 17 18 19 20 21 22 23 24 25 47 48 49 numChannels: 14 array: 1 3 4 6 8 10 12 14 512 513 514 517 604 608 pbcch: 0 nom: 2 rac: 1 spgc: 1 pat: 6 nco: 0 t3168: 1000 t3192: 500 drxmax: 4 ctrlAck: 1 bsCVmax: 9 alpha: 7 pcMeasCh: 0 
arfcn: 9 rxLev: -91
$GPRMC,002621.000,V,4806.8639,N,00139.4304,W,,,060218,,,N*68
arfcn: 108 rxLev: -91
arfcn: 91 rxLev: -91
arfcn: 71 rxLev: -91
arfcn: 109 rxLev: -92
arfcn: 26 rxLev: -92
arfcn: 6 rxLev: -93
arfcn: 72 rxLev: -93
$GPGGA,002622.102,4806.8639,N,00139.4292,W,0,00,,-21.8,M,48.3,M,,0000*77
$GPGSA,M,1,,,,,,,,,,,,,,,*12
$GPRMC,002622.102,V,4806.8639,N,00139.4292,W,,,060218,,,N*66
$GPGGA,002623.102,4806.8661,N,00139.4253,W,1,04,2.4,-19.8,M,48.3,M,,0000*50
$GPGSA,M,3,27,10,21,26,,,,,,,,,3.3,2.4,2.3*3A
$GPRMC,002623.102,A,4806.8661,N,00139.4253,W,5.48,87.25,060218,,,A*4E
$GPGGA,002624.102,4806.8683,N,00139.4224,W,1,04,2.4,-18.6,M,48.3,M,,0000*54
$GPGSA,M,3,27,10,21,26,,,,,,,,,3.3,2.4,2.3*3A
$GPRMC,002624.102,A,4806.8683,N,00139.4224,W,5.88,82.45,060218,,,A*4A
$GPGGA,002625.000,4806.8699,N,00139.4195,W,1,04,2.4,-17.6,M,48.3,M,,0000*5B
$GPGSA,M,3,27,10,21,26,,,,,,,,,3.3,2.4,2.3*3A
$GPGSV,3,1,12,27,80,340,24,10,47,126,18,21,26,060,16,26,26,165,16*79
$GPGSV,3,2,12,11,03,257,18,15,05,041,05,16,55,179,04,33,33,198,*7C
$GPGSV,3,3,12,18,43,075,,08,41,293,,07,17,302,,30,09,325,*7D
$GPRMC,002625.000,A,4806.8699,N,00139.4195,W,5.85,84.11,060218,,,A*40
arfcn: 1016 bsic: 41 rxLev: -93 ber: 2.10 mcc: 208 mnc: 20 lac: 418 cellId: 23623 cellStatus: CELL_SUITABLE numArfcn: 1 arfcn: 1016 numChannels: 28 array: 787 788 791 792 793 794 795 879 880 883 884 975 977 978 979 981 982 983 986 987 1011 1012 1017 1018 1019 1020 1021 1022 pbcch: 0 nom: 2 rac: 6 spgc: 0 pat: 6 nco: 0 t3168: 1500 t3192: 500 drxmax: 4 ctrlAck: 1 bsCVmax: 8 alpha: 6 pcMeasCh: 1 
$GPGGA,002626.000,4806.8710,N,00139.4179,W,1,04,2.4,-16.9,M,48.3,M,,0000*54
$GPGSA,M,3,27,10,21,26,,,,,,,,,3.3,2.4,2.3*3A
$GPRMC,002626.000,A,4806.8710,N,00139.4179,W,3.88,86.59,060218,,,A*44
$GPGGA,002627.000,4806.8717,N,00139.4177,W,1,04,2.4,-16.1,M,48.3,M,,0000*54
$GPGSA,M,3,27,10,21,26,,,,,,,,,3.3,2.4,2.3*3A
$GPRMC,002627.000,A,4806.8717,N,00139.4177,W,1.84,89.04,060218,,,A*45
$GPGGA,002628.000,4806.8715,N,00139.4171,W,0,00,,-16.1,M,48.3,M,,0000*72
$GPGSA,M,1,,,,,,,,,,,,,,,*12
$GPRMC,002628.000,V,4806.8715,N,00139.4171,W,,,060218,,,N*6E
$GPGGA,002629.000,4806.8712,N,00139.4164,W,0,00,,-16.1,M,48.3,M,,0000*70
$GPGSA,M,1,,,,,,,,,,,,,,,*12
$GPRMC,002629.000,V,4806.8712,N,00139.4164,W,,,060218,,,N*6C
$GPGGA,002630.101,4806.8709,N,00139.4157,W,0,00,,-16.2,M,48.3,M,,0000*71
$GPGSA,M,1,,,,,,,,,,,,,,,*12
$GPGSV,3,1,12,10,47,126,18,11,03,257,18,15,05,041,07,16,55,179,04*73
$GPGSV,3,2,12,26,26,165,16,27,80,340,24,33,33,198,,18,43,075,*7E
$GPGSV,3,3,12,08,41,293,,21,26,060,,07,17,302,,30,09,325,*70
$GPRMC,002630.101,V,4806.8709,N,00139.4157,W,,,060218,,,N*6E
$GPGGA,002631.101,4806.8706,N,00139.4151,W,0,00,,-16.2,M,48.3,M,,0000*79
$GPGSA,M,1,,,,,,,,,,,,,,,*12
$GPRMC,002631.101,V,4806.8706,N,00139.4151,W,,,060218,,,N*66
arfcn: 1020 bsic: 39 rxLev: -94 ber: 0.00 mcc: 208 mnc: 20 lac: 418 cellId: 38980 cellStatus: CELL_SUITABLE numArfcn: 1 arfcn: 1020 numChannels: 26 array: 787 788 790 791 793 795 796 879 884 885 978 979 981 982 983 985 986 987 1011 1012 1013 1014 1015 1017 1019 1022 pbcch: 0 nom: 2 rac: 6 spgc: 0 pat: 6 nco: 0 t3168: 1500 t3192: 500 drxmax: 0 ctrlAck: 0 bsCVmax: 8 alpha: 6 pcMeasCh: 1 
arfcn: 77 rxLev: -94
arfcn: 123 rxLev: -94
arfcn: 7 rxLev: -94
arfcn: 769 rxLev: -94
$GPGGA,002632.101,4806.8703,N,00139.4145,W,0,00,,-16.2,M,48.3,M,,0000*7A
arfcn: 770 rxLev: -94
$GPGSA,M,1,,,,,,,,,,,,,,,*12
arfcn: 771 rxLev: -94
arfcn: 777 rxLev: -94
$GPRMC,002632.101,V,4806.8703,N,00139.4145,W,,,060218,,,N*65
arfcn: 778 rxLev: -94
$GPGGA,002633.102,4806.8700,N,00139.4138,W,0,00,,-16.3,M,48.3,M,,0000*70
$GPGSA,M,1,,,,,,,,,,,,,,,*12
$GPRMC,002633.102,V,4806.8700,N,00139.4138,W,,,060218,,,N*6E
$GPGGA,002634.102,4806.8698,N,00139.4132,W,0,00,,-16.3,M,48.3,M,,0000*7D
$GPGSA,M,1,,,,,,,,,,,,,,,*12
$GPRMC,002634.102,V,4806.8698,N,00139.4132,W,,,060218,,,N*63
$GPGGA,002635.102,4806.8695,N,00139.4125,W,0,00,,-16.3,M,48.3,M,,0000*77
$GPGSA,M,1,,,,,,,,,,,,,,,*12
$GPGSV,3,1,12,10,47,126,18,11,03,257,17,15,05,041,06,26,26,165,15*77
$GPGSV,3,2,12,27,80,340,24,33,33,198,,16,55,179,,18,43,075,*73
$GPGSV,3,3,12,08,41,293,,21,26,060,,07,17,302,,30,09,325,*70
$GPRMC,002635.102,V,4806.8695,N,00139.4125,W,,,060218,,,N*69
$GPGGA,002636.102,4806.8692,N,00139.4119,W,0,00,,-16.4,M,48.3,M,,0000*7B
$GPGSA,M,1,,,,,,,,,,,,,,,*12
$GPRMC,002636.102,V,4806.8692,N,00139.4119,W,,,060218,,,N*62
$GPGGA,002637.102,4806.8689,N,00139.4113,W,0,00,,-16.4,M,48.3,M,,0000*7A
arfcn: 120 bsic: 59 rxLev: -94 ber: 1.08 mcc: 208 mnc: 10 lac: 49415 cellId: 13571 cellStatus: CELL_FORBIDDEN numArfcn: 2 arfcn: 111 120 numChannels: 14 array: 76 77 79 80 83 84 85 114 115 116 117 120 122 124 pbcch: 0 nom: 2 rac: 31 spgc: 0 pat: 6 nco: 0 t3168: 1000 t3192: 500 drxmax: 4 ctrlAck: 1 bsCVmax: 9 alpha: 10 pcMeasCh: 0 
arfcn: 86 rxLev: -94
$GPGSA,M,1,,,,,,,,,,,,,,,*12
arfcn: 90 rxLev: -94
$GPRMC,002637.102,V,4806.8689,N,00139.4113,W,,,060218,,,N*63
$GPGGA,002638.102,4806.8686,N,00139.4106,W,0,00,,-16.4,M,48.3,M,,0000*7E
$GPGSA,M,1,,,,,,,,,,,,,,,*12
$GPRMC,002638.102,V,4806.8686,N,00139.4106,W,,,060218,,,N*67
$GPGGA,002639.102,4806.8684,N,00139.4100,W,0,00,,-16.5,M,48.3,M,,0000*7A
$GPGSA,M,1,,,,,,,,,,,,,,,*12
$GPRMC,002639.102,V,4806.8684,N,00139.4100,W,,,060218,,,N*62
$GPGGA,002640.102,4806.8817,N,00139.3998,W,1,04,2.6,-18.8,M,48.3,M,,0000*52
$GPGSA,M,3,27,10,26,15,,,,,,,,,3.1,2.6,1.7*3A
$GPGSV,3,1,12,27,80,340,23,10,47,126,17,26,26,165,15,15,05,041,11*70
$GPGSV,3,2,12,11,03,257,17,16,55,179,22,33,33,198,,18,43,075,*7A
$GPGSV,3,3,12,08,41,293,,21,26,060,,07,17,302,,30,09,325,*70
$GPRMC,002640.102,A,4806.8817,N,00139.3998,W,7.42,75.84,060218,,,A*41
$GPGGA,002641.102,4806.8830,N,00139.3973,W,0,00,,-19.0,M,48.3,M,,0000*75
$GPGSA,M,1,,,,,,,,,,,,,,,*12
$GPRMC,002641.102,V,4806.8830,N,00139.3973,W,,,060218,,,N*67
$GPGGA,002642.000,4806.8862,N,00139.4001,W,1,04,3.0,-18.0,M,48.3,M,,0000*50
$GPGSA,M,3,27,16,10,26,,,,,,,,,4.1,3.0,2.8*35
$GPRMC,002642.000,A,4806.8862,N,00139.4001,W,7.85,54.69,060218,,,A*47
$GPGGA,002643.102,4806.8878,N,00139.4018,W,1,04,3.0,-17.9,M,48.3,M,,0000*57
$GPGSA,M,3,27,16,10,26,,,,,,,,,4.1,3.0,2.8*35
$GPRMC,002643.102,A,4806.8878,N,00139.4018,W,6.42,48.42,060218,,,A*48
arfcn: 513 bsic: 27 rxLev: -94 ber: 2.02 mcc: 208 mnc: 01 lac: 10300 cellId: 27587 cellStatus: CELL_FORBIDDEN numArfcn: 16 arfcn: 519 520 521 522 523 524 525 526 596 597 598 599 600 601 602 603 numChannels: 14 array: 1 4 8 12 512 513 515 516 517 518 605 606 607 609 pbcch: 0 nom: 2 rac: 1 spgc: 0 pat: 6 nco: 0 t3168: 1000 t3192: 500 drxmax: 2 ctrlAck: 0 bsCVmax: 9 alpha: 5 pcMeasCh: 1 
arfcn: 84 rxLev: -95
arfcn: 47 rxLev: -95
arfcn: 716 rxLev: -95
arfcn: 760 rxLev: -95
$GPGGA,002644.000,4806.8888,N,00139.4044,W,1,04,3.0,-16.7,M,48.3,M,,0000*5A
arfcn: 759 rxLev: -95
$GPGSA,M,3,27,16,10,26,,,,,,,,,4.1,3.0,2.8*35
arfcn: 750 rxLev: -95
arfcn: 729 rxLev: -95
$GPRMC,002644.000,A,4806.8888,N,00139.4044,W,4.70,44.86,060218,,,A*4D
arfcn: 779 rxLev: -95
arfcn: 772 rxLev: -95
arfcn: 761 rxLev: -95
$GPGGA,002645.000,4806.8899,N,00139.4034,W,0,00,,-16.7,M,48.3,M,,0000*74
$GPGSA,M,1,,,,,,,,,,,,,,,*12
$GPGSV,3,1,12,10,48,125,18,11,04,258,18,15,05,040,06,16,53,179,20*77
$GPGSV,3,2,12,27,81,347,23,33,33,198,,08,42,294,,18,42,073,*7C
$GPGSV,3,3,12,21,25,060,,26,25,165,,07,17,301,,30,10,323,*7A
$GPRMC,002645.000,V,4806.8899,N,00139.4034,W,,,060218,,,N*6E
$GPGGA,002646.000,4806.8879,N,00139.4056,W,1,04,2.7,-15.3,M,48.3,M,,0000*54
$GPGSA,M,3,27,16,10,15,,,,,,,,,3.5,2.7,2.3*3B
$GPRMC,002646.000,A,4806.8879,N,00139.4056,W,3.52,46.18,060218,,,A*40
$GPGGA,002647.101,4806.8865,N,00139.4073,W,1,04,2.7,-14.8,M,48.3,M,,0000*55
$GPGSA,M,3,27,16,10,15,,,,,,,,,3.5,2.7,2.3*3B
$GPRMC,002647.101,A,4806.8865,N,00139.4073,W,4.35,54.89,060218,,,A*46
arfcn: 978 bsic: 47 rxLev: -95 ber: 12.02 mcc: 208 mnc: 20 lac: 418 cellId: 38981 cellStatus: CELL_SUITABLE numArfcn: 0 arfcn: numChannels: 17 array: 975 977 981 982 983 985 986 987 1011 1012 1013 1014 1015 1016 1017 1020 1022
arfcn: 110 rxLev: -95
$GPGGA,002648.000,4806.8853,N,00139.4095,W,1,04,2.7,-15.2,M,48.3,M,,0000*5C
$GPGSA,M,3,27,16,10,15,,,,,,,,,3.5,2.7,2.3*3B
$GPRMC,002648.000,A,4806.8853,N,00139.4095,W,4.70,65.17,060218,,,A*40
$GPGGA,002649.000,4806.8845,N,00139.4106,W,1,04,2.7,-15.3,M,48.3,M,,0000*50
$GPGSA,M,3,27,16,10,15,,,,,,,,,3.5,2.7,2.3*3B
$GPRMC,002649.000,A,4806.8845,N,00139.4106,W,5.52,76.01,060218,,,A*49
arfcn: 115 bsic: 43 rxLev: -95 ber: 0.00 mcc: 208 mnc: 10 lac: 49415 cellId: 55710 cellStatus: CELL_FORBIDDEN numArfcn: 2 arfcn: 87 115 numChannels: 22 array: 76 77 78 79 80 82 83 84 85 86 113 114 115 116 117 118 119 120 121 122 123 124 pbcch: 0 nom: 2 rac: 31 spgc: 0 pat: 6 nco: 0 t3168: 1000 t3192: 500 drxmax: 4 ctrlAck: 1 bsCVmax: 9 alpha: 10 pcMeasCh: 0 
$GPGGA,002650.000,4806.8842,N,00139.4113,W,1,04,2.7,-16.4,M,48.3,M,,0000*5F
$GPGSA,M,3,27,16,10,15,,,,,,,,,3.5,2.7,2.3*3B
$GPGSV,3,1,12,27,81,347,22,16,53,179,20,10,48,125,18,15,05,040,09*76
$GPGSV,3,2,12,08,42,294,11,11,04,258,18,37,27,150,,18,42,073,*76
$GPGSV,3,3,12,21,25,060,,26,25,165,,07,17,301,,30,10,323,*7A
$GPRMC,002650.000,A,4806.8842,N,00139.4113,W,5.70,84.44,060218,,,A*4E
$GPGGA,002651.000,4806.8840,N,00139.4110,W,1,04,2.7,-16.7,M,48.3,M,,0000*5C
$GPGSA,M,3,27,16,10,15,,,,,,,,,3.5,2.7,2.3*3B
