$GPGSA,M,3,16,26,21,10,29,,,,,,,,3.2,2.4,2.1*30
$GPRMC,230342.000,A,4806.8715,N,00139.4113,W,1.35,116.77,050218,,,A*7A
Survey start at #CCLK: "18/02/06,00:03:42+04"
at#csurv
Network survey started ...
Survey end at #CCLK: "18/02/06,00:03:43+04"
Survey duration: 0 seconds, 0 bases detected over 0 freqs scanned.
$GPGGA,230343.000,4806.8709,N,00139.4109,W,1,05,2.4,45.7,M,48.3,M,,0000*7A
$GPGSA,M,3,16,26,21,10,29,,,,,,,,3.2,2.4,2.1*30
$GPGSV,3,1,12,16,76,284,18,26,65,163,24,21,57,065,29,10,16,151,16*71
$GPGSV,3,2,12,29,05,083,29,33,33,198,,27,48,282,,18,33,118,*75
$GPGSV,3,3,12,20,25,056,,08,11,273,,07,06,331,,31,04,190,*7C
$GPRMC,230343.000,A,4806.8709,N,00139.4109,W,1.76,124.22,050218,,,A*7B
$GPGGA,230344.000,4806.8705,N,00139.4111,W,1,05,2.4,45.6,M,48.3,M,,0000*79
$GPGSA,M,3,16,26,21,10,29,,,,,,,,3.2,2.4,2.1*30
$GPRMC,230344.000,A,4806.8705,N,00139.4111,W,1.64,130.63,050218,,,A*7A
Survey start at #CCLK: "18/02/06,00:03:44+04"
at#csurv
Network survey started ...
$GPGGA,230345.000,4806.8700,N,00139.4114,W,1,05,2.4,45.4,M,48.3,M,,0000*7A
$GPGSA,M,3,16,26,21,10,29,,,,,,,,3.2,2.4,2.1*30
$GPRMC,230345.000,A,4806.8700,N,00139.4114,W,1.40,134.33,050218,,,A*7C
$GPGGA,230346.000,4806.8696,N,00139.4115,W,1,05,2.4,45.5,M,48.3,M,,0000*77
$GPGSA,M,3,16,26,21,10,29,,,,,,,,3.2,2.4,2.1*30
$GPRMC,230346.000,A,4806.8696,N,00139.4115,W,1.08,134.33,050218,,,A*7C
$GPGGA,230347.000,4806.8690,N,00139.4117,W,1,05,2.4,45.2,M,48.3,M,,0000*75
$GPGSA,M,3,16,26,21,10,29,,,,,,,,3.2,2.4,2.1*30
$GPRMC,230347.000,A,4806.8690,N,00139.4117,W,1.43,137.53,050218,,,A*73
$GPGGA,230348.000,4806.8687,N,00139.4121,W,1,04,2.7,44.9,M,48.3,M,,0000*71
$GPGSA,M,3,16,26,21,10,,,,,,,,,3.7,2.7,2.5*39
$GPGSV,3,1,12,16,76,284,17,26,65,163,21,21,57,065,22,10,16,151,15*73
$GPGSV,3,2,12,20,25,056,13,29,05,083,08,33,33,198,,27,48,282,*73
$GPGSV,3,3,12,18,33,118,,08,11,273,,07,06,331,,31,04,190,*7B
$GPRMC,230348.000,A,4806.8687,N,00139.4121,W,1.33,140.30,050218,,,A*7D
$GPGGA,230349.000,4806.8683,N,00139.4121,W,1,05,2.3,45.2,M,48.3,M,,0000*7B
$GPGSA,M,3,16,26,21,20,10,,,,,,,,3.2,2.3,2.2*3D
$GPRMC,230349.000,A,4806.8683,N,00139.4121,W,1.05,140.30,050218,,,A*7D
$GPGGA,230350.000,4806.8677,N,00139.4120,W,1,05,2.3,45.5,M,48.3,M,,0000*7E
$GPGSA,M,3,16,26,21,20,10,,,,,,,,3.2,2.3,2.2*3D
$GPRMC,230350.000,A,4806.8677,N,00139.4120,W,1.04,140.30,050218,,,A*7E
arfcn: 981 bsic: 46 rxLev: -46 ber: 0.00 mcc: 208 mnc: 20 lac: 418 cellId: 21807 cellStatus: CELL_SUITABLE numArfcn: 1 arfcn: 981 numChannels: 16 array: 979 982 983 985 1012 1014 1017 1019 1020 787 790 791 793 796 882 884 pbcch: 0 nom: 2 rac: 6 spgc: 0 pat: 6 nco: 0 t3168: 1500 t3192: 500 drxmax: 0 ctrlAck: 0 bsCVmax: 8 alpha: 6 pcMeasCh: 1 
$GPGGA,230351.000,4806.8670,N,00139.4117,W,1,05,2.3,46.5,M,48.3,M,,0000*7F
$GPGSA,M,3,16,26,21,20,10,,,,,,,,3.2,2.3,2.2*3D
$GPRMC,230351.000,A,4806.8670,N,00139.4117,W,1.03,140.30,050218,,,A*7B
$GPGGA,230352.000,4806.8658,N,00139.4099,W,1,05,2.3,48.3,M,48.3,M,,0000*79
$GPGSA,M,3,16,26,21,20,10,,,,,,,,3.2,2.3,2.2*3D
$GPRMC,230352.000,A,4806.8658,N,00139.4099,W,0.73,140.30,050218,,,A*73
$GPGGA,230353.000,4806.8646,N,00139.4078,W,1,04,3.5,50.1,M,48.3,M,,0000*75
$GPGSA,M,3,16,26,21,20,,,,,,,,,6.3,3.5,5.2*38
$GPGSV,3,1,12,16,76,284,16,26,65,163,20,21,57,065,22,20,25,056,20*70
$GPGSV,3,2,12,10,16,151,04,29,05,083,07,33,33,198,,27,48,282,*7F
$GPGSV,3,3,12,18,33,118,,08,11,273,,07,06,331,,31,04,190,*7B
$GPRMC,230353.000,A,4806.8646,N,00139.4078,W,0.38,140.30,050218,,,A*7D
$GPGGA,230354.000,4806.8645,N,00139.4074,W,1,06,2.8,51.3,M,48.3,M,,0000*70
$GPGSA,M,3,16,26,21,20,10,29,,,,,,,4.0,2.8,2.8*32
$GPRMC,230354.000,A,4806.8645,N,00139.4074,W,0.35,140.30,050218,,,A*78
$GPGGA,230355.000,4806.8643,N,00139.4070,W,1,05,2.3,51.6,M,48.3,M,,0000*7E
$GPGSA,M,3,16,26,21,20,10,,,,,,,,3.2,2.3,2.2*3D
$GPRMC,230355.000,A,4806.8643,N,00139.4070,W,0.44,140.30,050218,,,A*7D
$GPGGA,230356.000,4806.8645,N,00139.4065,W,1,05,2.3,52.4,M,48.3,M,,0000*7E
$GPGSA,M,3,16,26,21,20,10,,,,,,,,3.2,2.3,2.2*3D
$GPRMC,230356.000,A,4806.8645,N,00139.4065,W,1.02,140.30,050218,,,A*7F
$GPGGA,230357.000,4806.8646,N,00139.4064,W,1,05,2.3,52.1,M,48.3,M,,0000*78
$GPGSA,M,3,16,26,21,20,10,,,,,,,,3.2,2.3,2.2*3D
Survey end at #CCLK: "18/02/06,00:03:57+04"
Survey duration: 12 seconds, 1 bases detected over 1 freqs scanned.
$GPRMC,230357.000,A,4806.8646,N,00139.4064,W,0.75,140.30,050218,,,A*7D
$GPGGA,230358.000,4806.8642,N,00139.4043,W,1,05,2.3,53.3,M,48.3,M,,0000*75
$GPGSA,M,3,16,26,21,20,10,,,,,,,,3.2,2.3,2.2*3D
$GPGSV,3,1,12,16,76,284,15,26,65,163,20,21,57,065,23,20,25,056,21*73
$GPGSV,3,2,12,10,16,151,14,29,05,083,06,33,33,198,,27,48,282,*7F
$GPGSV,3,3,12,18,33,118,,08,11,273,,07,06,331,,31,04,190,*7B
$GPRMC,230358.000,A,4806.8642,N,00139.4043,W,1.23,130.09,050218,,,A*7C
Survey start at #CCLK: "18/02/06,00:03:59+04"
at#csurv
Network survey started ...
Survey end at #CCLK: "18/02/06,00:03:59+04"
Survey duration: 0 seconds, 0 bases detected over 0 freqs scanned.
$GPGGA,230359.000,4806.8648,N,00139.4041,W,1,05,2.3,53.7,M,48.3,M,,0000*78
$GPGSA,M,3,16,26,21,20,10,,,,,,,,3.2,2.3,2.2*3D
$GPRMC,230359.000,A,4806.8648,N,00139.4041,W,1.19,114.70,050218,,,A*74
$GPGGA,230400.000,4806.8654,N,00139.4045,W,1,05,2.3,53.2,M,48.3,M,,0000*7F
$GPGSA,M,3,16,26,21,20,10,,,,,,,,3.2,2.3,2.2*3D
$GPRMC,230400.000,A,4806.8654,N,00139.4045,W,1.07,114.70,050218,,,A*79
$GPGGA,230401.000,4806.8664,N,00139.4053,W,1,05,2.3,52.8,M,48.3,M,,0000*71
$GPGSA,M,3,16,26,21,20,10,,,,,,,,3.2,2.3,2.2*3D
Survey start at #CCLK: "18/02/06,00:04:01+04"
at#csurv
Network survey started ...
Survey end at #CCLK: "18/02/06,00:04:01+04"
Survey duration: 0 seconds, 0 bases detected over 0 freqs scanned.
$GPRMC,230401.000,A,4806.8664,N,00139.4053,W,1.49,87.31,050218,,,A*48
$GPGGA,230402.000,4806.8669,N,00139.4056,W,1,05,2.3,52.1,M,48.3,M,,0000*73
$GPGSA,M,3,16,26,21,20,10,,,,,,,,3.2,2.3,2.2*3D
$GPRMC,230402.000,A,4806.8669,N,00139.4056,W,1.30,76.52,050218,,,A*46
$GPGGA,230403.000,4806.8678,N,00139.4064,W,1,05,2.3,51.5,M,48.3,M,,0000*74
$GPGSA,M,3,16,26,21,20,10,,,,,,,,3.2,2.3,2.2*3D
$GPGSV,3,1,12,16,76,284,14,26,65,163,19,21,57,065,22,20,25,056,21*79
$GPGSV,3,2,12,10,16,151,15,29,05,083,04,37,27,150,,27,48,282,*79
Survey start at #CCLK: "18/02/06,00:04:03+04"
at#csurv
Network survey started ...
$GPGSV,3,3,12,18,33,118,,08,11,273,,07,06,331,,31,04,190,*7B
$GPRMC,230403.000,A,4806.8678,N,00139.4064,W,1.64,64.47,050218,,,A*40
$GPGGA,230404.000,4806.8684,N,00139.4063,W,1,05,2.3,51.3,M,48.3,M,,0000*71
$GPGSA,M,3,16,26,21,20,10,,,,,,,,3.2,2.3,2.2*3D
$GPRMC,230404.000,A,4806.8684,N,00139.4063,W,2.02,53.54,050218,,,A*46
$GPGGA,230405.000,4806.8692,N,00139.4068,W,1,05,2.3,51.1,M,48.3,M,,0000*7E
$GPGSA,M,3,16,26,21,20,10,,,,,,,,3.2,2.3,2.2*3D
$GPRMC,230405.000,A,4806.8692,N,00139.4068,W,2.31,42.72,050218,,,A*4F
$GPGGA,230406.000,4806.8692,N,00139.4062,W,1,05,2.3,51.1,M,48.3,M,,0000*77
$GPGSA,M,3,16,26,21,20,10,,,,,,,,3.2,2.3,2.2*3D
$GPRMC,230406.000,A,4806.8692,N,00139.4062,W,1.62,39.55,050218,,,A*4A
$GPGGA,230407.000,4806.8696,N,00139.4059,W,1,04,5.3,51.2,M,48.3,M,,0000*7F
$GPGSA,M,3,26,21,20,10,,,,,,,,,6.0,5.3,2.9*31
$GPRMC,230407.000,A,4806.8696,N,00139.4059,W,1.50,37.49,050218,,,A*45
$GPGGA,230408.000,4806.8695,N,00139.4054,W,1,04,5.3,51.9,M,48.3,M,,0000*75
$GPGSA,M,3,26,21,20,10,,,,,,,,,6.0,5.3,2.9*31
$GPGSV,3,1,12,26,65,163,19,21,57,065,22,20,25,056,21,10,16,151,15*73
$GPGSV,3,2,12,16,76,284,07,29,05,083,07,37,27,150,,27,48,282,*72
$GPGSV,3,3,12,18,33,118,,08,11,273,,07,06,331,,31,04,190,*7B
$GPRMC,230408.000,A,4806.8695,N,00139.4054,W,0.88,37.49,050218,,,A*40
$GPGGA,230409.000,4806.8693,N,00139.4043,W,1,04,5.3,52.3,M,48.3,M,,0000*7D
$GPGSA,M,3,26,21,20,10,,,,,,,,,6.0,5.3,2.9*31
$GPRMC,230409.000,A,4806.8693,N,00139.4043,W,0.80,37.49,050218,,,A*49
$GPGGA,230410.000,4806.8692,N,00139.4034,W,1,05,2.3,53.0,M,48.3,M,,0000*70
$GPGSA,M,3,16,26,21,20,10,,,,,,,,3.2,2.3,2.2*3D
$GPRMC,230410.000,A,4806.8692,N,00139.4034,W,0.74,37.49,050218,,,A*4B
$GPGGA,230411.000,4806.8691,N,00139.4020,W,1,05,2.3,53.2,M,48.3,M,,0000*75
$GPGSA,M,3,16,26,21,20,10,,,,,,,,3.2,2.3,2.2*3D
$GPRMC,230411.000,A,4806.8691,N,00139.4020,W,1.19,45.76,050218,,,A*4F
arfcn: 981 bsic: 46 rxLev: -46 ber: 0.00 mcc: 208 mnc: 20 lac: 418 cellId: 21807 cellStatus: CELL_SUITABLE numArfcn: 1 arfcn: 981 numChannels: 16 array: 979 982 983 985 1012 1014 1017 1019 1020 787 790 791 793 796 882 884 pbcch: 0 nom: 2 rac: 6 spgc: 0 pat: 6 nco: 0 t3168: 1500 t3192: 500 drxmax: 0 ctrlAck: 0 bsCVmax: 8 alpha: 6 pcMeasCh: 1 
$GPGGA,230412.000,4806.8690,N,00139.4011,W,1,05,2.3,53.5,M,48.3,M,,0000*72
$GPGSA,M,3,16,26,21,20,10,,,,,,,,3.2,2.3,2.2*3D
$GPRMC,230412.000,A,4806.8690,N,00139.4011,W,1.33,51.82,050218,,,A*49
$GPGGA,230413.000,4806.8687,N,00139.3997,W,1,05,4.4,53.5,M,48.3,M,,0000*74
$GPGSA,M,3,26,21,20,10,29,,,,,,,,5.2,4.4,2.9*3D
$GPGSV,3,1,12,26,65,163,19,21,57,065,22,20,25,056,21,10,16,151,16*70
$GPGSV,3,2,12,29,05,083,09,16,76,284,08,37,27,150,,27,48,282,*73
$GPGSV,3,3,12,18,33,118,,08,11,273,,07,06,331,,31,04,190,*7B
$GPRMC,230413.000,A,4806.8687,N,00139.3997,W,1.74,64.63,050218,,,A*44
$GPGGA,230414.000,4806.8686,N,00139.3999,W,1,05,4.4,53.5,M,48.3,M,,0000*7C
$GPGSA,M,3,26,21,20,10,29,,,,,,,,5.2,4.4,2.9*3D
$GPRMC,230414.000,A,4806.8686,N,00139.3999,W,1.13,64.63,050218,,,A*4D
$GPGGA,230415.000,4806.8686,N,00139.3993,W,1,05,4.4,53.7,M,48.3,M,,0000*75
$GPGSA,M,3,26,21,20,10,29,,,,,,,,5.2,4.4,2.9*3D
$GPRMC,230415.000,A,4806.8686,N,00139.3993,W,1.08,64.63,050218,,,A*4C
$GPGGA,230416.000,4806.8687,N,00139.3986,W,1,06,2.8,54.0,M,48.3,M,,0000*7A
$GPGSA,M,3,16,26,21,20,10,29,,,,,,,4.0,2.8,2.9*33
$GPRMC,230416.000,A,4806.8687,N,00139.3986,W,1.10,64.63,050218,,,A*43
$GPGGA,230417.000,4806.8695,N,00139.3998,W,1,05,2.3,54.0,M,48.3,M,,0000*7F
$GPGSA,M,3,16,26,21,20,10,,,,,,,,3.2,2.3,2.2*3D
$GPRMC,230417.000,A,4806.8695,N,00139.3998,W,0.82,64.63,050218,,,A*44
Survey end at #CCLK: "18/02/06,00:04:18+04"
Survey duration: 14 seconds, 1 bases detected over 1 freqs scanned.
$GPGGA,230418.000,4806.8697,N,00139.4002,W,1,05,2.3,54.0,M,48.3,M,,0000*7F
$GPGSA,M,3,16,26,21,20,10,,,,,,,,3.2,2.3,2.2*3D
$GPGSV,3,1,12,16,76,284,08,26,65,163,19,21,57,065,22,20,25,056,21*74
$GPGSV,3,2,12,10,16,151,16,29,05,083,07,31,04,190,11,37,27,150,*76
$GPGSV,3,3,12,27,48,282,,18,33,118,,08,11,273,,07,06,331,*74
$GPRMC,230418.000,A,4806.8697,N,00139.4002,W,0.40,64.63,050218,,,A*4A
$GPGGA,230419.000,4806.8699,N,00139.3996,W,1,05,2.3,53.9,M,48.3,M,,0000*7D
$GPGSA,M,3,16,26,21,20,10,,,,,,,,3.2,2.3,2.2*3D
$GPRMC,230419.000,A,4806.8699,N,00139.3996,W,0.62,64.63,050218,,,A*46
Survey start at #CCLK: "18/02/06,00:04:19+04"
at#csurv
Network survey started ...
Survey end at #CCLK: "18/02/06,00:04:19+04"
Survey duration: 0 seconds, 0 bases detected over 0 freqs scanned.
$GPGGA,230420.000,4806.8701,N,00139.4007,W,1,05,2.3,53.9,M,48.3,M,,0000*71
$GPGSA,M,3,16,26,21,20,10,,,,,,,,3.2,2.3,2.2*3D
$GPRMC,230420.000,A,4806.8701,N,00139.4007,W,0.44,64.63,050218,,,A*4E
$GPGGA,230421.000,4806.8700,N,00139.4012,W,1,05,2.3,53.7,M,48.3,M,,0000*7B
$GPGSA,M,3,16,26,21,20,10,,,,,,,,3.2,2.3,2.2*3D
$GPRMC,230421.000,A,4806.8700,N,00139.4012,W,0.77,64.63,050218,,,A*4A
Survey start at #CCLK: "18/02/06,00:04:22+04"
at#csurv
Network survey started ...
Survey end at #CCLK: "18/02/06,00:04:22+04"
Survey duration: 0 seconds, 0 bases detected over 0 freqs scanned.
$GPGGA,230422.000,4806.8695,N,00139.4009,W,1,05,2.3,53.6,M,48.3,M,,0000*7E
$GPGSA,M,3,16,26,21,20,10,,,,,,,,3.2,2.3,2.2*3D
$GPRMC,230422.000,A,4806.8695,N,00139.4009,W,0.97,64.63,050218,,,A*40
$GPGGA,230423.000,4806.8695,N,00139.4016,W,1,05,2.3,53.5,M,48.3,M,,0000*72
$GPGSA,M,3,16,26,21,20,10,,,,,,,,3.2,2.3,2.2*3D
$GPGSV,3,1,12,16,76,284,16,26,65,163,19,21,57,065,22,20,25,056,21*7B
$GPGSV,3,2,12,10,16,151,16,29,05,083,05,31,04,190,12,37,27,150,*77
$GPGSV,3,3,12,27,48,282,,18,33,118,,08,11,273,,07,06,331,*74
$GPRMC,230423.000,A,4806.8695,N,00139.4016,W,0.77,64.63,050218,,,A*41
$GPGGA,230424.000,4806.8694,N,00139.4019,W,1,05,2.3,53.5,M,48.3,M,,0000*7B
$GPGSA,M,3,16,26,21,20,10,,,,,,,,3.2,2.3,2.2*3D
$GPRMC,230424.000,A,4806.8694,N,00139.4019,W,0.56,64.63,050218,,,A*4B
Survey start at #CCLK: "18/02/06,00:04:24+04"
at#csurv
Network survey started ...
$GPGGA,230425.000,4806.8694,N,00139.4024,W,1,05,2.3,53.5,M,48.3,M,,0000*74
$GPGSA,M,3,16,26,21,20,10,,,,,,,,3.2,2.3,2.2*3D
$GPRMC,230425.000,A,4806.8694,N,00139.4024,W,0.66,64.63,050218,,,A*47
$GPGGA,230426.000,4806.8694,N,00139.4024,W,1,05,2.3,53.5,M,48.3,M,,0000*77
$GPGSA,M,3,16,26,21,20,10,,,,,,,,3.2,2.3,2.2*3D
$GPRMC,230426.000,A,4806.8694,N,00139.4024,W,0.35,64.63,050218,,,A*42
$GPGGA,230427.000,4806.8694,N,00139.4024,W,1,05,2.3,53.3,M,48.3,M,,0000*70
$GPGSA,M,3,16,26,21,20,10,,,,,,,,3.2,2.3,2.2*3D
$GPRMC,230427.000,A,4806.8694,N,00139.4024,W,0.11,64.63,050218,,,A*45
$GPGGA,230428.000,4806.8694,N,00139.4022,W,1,05,2.3,53.2,M,48.3,M,,0000*78
$GPGSA,M,3,16,26,21,20,10,,,,,,,,3.2,2.3,2.2*3D
$GPGSV,3,1,12,16,76,284,17,26,65,163,19,21,57,065,21,20,25,056,22*7A
$GPGSV,3,2,12,10,16,151,15,29,05,083,05,31,04,190,06,37,27,150,*71
$GPGSV,3,3,12,27,48,282,,18,33,118,,08,11,273,,07,06,331,*74
$GPRMC,230428.000,A,4806.8694,N,00139.4022,W,0.17,64.63,050218,,,A*4A
$GPGGA,230429.000,4806.8692,N,00139.4022,W,1,05,2.3,53.4,M,48.3,M,,0000*79
$GPGSA,M,3,16,26,21,20,10,,,,,,,,3.2,2.3,2.2*3D
$GPRMC,230429.000,A,4806.8692,N,00139.4022,W,0.23,64.63,050218,,,A*4A
$GPGGA,230430.000,4806.8685,N,00139.4017,W,1,05,2.3,53.8,M,48.3,M,,0000*7D
$GPGSA,M,3,16,26,21,20,10,,,,,,,,3.2,2.3,2.2*3D
$GPRMC,230430.000,A,4806.8685,N,00139.4017,W,1.14,64.63,050218,,,A*47
arfcn: 981 bsic: 46 rxLev: -46 ber: 0.00 mcc: 208 mnc: 20 lac: 418 cellId: 21807 cellStatus: CELL_SUITABLE numArfcn: 1 arfcn: 981 numChannels: 16 array: 979 982 983 985 1012 1014 1017 1019 1020 787 790 791 793 796 882 884 pbcch: 0 nom: 2 rac: 6 spgc: 0 pat: 6 nco: 0 t3168: 1500 t3192: 500 drxmax: 0 ctrlAck: 0 bsCVmax: 8 alpha: 6 pcMeasCh: 1 
$GPGGA,230431.000,4806.8681,N,00139.4016,W,1,05,2.3,54.6,M,48.3,M,,0000*70
$GPGSA,M,3,16,26,21,20,10,,,,,,,,3.2,2.3,2.2*3D
$GPRMC,230431.000,A,4806.8681,N,00139.4016,W,0.88,64.63,050218,,,A*47
$GPGGA,230432.000,4806.8677,N,00139.4011,W,1,05,2.3,55.1,M,48.3,M,,0000*7B
$GPGSA,M,3,16,26,21,20,10,,,,,,,,3.2,2.3,2.2*3D
$GPRMC,230432.000,A,4806.8677,N,00139.4011,W,0.61,64.63,050218,,,A*4D
$GPGGA,230433.000,4806.8676,N,00139.4009,W,1,05,2.3,55.5,M,48.3,M,,0000*76
$GPGSA,M,3,16,26,21,20,10,,,,,,,,3.2,2.3,2.2*3D
$GPGSV,3,1,12,16,76,284,17,26,65,163,19,21,57,065,20,20,25,056,22*7B
$GPGSV,3,2,12,10,16,151,15,29,05,083,04,31,04,190,08,39,31,144,*72
$GPGSV,3,3,12,27,48,282,,18,33,118,,08,11,273,,07,06,331,*74
$GPRMC,230433.000,A,4806.8676,N,00139.4009,W,0.30,64.63,050218,,,A*40
$GPGGA,230434.000,4806.8674,N,00139.4006,W,1,05,2.3,55.9,M,48.3,M,,0000*70
$GPGSA,M,3,16,26,21,20,10,,,,,,,,3.2,2.3,2.2*3D
$GPRMC,230434.000,A,4806.8674,N,00139.4006,W,0.33,64.63,050218,,,A*49
$GPGGA,230435.000,4806.8670,N,00139.4001,W,1,05,2.3,56.5,M,48.3,M,,0000*7D
$GPGSA,M,3,16,26,21,20,10,,,,,,,,3.2,2.3,2.2*3D
$GPRMC,230435.000,A,4806.8670,N,00139.4001,W,0.60,64.63,050218,,,A*4D
$GPGGA,230436.000,4806.8668,N,00139.3997,W,1,05,2.3,56.8,M,48.3,M,,0000*7B
$GPGSA,M,3,16,26,21,20,10,,,,,,,,3.2,2.3,2.2*3D
$GPRMC,230436.000,A,4806.8668,N,00139.3997,W,0.54,64.63,050218,,,A*41
Survey end at #CCLK: "18/02/06,00:04:36+04"
Survey duration: 12 seconds, 1 bases detected over 1 freqs scanned.
$GPGGA,230437.000,4806.8664,N,00139.3989,W,1,05,2.3,57.0,M,48.3,M,,0000*70
$GPGSA,M,3,16,26,21,20,10,,,,,,,,3.2,2.3,2.2*3D
$GPRMC,230437.000,A,4806.8664,N,00139.3989,W,0.95,64.63,050218,,,A*4E
$GPGGA,230438.000,4806.8659,N,00139.3983,W,1,05,2.3,57.0,M,48.3,M,,0000*7B
$GPGSA,M,3,16,26,21,20,10,,,,,,,,3.2,2.3,2.2*3D
$GPGSV,3,1,12,16,76,284,16,26,65,163,19,21,57,065,20,20,25,056,22*7A
$GPGSV,3,2,12,10,16,151,08,29,05,083,04,31,04,190,04,39,31,144,*72
Survey start at #CCLK: "18/02/06,00:04:38+04"
$GPGSV,3,3,12,27,48,282,,18,33,118,,08,11,273,,07,06,331,*74
$GPRMC,230438.000,A,4806.8659,N,00139.3983,W,1.38,88.09,050218,,,A*4D
at#csurv
Network survey started ...
$GPGGA,230439.000,4806.8655,N,00139.3979,W,1,04,3.5,57.3,M,48.3,M,,0000*76
$GPGSA,M,3,16,26,21,20,,,,,,,,,6.2,3.5,5.2*39
$GPRMC,230439.000,A,4806.8655,N,00139.3979,W,1.42,100.86,050218,,,A*7E
$GPGGA,230440.000,4806.8650,N,00139.3972,W,1,04,3.5,57.6,M,48.3,M,,0000*73
$GPGSA,M,3,16,26,21,20,,,,,,,,,6.2,3.5,5.2*39
$GPRMC,230440.000,A,4806.8650,N,00139.3972,W,1.56,108.90,050218,,,A*74
$GPGGA,230441.000,4806.8644,N,00139.3968,W,1,04,3.5,57.8,M,48.3,M,,0000*72
$GPGSA,M,3,16,26,21,20,,,,,,,,,6.2,3.5,5.2*39
$GPRMC,230441.000,A,4806.8644,N,00139.3968,W,1.64,115.59,050218,,,A*73
$GPGGA,230442.000,4806.8636,N,00139.3957,W,1,04,3.5,58.1,M,48.3,M,,0000*7E
$GPGSA,M,3,16,26,21,20,,,,,,,,,6.2,3.5,5.2*39
$GPRMC,230442.000,A,4806.8636,N,00139.3957,W,2.14,123.18,050218,,,A*7D
$GPGGA,230443.000,4806.8634,N,00139.3961,W,1,04,3.5,58.4,M,48.3,M,,0000*7D
$GPGSA,M,3,16,26,21,20,,,,,,,,,6.2,3.5,5.2*39
$GPGSV,3,1,12,16,76,284,15,26,65,163,19,21,57,065,19,20,25,056,21*70
$GPGSV,3,2,12,10,16,151,05,31,04,190,04,39,31,144,,27,48,282,*7F
$GPGSV,3,3,12,18,33,118,,08,11,273,,07,06,331,,29,05,083,*70
$GPRMC,230443.000,A,4806.8634,N,00139.3961,W,1.57,128.98,050218,,,A*7C
$GPGGA,230444.000,4806.8632,N,00139.3961,W,1,05,2.3,58.6,M,48.3,M,,0000*78
$GPGSA,M,3,16,26,21,20,10,,,,,,,,3.2,2.3,2.2*3D
$GPRMC,230444.000,A,4806.8632,N,00139.3961,W,1.47,134.10,050218,,,A*71
$GPGGA,230445.000,4806.8630,N,00139.3964,W,1,04,3.5,59.1,M,48.3,M,,0000*7E
$GPGSA,M,3,16,26,21,20,,,,,,,,,6.2,3.5,5.2*39
$GPRMC,230445.000,A,4806.8630,N,00139.3964,W,1.05,134.10,050218,,,A*71
arfcn: 981 bsic: 46 rxLev: -46 ber: 0.00 mcc: 208 mnc: 20 lac: 418 cellId: 21807 cellStatus: CELL_SUITABLE numArfcn: 1 arfcn: 981 numChannels: 16 array: 979 982 983 985 1012 1014 1017 1019 1020 787 790 791 793 796 882 884 pbcch: 0 nom: 2 rac: 6 spgc: 0 pat: 6 nco: 0 t3168: 1500 t3192: 500 drxmax: 0 ctrlAck: 0 bsCVmax: 8 alpha: 6 pcMeasCh: 1 
$GPGGA,230446.000,4806.8624,N,00139.3963,W,1,04,3.5,59.4,M,48.3,M,,0000*7A
$GPGSA,M,3,16,26,21,20,,,,,,,,,6.2,3.5,5.2*39
$GPRMC,230446.000,A,4806.8624,N,00139.3963,W,1.16,134.10,050218,,,A*72
$GPGGA,230447.000,4806.8620,N,00139.3963,W,1,04,3.5,59.6,M,48.3,M,,0000*7D
$GPGSA,M,3,16,26,21,20,,,,,,,,,6.2,3.5,5.2*39
$GPRMC,230447.000,A,4806.8620,N,00139.3963,W,1.20,137.91,050218,,,A*78
$GPGGA,230448.000,4806.8617,N,00139.3965,W,1,04,3.5,59.9,M,48.3,M,,0000*7F
$GPGSA,M,3,16,26,21,20,,,,,,,,,6.2,3.5,5.2*39
$GPGSV,3,1,12,16,76,284,14,26,65,163,19,21,57,065,18,20,25,056,21*70
$GPGSV,3,2,12,10,16,151,04,31,04,190,10,39,31,144,,27,48,282,*7B
$GPGSV,3,3,12,18,33,118,,08,11,273,,07,06,331,,29,05,083,*70
$GPRMC,230448.000,A,4806.8617,N,00139.3965,W,1.10,137.91,050218,,,A*76
$GPGGA,230449.000,4806.8610,N,00139.3957,W,1,04,3.5,60.3,M,48.3,M,,0000*78
$GPGSA,M,3,16,26,21,20,,,,,,,,,6.2,3.5,5.2*39
$GPRMC,230449.000,A,4806.8610,N,00139.3957,W,0.99,137.91,050218,,,A*71
$GPGGA,230450.000,4806.8608,N,00139.3955,W,0,00,,60.2,M,48.3,M,,0000*57
$GPGSA,M,1,,,,,,,,,,,,,,,*12
$GPRMC,230450.000,V,4806.8608,N,00139.3955,W,,,050218,,,N*67
$GPGGA,230451.000,4806.8605,N,00139.3954,W,0,00,,60.2,M,48.3,M,,0000*5A
$GPGSA,M,1,,,,,,,,,,,,,,,*12
$GPRMC,230451.000,V,4806.8605,N,00139.3954,W,,,050218,,,N*6A
$GPGGA,230452.087,4806.8602,N,00139.3952,W,0,00,,60.2,M,48.3,M,,0000*57
$GPGSA,M,1,,,,,,,,,,,,,,,*12
$GPRMC,230452.087,V,4806.8602,N,00139.3952,W,,,050218,,,N*67
$GPGGA,230453.087,4806.8600,N,00139.3951,W,0,00,,60.2,M,48.3,M,,0000*57
$GPGSA,M,1,,,,,,,,,,,,,,,*12
$GPGSV,3,1,12,10,16,151,04,16,76,284,05,20,25,056,21,21,57,065,18*7C
$GPGSV,3,2,12,26,65,163,18,31,04,190,10,39,31,144,,27,48,282,*76
$GPGSV,3,3,12,18,33,118,,08,11,273,,07,06,331,,29,05,083,*70
$GPRMC,230453.087,V,4806.8600,N,00139.3951,W,,,050218,,,N*67
Survey end at #CCLK: "18/02/06,00:04:53+04"
Survey duration: 15 seconds, 1 bases detected over 1 freqs scanned.
$GPGGA,230454.087,4806.8597,N,00139.3949,W,0,00,,60.2,M,48.3,M,,0000*54
$GPGSA,M,1,,,,,,,,,,,,,,,*12
$GPRMC,230454.087,V,4806.8597,N,00139.3949,W,,,050218,,,N*64
$GPGGA,230455.087,4806.8595,N,00139.3948,W,0,00,,60.2,M,48.3,M,,0000*56
$GPGSA,M,1,,,,,,,,,,,,,,,*12
$GPRMC,230455.087,V,4806.8595,N,00139.3948,W,,,050218,,,N*66
Survey start at #CCLK: "18/02/06,00:04:55+04"
at#csurv
Network survey started ...
Survey end at #CCLK: "18/02/06,00:04:55+04"
Survey duration: 0 seconds, 0 bases detected over 0 freqs scanned.
$GPGGA,230456.087,4806.8592,N,00139.3946,W,0,00,,60.2,M,48.3,M,,0000*5C
$GPGSA,M,1,,,,,,,,,,,,,,,*12
$GPRMC,230456.087,V,4806.8592,N,00139.3946,W,,,050218,,,N*6C
$GPGGA,230457.087,4806.8590,N,00139.3952,W,1,04,3.5,60.7,M,48.3,M,,0000*72
$GPGSA,M,3,16,26,21,20,,,,,,,,,6.2,3.5,5.2*39
Survey start at #CCLK: "18/02/06,00:04:57+04"
at#csurv
Network survey started ...
Survey end at #CCLK: "18/02/06,00:04:57+04"
Survey duration: 0 seconds, 0 bases detected over 0 freqs scanned.
$GPRMC,230457.087,A,4806.8590,N,00139.3952,W,0.95,137.91,050218,,,A*73
$GPGGA,230458.087,4806.8589,N,00139.3913,W,1,04,3.5,61.2,M,48.3,M,,0000*74
$GPGSA,M,3,16,26,21,20,,,,,,,,,6.2,3.5,5.2*39
$GPGSV,3,1,12,16,76,284,13,26,65,163,19,21,57,065,17,20,25,056,21*78
$GPGSV,3,2,12,31,04,190,05,39,31,144,,27,48,282,,18,33,118,*79
$GPGSV,3,3,12,10,16,151,,08,11,273,,07,06,331,,29,05,083,*72
$GPRMC,230458.087,A,4806.8589,N,00139.3913,W,1.52,131.93,050218,,,A*7F
$GPGGA,230459.000,4806.8584,N,00139.3891,W,1,04,3.5,61.7,M,48.3,M,,0000*79
$GPGSA,M,3,16,26,21,20,,,,,,,,,6.2,3.5,5.2*39
$GPRMC,230459.000,A,4806.8584,N,00139.3891,W,2.17,123.24,050218,,,A*7A
Survey start at #CCLK: "18/02/06,00:04:59+04"
at#csurv
Network survey started ...
$GPGGA,230500.000,4806.8574,N,00139.3876,W,1,04,3.5,62.5,M,48.3,M,,0000*73
$GPGSA,M,3,16,26,21,20,,,,,,,,,6.2,3.5,5.2*39
$GPRMC,230500.000,A,4806.8574,N,00139.3876,W,2.34,120.18,050218,,,A*7C
$GPGGA,230501.000,4806.8567,N,00139.3863,W,1,04,3.5,63.2,M,48.3,M,,0000*72
$GPGSA,M,3,16,26,21,20,,,,,,,,,6.2,3.5,5.2*39
$GPRMC,230501.000,A,4806.8567,N,00139.3863,W,2.46,119.28,050218,,,A*77
$GPGGA,230502.000,4806.8558,N,00139.3850,W,1,04,3.5,63.4,M,48.3,M,,0000*7B
$GPGSA,M,3,16,26,21,20,,,,,,,,,6.2,3.5,5.2*39
$GPRMC,230502.000,A,4806.8558,N,00139.3850,W,2.61,120.52,050218,,,A*7A
$GPGGA,230503.000,4806.8555,N,00139.3839,W,1,04,3.5,64.1,M,48.3,M,,0000*7A
$GPGSA,M,3,16,26,21,20,,,,,,,,,6.2,3.5,5.1*3A
$GPGSV,3,1,12,16,76,284,13,26,65,163,19,21,57,065,17,20,25,056,20*79
$GPGSV,3,2,12,27,48,282,11,31,04,190,06,33,33,198,,18,33,118,*73
$GPGSV,3,3,12,10,16,151,,08,11,273,,07,06,331,,29,05,083,*72
$GPRMC,230503.000,A,4806.8555,N,00139.3839,W,2.58,121.75,050218,,,A*77
$GPGGA,230504.000,4806.8560,N,00139.3840,W,1,04,3.5,64.5,M,48.3,M,,0000*71
$GPGSA,M,3,16,26,21,20,,,,,,,,,6.2,3.5,5.1*3A
$GPRMC,230504.000,A,4806.8560,N,00139.3840,W,1.96,121.34,050218,,,A*7C
$GPGGA,230505.000,4806.8555,N,00139.3834,W,1,04,3.5,64.7,M,48.3,M,,0000*77
$GPGSA,M,3,16,26,21,20,,,,,,,,,6.2,3.5,5.1*3A
$GPRMC,230505.000,A,4806.8555,N,00139.3834,W,1.95,123.05,050218,,,A*7B
$GPGGA,230506.000,4806.8562,N,00139.3854,W,1,05,2.2,63.7,M,48.3,M,,0000*76
$GPGSA,M,3,16,26,21,27,20,,,,,,,,3.2,2.2,2.4*3E
$GPRMC,230506.000,A,4806.8562,N,00139.3854,W,1.64,123.22,050218,,,A*71
$GPGGA,230507.000,4806.8572,N,00139.3875,W,1,04,2.8,63.2,M,48.3,M,,0000*7B
$GPGSA,M,3,26,21,27,20,,,,,,,,,5.5,2.8,4.7*37
$GPRMC,230507.000,A,4806.8572,N,00139.3875,W,1.35,121.75,050218,,,A*76
$GPGGA,230508.000,4806.8591,N,00139.3919,W,1,04,2.8,62.6,M,48.3,M,,0000*77
$GPGSA,M,3,26,21,27,20,,,,,,,,,5.5,2.8,4.7*37
$GPGSV,3,1,12,26,65,163,20,21,57,065,17,27,48,282,11,20,25,056,20*78
$GPGSV,3,2,12,16,76,284,04,31,04,190,05,33,33,198,,18,33,118,*7D
$GPGSV,3,3,12,10,16,151,,08,11,273,,07,06,331,,29,05,083,*72
$GPRMC,230508.000,A,4806.8591,N,00139.3919,W,0.35,121.75,050218,,,A*7E
arfcn: 981 bsic: 46 rxLev: -47 ber: 0.00 mcc: 208 mnc: 20 lac: 418 cellId: 21807 cellStatus: CELL_SUITABLE numArfcn: 1 arfcn: 981 numChannels: 16 array: 979 982 983 985 1012 1014 1017 1019 1020 787 790 791 793 796 882 884 pbcch: 0 nom: 2 rac: 6 spgc: 0 pat: 6 nco: 0 t3168: 1500 t3192: 500 drxmax: 0 ctrlAck: 0 bsCVmax: 8 alpha: 6 pcMeasCh: 1 
$GPGGA,230509.000,4806.8603,N,00139.3943,W,1,04,2.8,62.8,M,48.3,M,,0000*7F
$GPGSA,M,3,26,21,27,20,,,,,,,,,5.5,2.8,4.7*37
$GPRMC,230509.000,A,4806.8603,N,00139.3943,W,0.82,121.75,050218,,,A*74
$GPGGA,230510.000,4806.8612,N,00139.3965,W,1,04,2.8,62.1,M,48.3,M,,0000*7A
$GPGSA,M,3,26,21,27,20,,,,,,,,,5.5,2.8,4.7*37
$GPRMC,230510.000,A,4806.8612,N,00139.3965,W,0.98,121.75,050218,,,A*73
$GPGGA,230511.000,4806.8619,N,00139.3986,W,1,04,2.8,61.5,M,48.3,M,,0000*7A
$GPGSA,M,3,26,21,27,20,,,,,,,,,5.5,2.8,4.7*37
$GPRMC,230511.000,A,4806.8619,N,00139.3986,W,1.07,121.75,050218,,,A*73
arfcn: 985 bsic: 44 rxLev: -50 ber: 0.00 mcc: 208 mnc: 20 lac: 418 cellId: 21808 cellStatus: CELL_SUITABLE numArfcn: 1 arfcn: 985 numChannels: 25 array: 787 788 790 793 795 796 879 884 975 977 978 979 980 981 982 983 1011 1012 1014 1015 1017 1019 1020 1021 1022 pbcch: 0 nom: 2 rac: 6 spgc: 0 pat: 6 nco: 0 t3168: 1500 t3192: 500 drxmax: 0 ctrlAck: 0 bsCVmax: 8 alpha: 6 pcMeasCh: 1 
arfcn: 991 rxLev: -61
arfcn: 992 rxLev: -61
arfcn: 997 rxLev: -61
arfcn: 994 rxLev: -61
$GPGGA,230512.000,4806.8633,N,00139.4014,W,1,04,2.8,61.3,M,48.3,M,,0000*72
arfcn: 1000 rxLev: -61
arfcn: 993 rxLev: -61
$GPGSA,M,3,26,21,27,20,,,,,,,,,5.4,2.8,4.7*36
arfcn: 990 rxLev: -61
$GPRMC,230512.000,A,4806.8633,N,00139.4014,W,1.72,98.79,050218,,,A*40
arfcn: 995 rxLev: -62
arfcn: 996 rxLev: -62
arfcn: 1003 rxLev: -62
arfcn: 1004 rxLev: -62
arfcn: 1008 rxLev: -62
arfcn: 1001 rxLev: -62
arfcn: 998 rxLev: -62
arfcn: 999 rxLev: -62
$GPGGA,230513.000,4806.8654,N,00139.4053,W,1,04,2.8,61.0,M,48.3,M,,0000*72
arfcn: 1006 rxLev: -63
$GPGSA,M,3,26,21,27,20,,,,,,,,,5.4,2.8,4.7*36
arfcn: 1007 rxLev: -63
arfcn: 1002 rxLev: -63
$GPGSV,3,1,12,26,65,163,20,21,57,065,16,27,48,282,11,20,25,056,20*79
$GPGSV,3,2,12,16,76,284,04,31,04,190,04,33,33,198,,18,33,118,*7C
$GPGSV,3,3,12,10,16,151,,08,11,273,,07,06,331,,29,05,083,*72
$GPRMC,230513.000,A,4806.8654,N,00139.4053,W,2.96,41.45,050218,,,A*41
$GPGGA,230514.000,4806.8654,N,00139.4059,W,1,04,2.8,60.7,M,48.3,M,,0000*79
$GPGSA,M,3,26,21,27,20,,,,,,,,,5.4,2.8,4.7*36
$GPRMC,230514.000,A,4806.8654,N,00139.4059,W,1.98,24.78,050218,,,A*4C
$GPGGA,230515.000,4806.8658,N,00139.4072,W,1,04,2.8,60.7,M,48.3,M,,0000*7D
$GPGSA,M,3,26,21,27,20,,,,,,,,,5.4,2.8,4.7*36
arfcn: 12 bsic: 0 rxLev: -63 ber: 0.00 mcc: 208 mnc: 01 lac: 10300 cellId: 6467 cellStatus: CELL_FORBIDDEN numArfcn: 13 arfcn: 12 17 18 19 20 21 22 23 24 25 47 48 49 numChannels: 15 array: 1 2 3 8 9 10 14 512 513 514 515 518 605 606 608 pbcch: 0 nom: 2 rac: 1 spgc: 0 pat: 6 nco: 0 t3168: 1000 t3192: 500 drxmax: 2 ctrlAck: 0 bsCVmax: 9 alpha: 5 pcMeasCh: 1 
arfcn: 1005 rxLev: -63
$GPRMC,230515.000,A,4806.8658,N,00139.4072,W,1.71,16.06,050218,,,A*47
arfcn: 982 rxLev: -64
arfcn: 980 rxLev: -67
arfcn: 986 rxLev: -67
arfcn: 989 rxLev: -69
arfcn: 984 rxLev: -69
arfcn: 1009 rxLev: -70
$GPGGA,230516.000,4806.8667,N,00139.4082,W,1,04,2.8,60.8,M,48.3,M,,0000*72
$GPGSA,M,3,26,21,27,20,,,,,,,,,5.4,2.8,4.7*36
$GPRMC,230516.000,A,4806.8667,N,00139.4082,W,2.00,6.66,050218,,,A*75
$GPGGA,230517.000,4806.8673,N,00139.4093,W,1,05,2.2,60.7,M,48.3,M,,0000*72
$GPGSA,M,3,16,26,21,27,20,,,,,,,,3.2,2.2,2.4*3E
$GPRMC,230517.000,A,4806.8673,N,00139.4093,W,1.82,0.35,050218,,,A*78
arfcn: 80 bsic: 47 rxLev: -73 ber: 0.00 mcc: 208 mnc: 10 lac: 49415 cellId: 23568 cellStatus: CELL_FORBIDDEN numArfcn: 2 arfcn: 80 89 numChannels: 19 array: 76 77 78 80 82 83 84 85 113 114 115 116 117 118 119 120 122 123 124 pbcch: 0 nom: 2 rac: 31 spgc: 0 pat: 6 nco: 0 t3168: 1000 t3192: 500 drxmax: 4 ctrlAck: 1 bsCVmax: 9 alpha: 10 pcMeasCh: 0 
$GPGGA,230518.000,4806.8680,N,00139.4105,W,1,05,2.2,60.3,M,48.3,M,,0000*7B
$GPGSA,M,3,16,26,21,27,20,,,,,,,,3.2,2.2,2.4*3E
$GPGSV,3,1,12,16,76,284,13,26,65,163,20,21,57,065,16,27,48,282,10*76
$GPGSV,3,2,12,20,25,056,19,31,04,190,10,33,33,198,,18,33,118,*7B
$GPGSV,3,3,12,10,16,151,,08,11,273,,07,06,331,,29,05,083,*72
$GPRMC,230518.000,A,4806.8680,N,00139.4105,W,1.89,354.61,050218,,,A*7D
$GPGGA,230519.000,4806.8686,N,00139.4122,W,1,05,2.2,60.7,M,48.3,M,,0000*7D
$GPGSA,M,3,16,26,21,27,20,,,,,,,,3.2,2.2,2.4*3E
$GPRMC,230519.000,A,4806.8686,N,00139.4122,W,2.50,341.95,050218,,,A*77
$GPGGA,230520.000,4806.8689,N,00139.4131,W,1,05,2.2,61.7,M,48.3,M,,0000*7B
$GPGSA,M,3,16,26,21,27,20,,,,,,,,3.2,2.2,2.4*3E
$GPRMC,230520.000,A,4806.8689,N,00139.4131,W,2.42,330.78,050218,,,A*76
$GPGGA,230521.000,4806.8696,N,00139.4144,W,1,05,2.2,62.8,M,48.3,M,,0000*7A
arfcn: 983 bsic: 21 rxLev: -74 ber: 0.00 mcc: 208 mnc: 20 lac: 418 cellId: 21809 cellStatus: CELL_SUITABLE numArfcn: 1 arfcn: 983 numChannels: 24 array: 788 790 792 793 795 796 878 882 884 976 977 979 981 985 986 987 1012 1013 1014 1016 1017 1019 1020 1022 pbcch: 0 nom: 2 rac: 6 spgc: 0 pat: 6 nco: 0 t3168: 1500 t3192: 500 drxmax: 0 ctrlAck: 0 bsCVmax: 8 alpha: 6 pcMeasCh: 1 
$GPGSA,M,3,16,26,21,27,20,,,,,,,,3.2,2.2,2.4*3E
$GPRMC,230521.000,A,4806.8696,N,00139.4144,W,2.70,320.83,050218,,,A*7F
$GPGGA,230522.000,4806.8698,N,00139.4152,W,1,05,2.2,62.9,M,48.3,M,,0000*71
$GPGSA,M,3,16,26,21,27,20,,,,,,,,3.2,2.2,2.4*3E
$GPRMC,230522.000,A,4806.8698,N,00139.4152,W,2.27,316.13,050218,,,A*7B
arfcn: 605 bsic: 33 rxLev: -76 ber: 0.00 mcc: 208 mnc: 01 lac: 10300 cellId: 27588 cellStatus: CELL_FORBIDDEN numArfcn: 22 arfcn: 525 526 527 528 529 530 531 532 533 534 535 587 588 589 590 591 592 593 594 595 596 597 numChannels: 18 array: 1 3 5 8 12 15 512 513 514 515 516 517 518 604 605 606 607 609 pbcch: 0 nom: 2 rac: 1 spgc: 0 pat: 6 nco: 0 t3168: 1000 t3192: 500 drxmax: 2 ctrlAck: 0 bsCVmax: 9 alpha: 5 pcMeasCh: 1 
arfcn: 8 rxLev: -77
arfcn: 29 rxLev: -77
arfcn: 42 rxLev: -77
$GPGGA,230523.000,4806.8703,N,00139.4160,W,1,05,2.2,63.2,M,48.3,M,,0000*78
arfcn: 43 rxLev: -78
$GPGSA,M,3,16,26,21,27,20,,,,,,,,3.2,2.2,2.4*3E
arfcn: 41 rxLev: -78
arfcn: 44 rxLev: -78
$GPGSV,3,1,12,16,76,284,13,26,65,163,20,21,57,065,16,27,48,282,11*77
$GPGSV,3,2,12,20,25,056,19,31,04,190,04,33,33,198,,18,33,118,*7E
arfcn: 30 rxLev: -78
$GPGSV,3,3,12,10,16,151,,08,11,273,,07,06,331,,29,05,083,*72
$GPRMC,230523.000,A,4806.8703,N,00139.4160,W,2.07,314.16,050218,,,A*7D
$GPGGA,230524.000,4806.8712,N,00139.4168,W,1,05,2.2,63.7,M,48.3,M,,0000*72
$GPGSA,M,3,16,26,21,27,20,,,,,,,,3.2,2.2,2.4*3E
$GPRMC,230524.000,A,4806.8712,N,00139.4168,W,2.03,315.12,050218,,,A*73
arfcn: 85 bsic: 0 rxLev: -78 ber: 0.00 mcc: 208 mnc: 10 lac: 49415 cellId: 44814 cellStatus: CELL_FORBIDDEN numArfcn: 2 arfcn: 85 119 numChannels: 20 array: 76 77 78 79 80 82 83 85 86 114 115 116 117 118 119 120 121 122 123 124 pbcch: 0 nom: 2 rac: 31 spgc: 0 pat: 6 nco: 0 t3168: 1000 t3192: 500 drxmax: 4 ctrlAck: 1 bsCVmax: 9 alpha: 10 pcMeasCh: 0 
arfcn: 796 rxLev: -78
$GPGGA,230525.000,4806.8722,N,00139.4175,W,1,05,2.2,64.7,M,48.3,M,,0000*7B
arfcn: 31 rxLev: -79
arfcn: 13 rxLev: -79
$GPGSA,M,3,16,26,21,27,20,,,,,,,,3.2,2.2,2.4*3E
arfcn: 45 rxLev: -79
$GPRMC,230525.000,A,4806.8722,N,00139.4175,W,2.06,318.78,050218,,,A*79
arfcn: 40 rxLev: -79
$GPGGA,230526.000,4806.8728,N,00139.4179,W,1,05,2.2,65.2,M,48.3,M,,0000*7A
$GPGSA,M,3,16,26,21,27,20,,,,,,,,3.2,2.2,2.4*3E
$GPRMC,230526.000,A,4806.8728,N,00139.4179,W,1.54,322.17,050218,,,A*78
$GPGGA,230527.000,4806.8732,N,00139.4178,W,1,04,3.5,67.0,M,48.3,M,,0000*76
$GPGSA,M,3,16,26,21,20,,,,,,,,,6.2,3.5,5.1*3A
$GPRMC,230527.000,A,4806.8732,N,00139.4178,W,1.37,323.64,050218,,,A*73
$GPGGA,230528.000,4806.8724,N,00139.4179,W,1,04,3.5,64.4,M,48.3,M,,0000*78
$GPGSA,M,3,16,26,21,20,,,,,,,,,6.2,3.5,5.1*3A
$GPGSV,3,1,12,16,76,284,13,26,65,163,20,21,57,065,16,20,25,056,18*79
$GPGSV,3,2,12,27,48,282,07,31,04,190,07,33,33,198,,18,33,118,*75
arfcn: 515 bsic: 34 rxLev: -79 ber: 0.00 mcc: 208 mnc: 01 lac: 10300 cellId: 27586 cellStatus: CELL_FORBIDDEN numArfcn: 16 arfcn: 519 520 521 522 523 524 525 526 596 597 598 599 600 601 602 603 numChannels: 9 array: 1 8 12 512 513 516 605 606 607 pbcch: 0 nom: 2 rac: 1 spgc: 0 pat: 6 nco: 0 t3168: 1000 t3192: 500 drxmax: 2 ctrlAck: 0 bsCVmax: 9 alpha: 5 pcMeasCh: 1 
arfcn: 32 rxLev: -79
arfcn: 39 rxLev: -79
$GPGSV,3,3,12,10,16,151,,08,11,273,,07,06,331,,29,05,083,*72
arfcn: 28 rxLev: -79
$GPRMC,230528.000,A,4806.8724,N,00139.4179,W,0.79,323.64,050218,,,A*71
$GPGGA,230529.000,4806.8722,N,00139.4179,W,1,04,3.5,64.3,M,48.3,M,,0000*78
$GPGSA,M,3,16,26,21,20,,,,,,,,,6.2,3.5,5.1*3A
$GPRMC,230529.000,A,4806.8722,N,00139.4179,W,0.55,323.64,050218,,,A*78
$GPGGA,230530.000,4806.8722,N,00139.4179,W,1,04,3.5,64.4,M,48.3,M,,0000*77
$GPGSA,M,3,16,26,21,20,,,,,,,,,6.2,3.5,5.1*3A
$GPRMC,230530.000,A,4806.8722,N,00139.4179,W,0.35,323.64,050218,,,A*76
arfcn: 10 bsic: 45 rxLev: -80 ber: 4.03 mcc: FFF mnc: FF lac: 65535 cellId: 0 cellStatus: CELL_OTHER numArfcn: 0 arfcn: numChannels: 0 array:
arfcn: 38 rxLev: -80
$GPGGA,230531.000,4806.8723,N,00139.4176,W,1,04,3.5,64.6,M,48.3,M,,0000*7A
$GPGSA,M,3,16,26,21,20,,,,,,,,,6.2,3.5,5.1*3A
$GPRMC,230531.000,A,4806.8723,N,00139.4176,W,0.32,323.64,050218,,,A*7E
$GPGGA,230532.000,4806.8724,N,00139.4178,W,1,04,3.5,64.9,M,48.3,M,,0000*7F
$GPGSA,M,3,16,26,21,20,,,,,,,,,6.2,3.5,5.1*3A
$GPRMC,230532.000,A,4806.8724,N,00139.4178,W,0.57,323.64,050218,,,A*77
$GPGGA,230533.000,4806.8726,N,00139.4179,W,1,04,3.5,65.2,M,48.3,M,,0000*77
$GPGSA,M,3,16,26,21,20,,,,,,,,,6.2,3.5,5.1*3A
$GPGSV,3,1,12,16,76,284,13,26,65,163,20,21,57,065,16,20,25,056,18*79
$GPGSV,3,2,12,27,48,282,05,31,04,190,09,37,27,150,,18,33,118,*7C
$GPGSV,3,3,12,10,16,151,,08,11,273,,07,06,331,,29,05,083,*72
$GPRMC,230533.000,A,4806.8726,N,00139.4179,W,0.67,323.64,050218,,,A*76
arfcn: 3 bsic: 0 rxLev: -80 ber: 0.00 mcc: 208 mnc: 01 lac: 10300 cellId: 2686 cellStatus: CELL_FORBIDDEN numArfcn: 13 arfcn: 3 17 18 19 20 21 22 23 24 25 47 48 49 numChannels: 13 array: 1 5 6 7 10 12 14 512 515 517 604 606 608 pbcch: 0 nom: 2 rac: 1 spgc: 0 pat: 6 nco: 0 t3168: 1000 t3192: 500 drxmax: 2 ctrlAck: 0 bsCVmax: 9 alpha: 5 pcMeasCh: 1 
arfcn: 27 rxLev: -80
$GPGGA,230534.000,4806.8726,N,00139.4183,W,1,04,3.5,65.3,M,48.3,M,,0000*74
arfcn: 794 rxLev: -80
$GPGSA,M,3,16,26,21,20,,,,,,,,,6.2,3.5,5.1*3A
arfcn: 11 rxLev: -81
$GPRMC,230534.000,A,4806.8726,N,00139.4183,W,0.70,323.64,050218,,,A*72
arfcn: 33 rxLev: -81
arfcn: 34 rxLev: -81
arfcn: 37 rxLev: -81
$GPGGA,230535.000,4806.8728,N,00139.4191,W,1,04,3.5,65.4,M,48.3,M,,0000*7F
$GPGSA,M,3,16,26,21,20,,,,,,,,,6.2,3.5,5.1*3A
$GPRMC,230535.000,A,4806.8728,N,00139.4191,W,1.14,323.64,050218,,,A*7D
$GPGGA,230536.000,4806.8734,N,00139.4202,W,1,04,3.5,65.7,M,48.3,M,,0000*7B
$GPGSA,M,3,16,26,21,20,,,,,,,,,6.2,3.5,5.1*3A
$GPRMC,230536.000,A,4806.8734,N,00139.4202,W,1.56,319.70,050218,,,A*70
arfcn: 5 bsic: 1 rxLev: -81 ber: 0.00 mcc: 208 mnc: 01 lac: 10300 cellId: 40079 cellStatus: CELL_FORBIDDEN numArfcn: 13 arfcn: 5 17 18 19 20 21 22 23 24 25 47 48 49 numChannels: 20 array: 1 2 3 4 5 8 9 10 11 13 14 15 16 512 513 518 604 606 608 610 pbcch: 0 nom: 2 rac: 1 spgc: 0 pat: 6 nco: 0 t3168: 1000 t3192: 500 drxmax: 2 ctrlAck: 0 bsCVmax: 9 alpha: 5 pcMeasCh: 1 
$GPGGA,230537.000,4806.8741,N,00139.4216,W,1,05,2.2,65.7,M,48.3,M,,0000*7A
$GPGSA,M,3,16,26,21,27,20,,,,,,,,3.2,2.2,2.4*3E
$GPRMC,230537.000,A,4806.8741,N,00139.4216,W,2.04,314.19,050218,,,A*70
$GPGGA,230538.000,4806.8735,N,00139.4201,W,1,05,2.2,65.9,M,48.3,M,,0000*7E
$GPGSA,M,3,16,26,21,27,20,,,,,,,,3.2,2.2,2.4*3E
$GPGSV,3,1,12,16,76,284,12,26,65,163,20,21,57,065,16,27,48,282,11*76
$GPGSV,3,2,12,20,25,056,18,31,04,190,09,37,27,150,,18,33,118,*77
$GPGSV,3,3,12,10,16,151,,08,11,273,,07,06,331,,29,05,083,*72
$GPRMC,230538.000,A,4806.8735,N,00139.4201,W,0.79,314.19,050218,,,A*72
arfcn: 1020 bsic: 39 rxLev: -81 ber: 0.00 mcc: 208 mnc: 20 lac: 418 cellId: 38980 cellStatus: CELL_SUITABLE numArfcn: 1 arfcn: 1020 numChannels: 26 array: 787 788 790 791 793 795 796 879 884 885 978 979 981 982 983 985 986 987 1011 1012 1013 1014 1015 1017 1019 1022 pbcch: 0 nom: 2 rac: 6 spgc: 0 pat: 6 nco: 0 t3168: 1500 t3192: 500 drxmax: 0 ctrlAck: 0 bsCVmax: 8 alpha: 6 pcMeasCh: 1 
arfcn: 797 rxLev: -81
$GPGGA,230539.000,4806.8735,N,00139.4202,W,1,05,2.2,65.8,M,48.3,M,,0000*7D
arfcn: 835 rxLev: -81
$GPGSA,M,3,16,26,21,27,20,,,,,,,,3.2,2.2,2.4*3E
arfcn: 837 rxLev: -81
arfcn: 35 rxLev: -82
$GPRMC,230539.000,A,4806.8735,N,00139.4202,W,0.63,314.19,050218,,,A*7B
arfcn: 46 rxLev: -82
arfcn: 36 rxLev: -82
arfcn: 798 rxLev: -82
arfcn: 810 rxLev: -82
arfcn: 812 rxLev: -83
arfcn: 800 rxLev: -83
arfcn: 802 rxLev: -83
arfcn: 803 rxLev: -83
$GPGGA,230540.000,4806.8740,N,00139.4204,W,1,05,2.2,65.8,M,48.3,M,,0000*77
arfcn: 799 rxLev: -83
arfcn: 795 rxLev: -83
$GPGSA,M,3,16,26,21,27,20,,,,,,,,3.2,2.2,2.4*3E
arfcn: 811 rxLev: -83
$GPRMC,230540.000,A,4806.8740,N,00139.4204,W,0.67,314.19,050218,,,A*75
arfcn: 834 rxLev: -83
$GPGGA,230541.000,4806.8745,N,00139.4209,W,1,04,2.7,65.8,M,48.3,M,,0000*7A
$GPGSA,M,3,26,21,27,20,,,,,,,,,5.4,2.7,4.7*39
$GPRMC,230541.000,A,4806.8745,N,00139.4209,W,0.83,314.19,050218,,,A*76
$GPGGA,230542.000,4806.8748,N,00139.4217,W,1,04,2.7,65.7,M,48.3,M,,0000*74
$GPGSA,M,3,26,21,27,20,,,,,,,,,5.4,2.7,4.7*39
$GPRMC,230542.000,A,4806.8748,N,00139.4217,W,0.90,314.19,050218,,,A*75
arfcn: 1 bsic: 44 rxLev: -83 ber: 4.05 mcc: 208 mnc: 01 lac: 10300 cellId: 6468 cellStatus: CELL_FORBIDDEN numArfcn: 13 arfcn: 1 17 18 19 20 21 22 23 24 25 47 48 49 numChannels: 24 array: 2 4 5 6 7 8 9 10 11 12 15 512 513 514 515 516 517 518 605 606 607 608 609 610 pbcch: 0 nom: 2 rac: 1 spgc: 0 pat: 6 nco: 0 t3168: 1000 t3192: 500 drxmax: 2 ctrlAck: 0 bsCVmax: 9 alpha: 5 pcMeasCh: 1 
$GPGGA,230543.000,4806.8756,N,00139.4226,W,1,04,2.7,65.4,M,48.3,M,,0000*7B
$GPGSA,M,3,26,21,27,20,,,,,,,,,5.4,2.7,4.7*39
$GPGSV,3,1,12,26,65,163,20,21,57,065,16,27,48,282,11,20,25,056,17*7D
$GPGSV,3,2,12,16,76,284,06,31,04,190,09,37,27,150,,18,33,118,*76
$GPGSV,3,3,12,10,16,151,,08,11,273,,07,06,331,,29,05,083,*72
$GPRMC,230543.000,A,4806.8756,N,00139.4226,W,1.21,315.30,050218,,,A*78
$GPGGA,230544.000,4806.8763,N,00139.4237,W,1,04,2.7,65.0,M,48.3,M,,0000*7E
$GPGSA,M,3,26,21,27,20,,,,,,,,,5.4,2.7,4.7*39
$GPRMC,230544.000,A,4806.8763,N,00139.4237,W,1.19,316.49,050218,,,A*7F
$GPGGA,230545.000,4806.8765,N,00139.4239,W,0,00,,65.0,M,48.3,M,,0000*59
$GPGSA,M,1,,,,,,,,,,,,,,,*12
arfcn: 14 bsic: 35 rxLev: -83 ber: 0.00 mcc: 208 mnc: 01 lac: 10300 cellId: 39250 cellStatus: CELL_FORBIDDEN numArfcn: 13 arfcn: 14 17 18 19 20 21 22 23 24 25 47 48 49 numChannels: 14 array: 1 3 4 6 8 10 12 14 512 513 514 517 604 608 pbcch: 0 nom: 2 rac: 1 spgc: 1 pat: 6 nco: 0 t3168: 1000 t3192: 500 drxmax: 4 ctrlAck: 1 bsCVmax: 9 alpha: 7 pcMeasCh: 0 
arfcn: 808 rxLev: -84
$GPRMC,230545.000,V,4806.8765,N,00139.4239,W,,,050218,,,N*6E
arfcn: 792 rxLev: -84
arfcn: 793 rxLev: -84
arfcn: 804 rxLev: -84
arfcn: 833 rxLev: -84
arfcn: 851 rxLev: -84
arfcn: 26 rxLev: -84
arfcn: 604 rxLev: -84
$GPGGA,230546.000,4806.8768,N,00139.4241,W,0,00,,65.0,M,48.3,M,,0000*58
$GPGSA,M,1,,,,,,,,,,,,,,,*12
$GPRMC,230546.000,V,4806.8768,N,00139.4241,W,,,050218,,,N*6F
$GPGGA,230547.087,4806.8771,N,00139.4244,W,0,00,,65.1,M,48.3,M,,0000*5A
$GPGSA,M,1,,,,,,,,,,,,,,,*12
$GPRMC,230547.087,V,4806.8771,N,00139.4244,W,,,050218,,,N*6C
arfcn: 606 bsic: 57 rxLev: -85 ber: 0.09 mcc: 208 mnc: 01 lac: 10301 cellId: 27485 cellStatus: CELL_FORBIDDEN numArfcn: 16 arfcn: 519 520 521 522 523 524 525 526 596 597 598 599 600 601 602 603 numChannels: 15 array: 3 4 6 10 12 512 513 514 515 516 517 604 605 608 609 pbcch: 0 nom: 2 rac: 1 spgc: 0 pat: 6 nco: 0 t3168: 1000 t3192: 500 drxmax: 2 ctrlAck: 0 bsCVmax: 9 alpha: 5 pcMeasCh: 1 
arfcn: 63 rxLev: -85
$GPGGA,230548.087,4806.8782,N,00139.4269,W,1,04,3.5,65.1,M,48.3,M,,0000*7B
arfcn: 821 rxLev: -85
$GPGSA,M,3,16,26,21,20,,,,,,,,,6.2,3.5,5.1*3A
arfcn: 827 rxLev: -85
arfcn: 828 rxLev: -85
$GPGSV,3,1,12,16,76,284,09,26,65,163,21,21,57,065,15,20,25,056,17*7F
arfcn: 806 rxLev: -85
arfcn: 801 rxLev: -85
$GPGSV,3,2,12,10,16,151,10,31,04,190,09,37,27,150,,27,48,282,*7A
arfcn: 809 rxLev: -85
$GPGSV,3,3,12,18,33,118,,08,11,273,,07,06,331,,29,05,083,*70
arfcn: 829 rxLev: -85
arfcn: 822 rxLev: -85
$GPRMC,230548.087,A,4806.8782,N,00139.4269,W,2.23,316.56,050218,,,A*7C
arfcn: 838 rxLev: -85
arfcn: 62 rxLev: -85
$GPGGA,230549.087,4806.8775,N,00139.4263,W,1,04,3.5,65.2,M,48.3,M,,0000*7B
arfcn: 61 rxLev: -85
$GPGSA,M,3,16,26,21,20,,,,,,,,,6.2,3.5,5.1*3A
$GPRMC,230549.087,A,4806.8775,N,00139.4263,W,1.34,314.18,050218,,,A*72
$GPGGA,230550.000,4806.8766,N,00139.4254,W,1,04,3.5,65.3,M,48.3,M,,0000*7B
$GPGSA,M,3,16,26,21,20,,,,,,,,,6.2,3.5,5.1*3A
$GPRMC,230550.000,A,4806.8766,N,00139.4254,W,0.58,314.18,050218,,,A*78
$GPGGA,230551.000,4806.8762,N,00139.4246,W,1,04,3.5,65.3,M,48.3,M,,0000*7D
$GPGSA,M,3,16,26,21,20,,,,,,,,,6.2,3.5,5.1*3A
arfcn: 978 bsic: 19 rxLev: -85 ber: 0.00 mcc: 208 mnc: 20 lac: 418 cellId: 18480 cellStatus: CELL_SUITABLE numArfcn: 2 arfcn: 978 1023 numChannels: 24 array: 788 790 794 880 883 975 976 977 979 980 981 982 983 985 986 1011 1012 1014 1016 1017 1018 1019 1020 1021 pbcch: 0 nom: 2 rac: 6 spgc: 0 pat: 6 nco: 0 t3168: 1500 t3192: 500 drxmax: 4 ctrlAck: 1 bsCVmax: 8 alpha: 6 pcMeasCh: 1 
arfcn: 56 rxLev: -86
$GPRMC,230551.000,A,4806.8762,N,00139.4246,W,0.29,314.18,050218,,,A*78
arfcn: 58 rxLev: -86
$GPGGA,230552.000,4806.8762,N,00139.4240,W,1,04,3.5,65.3,M,48.3,M,,0000*78
$GPGSA,M,3,16,26,21,20,,,,,,,,,6.2,3.5,5.1*3A
$GPRMC,230552.000,A,4806.8762,N,00139.4240,W,0.57,314.18,050218,,,A*74
$GPGGA,230553.000,4806.8761,N,00139.4239,W,1,05,2.4,65.0,M,48.3,M,,0000*76
arfcn: 78 bsic: 2 rxLev: -86 ber: 0.03 mcc: 208 mnc: 10 lac: 49415 cellId: 45280 cellStatus: CELL_FORBIDDEN numArfcn: 2 arfcn: 78 116 numChannels: 20 array: 76 77 78 79 80 82 83 84 85 86 114 115 116 117 118 120 121 122 123 124 pbcch: 0 nom: 2 rac: 31 spgc: 0 pat: 6 nco: 0 t3168: 1000 t3192: 500 drxmax: 4 ctrlAck: 1 bsCVmax: 9 alpha: 10 pcMeasCh: 0 
$GPGSA,M,3,16,26,21,20,10,,,,,,,,3.2,2.4,2.2*3A
arfcn: 839 rxLev: -86
arfcn: 836 rxLev: -86
$GPGSV,3,1,12,16,76,284,08,26,65,163,21,21,57,065,15,20,25,056,18*71
arfcn: 831 rxLev: -86
arfcn: 814 rxLev: -86
$GPGSV,3,2,12,10,16,151,15,31,04,190,09,37,27,150,,27,48,282,*7F
arfcn: 815 rxLev: -86
$GPGSV,3,3,12,18,33,118,,08,11,273,,07,06,331,,29,05,083,*70
arfcn: 805 rxLev: -86
arfcn: 64 rxLev: -86
$GPRMC,230553.000,A,4806.8761,N,00139.4239,W,0.51,314.18,050218,,,A*7E
arfcn: 67 rxLev: -86
arfcn: 68 rxLev: -86
$GPGGA,230554.000,4806.8756,N,00139.4239,W,1,05,2.4,64.8,M,48.3,M,,0000*7C
$GPGSA,M,3,16,26,21,20,10,,,,,,,,3.2,2.4,2.2*3A
$GPRMC,230554.000,A,4806.8756,N,00139.4239,W,0.67,314.18,050218,,,A*78
$GPGGA,230555.000,4806.8764,N,00139.4247,W,1,04,5.3,64.9,M,48.3,M,,0000*75
$GPGSA,M,3,26,21,20,10,,,,,,,,,6.0,5.3,2.9*31
$GPRMC,230555.000,A,4806.8764,N,00139.4247,W,0.40,314.18,050218,,,A*74
$GPGGA,230556.000,4806.8765,N,00139.4246,W,1,04,5.3,64.7,M,48.3,M,,0000*78
$GPGSA,M,3,26,21,20,10,,,,,,,,,6.0,5.3,2.9*31
$GPRMC,230556.000,A,4806.8765,N,00139.4246,W,0.63,314.18,050218,,,A*76
$GPGGA,230557.000,4806.8766,N,00139.4244,W,1,04,5.3,64.4,M,48.3,M,,0000*7B
$GPGSA,M,3,26,21,20,10,,,,,,,,,6.0,5.3,2.9*31
$GPRMC,230557.000,A,4806.8766,N,00139.4244,W,0.86,314.18,050218,,,A*7D
$GPGGA,230558.000,4806.8772,N,00139.4258,W,1,04,5.3,64.6,M,48.3,M,,0000*7E
$GPGSA,M,3,26,21,20,10,,,,,,,,,6.0,5.3,2.9*31
$GPGSV,3,1,12,26,65,163,20,21,57,065,14,20,25,056,18,10,16,151,15*76
$GPGSV,3,2,12,16,76,284,05,31,04,190,09,37,27,150,,27,48,282,*75
$GPGSV,3,3,12,18,33,118,,08,11,273,,07,06,331,,29,05,083,*70
$GPRMC,230558.000,A,4806.8772,N,00139.4258,W,1.13,314.18,050218,,,A*77
$GPGGA,230559.000,4806.8775,N,00139.4268,W,1,04,5.3,64.6,M,48.3,M,,0000*7B
$GPGSA,M,3,26,21,20,10,,,,,,,,,6.0,5.3,2.9*31
$GPRMC,230559.000,A,4806.8775,N,00139.4268,W,1.41,312.96,050218,,,A*75
arfcn: 124 bsic: 2 rxLev: -86 ber: 13.05 mcc: 208 mnc: 10 lac: 49415 cellId: 43517 cellStatus: CELL_FORBIDDEN numArfcn: 2 arfcn: 112 124 numChannels: 0 array:
arfcn: 57 rxLev: -86
arfcn: 55 rxLev: -86
arfcn: 60 rxLev: -87
$GPGGA,230600.000,4806.8781,N,00139.4287,W,1,04,5.3,64.6,M,48.3,M,,0000*7E
$GPGSA,M,3,26,21,20,10,,,,,,,,,6.0,5.3,2.9*31
$GPRMC,230600.000,A,4806.8781,N,00139.4287,W,2.11,305.35,050218,,,A*79
$GPGGA,230601.000,4806.8782,N,00139.4291,W,1,04,5.3,64.7,M,48.3,M,,0000*7A
$GPGSA,M,3,26,21,20,10,,,,,,,,,6.0,5.3,2.9*31
$GPRMC,230601.000,A,4806.8782,N,00139.4291,W,2.13,304.04,050218,,,A*7D
$GPGGA,230602.000,4806.8783,N,00139.4290,W,1,04,5.3,64.7,M,48.3,M,,0000*79
$GPGSA,M,3,26,21,20,10,,,,,,,,,6.0,5.3,2.9*31
$GPRMC,230602.000,A,4806.8783,N,00139.4290,W,1.84,305.06,050218,,,A*70
$GPGGA,230603.000,4806.8784,N,00139.4292,W,1,04,5.3,64.7,M,48.3,M,,0000*7D
$GPGSA,M,3,26,21,20,10,,,,,,,,,6.0,5.3,2.9*31
$GPGSV,3,1,12,26,65,163,20,21,57,065,15,20,25,056,19,10,16,151,15*76
$GPGSV,3,2,12,16,76,284,05,31,04,190,09,39,31,144,,27,48,282,*79
$GPGSV,3,3,12,18,33,118,,08,11,273,,07,06,331,,29,05,083,*70
$GPRMC,230603.000,A,4806.8784,N,00139.4292,W,1.71,306.19,050218,,,A*73
$GPGGA,230604.000,4806.8785,N,00139.4301,W,1,04,5.3,64.9,M,48.3,M,,0000*7E
$GPGSA,M,3,26,21,20,10,,,,,,,,,6.0,5.3,2.9*31
$GPRMC,230604.000,A,4806.8785,N,00139.4301,W,1.71,306.01,050218,,,A*77
$GPGGA,230605.000,4806.8784,N,00139.4308,W,1,04,5.3,64.5,M,48.3,M,,0000*7B
$GPGSA,M,3,26,21,20,10,,,,,,,,,6.0,5.3,2.9*31
$GPRMC,230605.000,A,4806.8784,N,00139.4308,W,1.37,303.85,050218,,,A*75
$GPGGA,230606.000,4806.8783,N,00139.4309,W,1,04,5.3,64.6,M,48.3,M,,0000*7D
$GPGSA,M,3,26,21,20,10,,,,,,,,,6.0,5.3,2.9*31
$GPRMC,230606.000,A,4806.8783,N,00139.4309,W,1.15,303.85,050218,,,A*70
arfcn: 4 bsic: 54 rxLev: -87 ber: 10.01 mcc: 208 mnc: 01 lac: 10300 cellId: 43768 cellStatus: CELL_FORBIDDEN numArfcn: 13 arfcn: 4 17 18 19 20 21 22 23 24 25 47 48 49 numChannels: 20 array: 1 3 5 6 7 8 12 13 14 513 514 515 517 518 601 605 606 608 609 610 pbcch: 0 nom: 2 rac: 1 spgc: 0 pat: 6 nco: 0 t3168: 1000 t3192: 500 drxmax: 2 ctrlAck: 0 bsCVmax: 9 alpha: 5 pcMeasCh: 1 
$GPGGA,230607.000,4806.8783,N,00139.4307,W,1,04,5.3,64.3,M,48.3,M,,0000*77
$GPGSA,M,3,26,21,20,10,,,,,,,,,6.0,5.3,2.9*31
$GPRMC,230607.000,A,4806.8783,N,00139.4307,W,0.68,303.85,050218,,,A*74
$GPGGA,230608.000,4806.8786,N,00139.4312,W,1,04,5.3,64.5,M,48.3,M,,0000*7F
$GPGSA,M,3,26,21,20,10,,,,,,,,,6.0,5.3,2.9*31
$GPGSV,3,1,12,26,65,163,20,21,57,065,16,20,25,056,19,10,16,151,16*76
arfcn: 117 bsic: 12 rxLev: -87 ber: 0.00 mcc: 208 mnc: 10 lac: 49415 cellId: 3568 cellStatus: CELL_FORBIDDEN numArfcn: 2 arfcn: 82 117 numChannels: 17 array: 76 77 78 79 80 83 84 85 87 113 114 116 117 120 122 123 124 pbcch: 0 nom: 2 rac: 31 spgc: 0 pat: 6 nco: 0 t3168: 1000 t3192: 500 drxmax: 4 ctrlAck: 1 bsCVmax: 9 alpha: 10 pcMeasCh: 0 
arfcn: 69 rxLev: -87
$GPGSV,3,2,12,16,76,284,04,31,04,190,08,39,31,144,,27,48,282,*79
$GPGSV,3,3,12,18,33,118,,08,11,273,,07,06,331,,29,05,083,*70
$GPRMC,230608.000,A,4806.8786,N,00139.4312,W,0.80,303.85,050218,,,A*7C
$GPGGA,230609.000,4806.8792,N,00139.4315,W,1,04,5.3,64.4,M,48.3,M,,0000*7D
$GPGSA,M,3,26,21,20,10,,,,,,,,,6.0,5.3,2.9*31
$GPRMC,230609.000,A,4806.8792,N,00139.4315,W,1.25,305.37,050218,,,A*7E
$GPGGA,230610.000,4806.8800,N,00139.4325,W,1,04,5.3,64.5,M,48.3,M,,0000*73
$GPGSA,M,3,26,21,20,10,,,,,,,,,6.0,5.3,2.9*31
arfcn: 76 bsic: 5 rxLev: -87 ber: 0.01 mcc: 208 mnc: 10 lac: 49415 cellId: 44813 cellStatus: CELL_FORBIDDEN numArfcn: 2 arfcn: 76 121 numChannels: 16 array: 76 77 78 79 80 82 84 85 86 113 114 117 118 121 123 124 pbcch: 0 nom: 2 rac: 31 spgc: 0 pat: 6 nco: 0 t3168: 1000 t3192: 500 drxmax: 4 ctrlAck: 1 bsCVmax: 9 alpha: 10 pcMeasCh: 0 
arfcn: 813 rxLev: -87
arfcn: 825 rxLev: -87
$GPRMC,230610.000,A,4806.8800,N,00139.4325,W,1.84,308.01,050218,,,A*72
arfcn: 832 rxLev: -87
arfcn: 841 rxLev: -87
arfcn: 854 rxLev: -87
arfcn: 852 rxLev: -87
arfcn: 853 rxLev: -87
arfcn: 823 rxLev: -87
arfcn: 816 rxLev: -87
arfcn: 807 rxLev: -87
$GPGGA,230611.000,4806.8804,N,00139.4327,W,1,05,2.4,63.5,M,48.3,M,,0000*72
arfcn: 791 rxLev: -87
arfcn: 59 rxLev: -87
$GPGSA,M,3,16,26,21,20,10,,,,,,,,3.2,2.4,2.2*3A
$GPRMC,230611.000,A,4806.8804,N,00139.4327,W,1.89,312.49,050218,,,A*7F
$GPGGA,230612.000,4806.8806,N,00139.4319,W,1,05,2.4,63.4,M,48.3,M,,0000*7F
$GPGSA,M,3,16,26,21,20,10,,,,,,,,3.2,2.4,2.2*3A
$GPRMC,230612.000,A,4806.8806,N,00139.4319,W,1.77,317.29,050218,,,A*71
$GPGGA,230613.000,4806.8808,N,00139.4320,W,1,05,2.4,62.8,M,48.3,M,,0000*77
$GPGSA,M,3,16,26,21,20,10,,,,,,,,3.2,2.4,2.2*3A
$GPGSV,3,1,12,16,76,284,12,26,65,163,20,21,57,065,17,20,25,056,20*72
$GPGSV,3,2,12,10,16,151,15,31,04,190,09,39,31,144,,27,48,282,*73
$GPGSV,3,3,12,18,33,118,,08,11,273,,07,06,331,,29,05,083,*70
$GPRMC,230613.000,A,4806.8808,N,00139.4320,W,1.69,320.26,050218,,,A*70
arfcn: 1017 bsic: 33 rxLev: -87 ber: 1.07 mcc: 208 mnc: 20 lac: 418 cellId: 20104 cellStatus: CELL_SUITABLE numArfcn: 3 arfcn: 986 987 1017 numChannels: 20 array: 788 790 885 975 976 978 979 980 981 982 986 987 1011 1012 1015 1017 1019 1020 1021 1022 pbcch: 0 nom: 2 rac: 7 spgc: 0 pat: 6 nco: 0 t3168: 1500 t3192: 500 drxmax: 4 ctrlAck: 1 bsCVmax: 8 alpha: 6 pcMeasCh: 1 
arfcn: 817 rxLev: -88
arfcn: 818 rxLev: -88
arfcn: 820 rxLev: -88
$GPGGA,230614.000,4806.8811,N,00139.4331,W,1,05,2.4,61.7,M,48.3,M,,0000*74
arfcn: 842 rxLev: -88
$GPGSA,M,3,16,26,21,20,10,,,,,,,,3.2,2.4,2.2*3A
arfcn: 855 rxLev: -88
$GPRMC,230614.000,A,4806.8811,N,00139.4331,W,1.71,318.13,050218,,,A*7B
arfcn: 840 rxLev: -88
arfcn: 845 rxLev: -88
arfcn: 819 rxLev: -88
arfcn: 824 rxLev: -88
$GPGGA,230615.000,4806.8810,N,00139.4332,W,1,05,2.4,61.8,M,48.3,M,,0000*78
$GPGSA,M,3,16,26,21,20,10,,,,,,,,3.2,2.4,2.2*3A
$GPRMC,230615.000,A,4806.8810,N,00139.4332,W,1.71,314.98,050218,,,A*77
$GPGGA,230616.000,4806.8815,N,00139.4341,W,1,05,2.4,61.2,M,48.3,M,,0000*70
$GPGSA,M,3,16,26,21,20,10,,,,,,,,3.2,2.4,2.2*3A
$GPRMC,230616.000,A,4806.8815,N,00139.4341,W,2.19,312.81,050218,,,A*76
$GPGGA,230617.000,4806.8817,N,00139.4343,W,1,05,2.4,60.9,M,48.3,M,,0000*7B
$GPGSA,M,3,16,26,21,20,10,,,,,,,,3.2,2.4,2.2*3A
$GPRMC,230617.000,A,4806.8817,N,00139.4343,W,2.31,312.83,050218,,,A*7F
$GPGGA,230618.000,4806.8818,N,00139.4346,W,1,05,2.4,61.3,M,48.3,M,,0000*75
$GPGSA,M,3,16,26,21,20,10,,,,,,,,3.3,2.4,2.2*3B
$GPGSV,3,1,12,16,76,284,13,26,65,163,21,21,57,065,18,20,25,056,20*7D
$GPGSV,3,2,12,10,16,151,15,31,04,190,09,39,31,144,,27,48,282,*73
$GPGSV,3,3,12,18,33,118,,08,11,273,,07,06,331,,29,05,083,*70
$GPRMC,230618.000,A,4806.8818,N,00139.4346,W,2.31,311.65,050218,,,A*71
$GPGGA,230619.000,4806.8824,N,00139.4365,W,1,05,2.4,60.2,M,48.3,M,,0000*7A
$GPGSA,M,3,16,26,21,20,10,,,,,,,,3.3,2.4,2.2*3B
$GPRMC,230619.000,A,4806.8824,N,00139.4365,W,2.90,308.91,050218,,,A*76
$GPGGA,230620.000,4806.8828,N,00139.4366,W,1,05,2.4,59.9,M,48.3,M,,0000*7E
$GPGSA,M,3,16,26,21,20,10,,,,,,,,3.3,2.4,2.2*3B
arfcn: 1016 bsic: 41 rxLev: -88 ber: 0.00 mcc: 208 mnc: 20 lac: 418 cellId: 23623 cellStatus: CELL_SUITABLE numArfcn: 1 arfcn: 1016 numChannels: 28 array: 787 788 791 792 793 794 795 879 880 883 884 975 977 978 979 981 982 983 986 987 1011 1012 1017 1018 1019 1020 1021 1022 pbcch: 0 nom: 2 rac: 6 spgc: 0 pat: 6 nco: 0 t3168: 1500 t3192: 500 drxmax: 4 ctrlAck: 1 bsCVmax: 8 alpha: 6 pcMeasCh: 1 
arfcn: 47 rxLev: -89
$GPRMC,230620.000,A,4806.8828,N,00139.4366,W,2.82,310.18,050218,,,A*78
arfcn: 70 rxLev: -89
arfcn: 66 rxLev: -89
$GPGGA,230621.000,4806.8829,N,00139.4368,W,1,05,2.4,59.9,M,48.3,M,,0000*70
$GPGSA,M,3,16,26,21,20,10,,,,,,,,3.3,2.4,2.2*3B
$GPRMC,230621.000,A,4806.8829,N,00139.4368,W,2.75,310.46,050218,,,A*75
$GPGGA,230622.000,4806.8828,N,00139.4367,W,1,05,2.4,60.1,M,48.3,M,,0000*7F
$GPGSA,M,3,16,26,21,20,10,,,,,,,,3.3,2.4,2.2*3B
$GPRMC,230622.000,A,4806.8828,N,00139.4367,W,2.74,310.30,050218,,,A*78
arfcn: 114 bsic: 6 rxLev: -89 ber: 0.00 mcc: 208 mnc: 10 lac: 49415 cellId: 44202 cellStatus: CELL_FORBIDDEN numArfcn: 2 arfcn: 80 114 numChannels: 20 array: 76 77 78 79 80 84 85 86 113 114 115 116 117 118 119 120 121 122 123 124 pbcch: 0 nom: 2 rac: 31 spgc: 0 pat: 6 nco: 0 t3168: 1000 t3192: 500 drxmax: 4 ctrlAck: 1 bsCVmax: 9 alpha: 10 pcMeasCh: 0 
arfcn: 826 rxLev: -89
arfcn: 830 rxLev: -89
arfcn: 843 rxLev: -89
arfcn: 857 rxLev: -89
arfcn: 868 rxLev: -89
arfcn: 865 rxLev: -89
$GPGGA,230623.000,4806.8822,N,00139.4355,W,1,05,2.4,60.4,M,48.3,M,,0000*70
arfcn: 867 rxLev: -89
$GPGSA,M,3,16,26,21,20,10,,,,,,,,3.3,2.4,2.2*3B
arfcn: 873 rxLev: -89
arfcn: 863 rxLev: -89
$GPGSV,3,1,12,16,76,284,15,26,65,163,20,21,57,065,19,20,25,056,21*7A
arfcn: 849 rxLev: -89
$GPGSV,3,2,12,10,16,151,16,31,04,190,05,39,31,144,,27,48,282,*7C
$GPGSV,3,3,12,18,33,118,,08,11,273,,07,06,331,,29,05,083,*70
$GPRMC,230623.000,A,4806.8822,N,00139.4355,W,1.94,311.09,050218,,,A*74
$GPGGA,230624.000,4806.8818,N,00139.4355,W,1,05,2.4,60.7,M,48.3,M,,0000*7D
$GPGSA,M,3,16,26,21,20,10,,,,,,,,3.3,2.4,2.2*3B
$GPRMC,230624.000,A,4806.8818,N,00139.4355,W,1.68,310.27,050218,,,A*74
$GPGGA,230625.000,4806.8811,N,00139.4339,W,1,05,2.4,61.1,M,48.3,M,,0000*78
$GPGSA,M,3,16,26,21,20,10,,,,,,,,3.3,2.4,2.2*3B
$GPRMC,230625.000,A,4806.8811,N,00139.4339,W,0.80,310.27,050218,,,A*71
arfcn: 122 bsic: 3 rxLev: -89 ber: 0.01 mcc: 208 mnc: 10 lac: 49415 cellId: 33517 cellStatus: CELL_FORBIDDEN numArfcn: 3 arfcn: 77 88 122 numChannels: 17 array: 77 78 79 80 82 84 85 86 114 115 117 118 119 120 122 123 124 pbcch: 0 nom: 2 rac: 31 spgc: 0 pat: 6 nco: 0 t3168: 1000 t3192: 500 drxmax: 4 ctrlAck: 1 bsCVmax: 9 alpha: 10 pcMeasCh: 0 
arfcn: 107 rxLev: -89
arfcn: 81 rxLev: -89
arfcn: 54 rxLev: -89
arfcn: 53 rxLev: -89
$GPGGA,230626.000,4806.8806,N,00139.4324,W,1,05,2.4,61.5,M,48.3,M,,0000*75
$GPGSA,M,3,16,26,21,20,10,,,,,,,,3.3,2.4,2.2*3B
$GPRMC,230626.000,A,4806.8806,N,00139.4324,W,0.67,310.27,050218,,,A*71
$GPGGA,230627.000,4806.8801,N,00139.4317,W,1,05,2.4,61.9,M,48.3,M,,0000*7F
$GPGSA,M,3,16,26,21,20,10,,,,,,,,3.3,2.4,2.2*3B
$GPRMC,230627.000,A,4806.8801,N,00139.4317,W,0.57,310.27,050218,,,A*74
arfcn: 512 bsic: 25 rxLev: -89 ber: 0.08 mcc: 208 mnc: 01 lac: 10300 cellId: 40155 cellStatus: CELL_FORBIDDEN numArfcn: 16 arfcn: 519 520 521 522 523 524 525 526 596 597 598 599 600 601 602 603 numChannels: 16 array: 2 3 5 8 10 11 12 15 16 517 518 604 605 606 609 610 pbcch: 0 nom: 2 rac: 1 spgc: 0 pat: 6 nco: 0 t3168: 1000 t3192: 500 drxmax: 2 ctrlAck: 0 bsCVmax: 9 alpha: 5 pcMeasCh: 1 
$GPGGA,230628.000,4806.8799,N,00139.4310,W,1,05,2.4,62.1,M,48.3,M,,0000*72
$GPGSA,M,3,16,26,21,20,10,,,,,,,,3.3,2.4,2.2*3B
$GPGSV,3,1,12,16,76,284,15,26,65,163,19,21,57,065,19,20,25,056,22*73
$GPGSV,3,2,12,10,16,151,16,31,04,190,04,39,31,144,,27,48,282,*7D
$GPGSV,3,3,12,18,33,118,,08,11,273,,07,06,331,,29,05,083,*70
$GPRMC,230628.000,A,4806.8799,N,00139.4310,W,0.71,310.27,050218,,,A*76
$GPGGA,230629.000,4806.8796,N,00139.4303,W,1,05,2.4,62.3,M,48.3,M,,0000*7C
$GPGSA,M,3,16,26,21,20,10,,,,,,,,3.3,2.4,2.2*3B
$GPRMC,230629.000,A,4806.8796,N,00139.4303,W,0.71,310.27,050218,,,A*7A
arfcn: 2 bsic: 54 rxLev: -90 ber: 10.09 mcc: 208 mnc: 01 lac: 10300 cellId: 42646 cellStatus: CELL_FORBIDDEN numArfcn: 13 arfcn: 2 17 18 19 20 21 22 23 24 25 47 48 49 numChannels: 22 array: 1 5 6 7 8 10 12 13 15 16 512 514 515 516 517 518 604 606 607 608 609 610 pbcch: 0 nom: 2 rac: 1 spgc: 0 pat: 6 nco: 0 t3168: 1000 t3192: 500 drxmax: 2 ctrlAck: 0 bsCVmax: 9 alpha: 5 pcMeasCh: 1 
arfcn: 65 rxLev: -90
arfcn: 71 rxLev: -90
arfcn: 106 rxLev: -90
arfcn: 860 rxLev: -90
arfcn: 866 rxLev: -90
arfcn: 864 rxLev: -90
$GPGGA,230630.000,4806.8793,N,00139.4296,W,1,05,2.4,62.4,M,48.3,M,,0000*7B
arfcn: 870 rxLev: -90
$GPGSA,M,3,16,26,21,20,10,,,,,,,,3.3,2.4,2.2*3B
arfcn: 847 rxLev: -90
arfcn: 844 rxLev: -90
$GPRMC,230630.000,A,4806.8793,N,00139.4296,W,0.80,310.27,050218,,,A*74
arfcn: 869 rxLev: -90
arfcn: 874 rxLev: -90
$GPGGA,230631.000,4806.8794,N,00139.4293,W,1,05,2.4,62.3,M,48.3,M,,0000*7F
$GPGSA,M,3,16,26,21,20,10,,,,,,,,3.3,2.4,2.2*3B
$GPRMC,230631.000,A,4806.8794,N,00139.4293,W,1.00,310.27,050218,,,A*7E
$GPGGA,230632.000,4806.8789,N,00139.4286,W,1,05,2.4,62.1,M,48.3,M,,0000*76
$GPGSA,M,3,16,26,21,20,10,,,,,,,,3.3,2.4,2.2*3B
$GPRMC,230632.000,A,4806.8789,N,00139.4286,W,0.50,310.27,050218,,,A*71
arfcn: 123 bsic: 1 rxLev: -90 ber: 1.10 mcc: 208 mnc: 10 lac: 49415 cellId: 41634 cellStatus: CELL_FORBIDDEN numArfcn: 2 arfcn: 87 123 numChannels: 18 array: 76 77 78 79 80 83 84 85 86 113 114 116 117 118 119 121 123 124 pbcch: 0 nom: 2 rac: 31 spgc: 0 pat: 6 nco: 0 t3168: 1000 t3192: 500 drxmax: 4 ctrlAck: 1 bsCVmax: 9 alpha: 10 pcMeasCh: 0 
arfcn: 79 rxLev: -90
arfcn: 9 rxLev: -90
$GPGGA,230633.000,4806.8787,N,00139.4281,W,1,05,2.4,61.8,M,48.3,M,,0000*74
$GPGSA,M,3,16,26,21,20,10,,,,,,,,3.3,2.4,2.2*3B
$GPGSV,3,1,12,16,77,279,15,26,63,163,18,21,56,064,20,20,25,055,22*7E
$GPGSV,3,2,12,10,17,151,16,31,03,189,07,33,33,198,,27,49,283,*79
$GPGSV,3,3,12,18,33,117,,08,12,274,,07,07,331,,29,04,084,*7C
$GPRMC,230633.000,A,4806.8787,N,00139.4281,W,0.71,310.27,050218,,,A*7A
$GPGGA,230634.000,4806.8783,N,00139.4273,W,1,05,2.4,61.5,M,48.3,M,,0000*77
$GPGSA,M,3,16,26,21,20,10,,,,,,,,3.3,2.4,2.2*3B
$GPRMC,230634.000,A,4806.8783,N,00139.4273,W,0.70,310.27,050218,,,A*75
$GPGGA,230635.000,4806.8778,N,00139.4267,W,1,05,2.4,61.5,M,48.3,M,,0000*77
$GPGSA,M,3,16,26,21,20,10,,,,,,,,3.3,2.4,2.2*3B
arfcn: 979 bsic: 19 rxLev: -90 ber: 0.04 mcc: 208 mnc: 20 lac: 418 cellId: 20718 cellStatus: CELL_SUITABLE numArfcn: 1 arfcn: 979 numChannels: 22 array: 788 789 790 792 793 795 878 882 884 977 981 983 984 985 986 987 1012 1013 1014 1017 1019 1020 pbcch: 0 nom: 2 rac: 6 spgc: 0 pat: 6 nco: 0 t3168: 1500 t3192: 500 drxmax: 0 ctrlAck: 0 bsCVmax: 8 alpha: 6 pcMeasCh: 1 
$GPRMC,230635.000,A,4806.8778,N,00139.4267,W,0.77,310.27,050218,,,A*72
$GPGGA,230636.000,4806.8772,N,00139.4260,W,1,05,2.4,61.4,M,48.3,M,,0000*78
$GPGSA,M,3,16,26,21,20,10,,,,,,,,3.3,2.4,2.2*3B
$GPRMC,230636.000,A,4806.8772,N,00139.4260,W,0.93,310.27,050218,,,A*76
$GPGGA,230637.000,4806.8766,N,00139.4260,W,1,05,2.4,61.2,M,48.3,M,,0000*7A
$GPGSA,M,3,16,26,21,20,10,,,,,,,,3.3,2.4,2.2*3B
$GPRMC,230637.000,A,4806.8766,N,00139.4260,W,0.83,310.27,050218,,,A*73
$GPGGA,230638.000,4806.8763,N,00139.4260,W,1,05,2.4,60.9,M,48.3,M,,0000*7A
$GPGSA,M,3,16,26,21,20,10,,,,,,,,3.3,2.4,2.2*3B
$GPGSV,3,1,12,16,77,279,15,26,63,163,18,21,56,064,21,20,25,055,23*7E
$GPGSV,3,2,12,10,17,151,14,31,03,189,12,33,33,198,,27,49,283,*7F
$GPGSV,3,3,12,18,33,117,,08,12,274,,07,07,331,,29,04,084,*7C
$GPRMC,230638.000,A,4806.8763,N,00139.4260,W,0.75,310.27,050218,,,A*70
$GPGGA,230639.000,4806.8758,N,00139.4257,W,1,05,2.4,60.6,M,48.3,M,,0000*78
$GPGSA,M,3,16,26,21,20,10,,,,,,,,3.3,2.4,2.2*3B
$GPRMC,230639.000,A,4806.8758,N,00139.4257,W,1.11,310.27,050218,,,A*7E
$GPGGA,230640.000,4806.8754,N,00139.4254,W,1,05,2.4,60.3,M,48.3,M,,0000*7C
$GPGSA,M,3,16,26,21,20,10,,,,,,,,3.3,2.4,2.2*3B
$GPRMC,230640.000,A,4806.8754,N,00139.4254,W,1.23,289.36,050218,,,A*7F
$GPGGA,230641.000,4806.8748,N,00139.4248,W,1,04,3.5,60.6,M,48.3,M,,0000*79
$GPGSA,M,3,16,26,21,20,,,,,,,,,6.2,3.5,5.1*3A
$GPRMC,230641.000,A,4806.8748,N,00139.4248,W,1.49,262.54,050218,,,A*73
arfcn: 1014 bsic: 31 rxLev: -91 ber: 6.02 mcc: 208 mnc: 20 lac: 418 cellId: 20649 cellStatus: CELL_SUITABLE numArfcn: 1 arfcn: 1014 numChannels: 9 array: 788 789 790 791 793 795 796 879 884
arfcn: 52 rxLev: -91
$GPGGA,230642.000,4806.8744,N,00139.4240,W,1,04,3.5,60.8,M,48.3,M,,0000*70
arfcn: 72 rxLev: -91
$GPGSA,M,3,16,26,21,20,,,,,,,,,6.2,3.5,5.1*3A
arfcn: 105 rxLev: -91
arfcn: 101 rxLev: -91
$GPRMC,230642.000,A,4806.8744,N,00139.4240,W,1.53,236.47,050218,,,A*7C
arfcn: 103 rxLev: -91
arfcn: 872 rxLev: -91
arfcn: 871 rxLev: -91
arfcn: 861 rxLev: -91
arfcn: 856 rxLev: -91
arfcn: 859 rxLev: -91
arfcn: 848 rxLev: -91
arfcn: 850 rxLev: -91
$GPGGA,230643.000,4806.8745,N,00139.4240,W,1,04,3.5,61.3,M,48.3,M,,0000*7A
arfcn: 846 rxLev: -91
arfcn: 97 rxLev: -91
$GPGSA,M,3,16,26,21,20,,,,,,,,,6.2,3.5,5.1*3A
arfcn: 98 rxLev: -91
arfcn: 104 rxLev: -91
$GPGSV,3,1,12,16,77,279,14,26,63,163,18,21,56,064,22,20,25,055,23*7C
arfcn: 108 rxLev: -91
$GPGSV,3,2,12,10,17,151,04,31,03,189,12,33,33,198,,27,49,283,*7E
arfcn: 25 rxLev: -91
$GPGSV,3,3,12,18,33,117,,08,12,274,,07,07,331,,29,04,084,*7C
$GPRMC,230643.000,A,4806.8745,N,00139.4240,W,0.93,236.47,050218,,,A*71
$GPGGA,230644.000,4806.8742,N,00139.4229,W,1,04,3.5,61.6,M,48.3,M,,0000*70
$GPGSA,M,3,16,26,21,20,,,,,,,,,6.2,3.5,5.1*3A
$GPRMC,230644.000,A,4806.8742,N,00139.4229,W,1.40,214.07,050218,,,A*75
$GPGGA,230645.000,4806.8742,N,00139.4226,W,1,04,3.5,61.7,M,48.3,M,,0000*7F
$GPGSA,M,3,16,26,21,20,,,,,,,,,6.2,3.5,5.1*3A
$GPRMC,230645.000,A,4806.8742,N,00139.4226,W,1.16,214.07,050218,,,A*78
