$GPGSA,M,3,09,07,06,23,16,,,,,,,,3.4,2.8,1.9*35
$GPRMC,091347.000,A,4806.8629,N,00139.4365,W,1.61,111.58,060218,,,A*73
$PSRF156,23,1,0*09
Survey start at #CCLK: "18/02/06,10:13:48+04"
at#csurv
Network survey started ...
$GPGGA,091348.000,4806.8627,N,00139.4367,W,1,05,2.8,-16.7,M,48.3,M,,0000*58
$GPGSA,M,3,09,07,06,23,16,,,,,,,,3.4,2.8,1.9*35
$GPRMC,091348.000,A,4806.8627,N,00139.4367,W,1.34,116.77,060218,,,A*7A
$GPGGA,091349.000,4806.8621,N,00139.4359,W,1,05,2.8,-16.9,M,48.3,M,,0000*5C
$GPGSA,M,3,09,07,06,23,16,,,,,,,,3.4,2.8,1.9*35
$GPGSV,3,1,12,09,62,060,22,07,54,145,21,06,48,208,16,23,26,066,23*75
$GPGSV,3,2,12,16,10,047,18,05,26,297,06,30,35,173,05,36,00,000,*7C
$GPGSV,3,3,12,02,49,273,,04,34,303,,29,08,329,,26,03,020,*7E
$GPRMC,091349.000,A,4806.8621,N,00139.4359,W,1.97,125.01,060218,,,A*78
$GPGGA,091350.000,4806.8619,N,00139.4366,W,1,05,2.8,-17.1,M,48.3,M,,0000*5A
$GPGSA,M,3,09,07,06,23,16,,,,,,,,3.4,2.8,1.9*35
$GPRMC,091350.000,A,4806.8619,N,00139.4366,W,1.55,130.49,060218,,,A*71
$GPGGA,091351.000,4806.8612,N,00139.4358,W,1,06,1.5,-17.0,M,48.3,M,,0000*51
$GPGSA,M,3,09,07,06,23,05,16,,,,,,,2.9,1.5,2.4*3C
$GPRMC,091351.000,A,4806.8612,N,00139.4358,W,1.39,134.05,060218,,,A*70
$GPGGA,091352.000,4806.8611,N,00139.4355,W,1,06,1.5,-16.9,M,48.3,M,,0000*54
$GPGSA,M,3,09,07,06,23,05,16,,,,,,,2.9,1.5,2.4*3C
$GPRMC,091352.000,A,4806.8611,N,00139.4355,W,0.59,134.05,060218,,,A*7A
$GPGGA,091353.000,4806.8607,N,00139.4350,W,1,06,1.5,-16.7,M,48.3,M,,0000*59
$GPGSA,M,3,09,07,06,23,05,16,,,,,,,2.9,1.5,2.4*3C
$GPRMC,091353.000,A,4806.8607,N,00139.4350,W,0.74,134.05,060218,,,A*76
$GPGGA,091354.000,4806.8604,N,00139.4355,W,1,05,2.8,-16.9,M,48.3,M,,0000*5B
$GPGSA,M,3,09,07,06,23,16,,,,,,,,3.4,2.8,1.9*35
$GPGSV,3,1,12,09,62,060,22,07,54,145,21,06,48,208,16,23,26,066,23*75
$GPGSV,3,2,12,16,10,047,17,05,26,297,07,30,35,173,04,38,00,000,*7D
$GPGSV,3,3,12,02,49,273,,04,34,303,,29,08,329,,26,03,020,*7E
$GPRMC,091354.000,A,4806.8604,N,00139.4355,W,1.18,142.68,060218,,,A*76
$GPGGA,091355.000,4806.8597,N,00139.4353,W,1,05,2.8,-17.0,M,48.3,M,,0000*5D
$GPGSA,M,3,09,07,06,23,16,,,,,,,,3.4,2.8,1.9*35
$GPRMC,091355.000,A,4806.8597,N,00139.4353,W,1.52,151.34,060218,,,A*7D
$GPGGA,091356.000,4806.8597,N,00139.4357,W,1,05,2.8,-17.2,M,48.3,M,,0000*58
$GPGSA,M,3,09,07,06,23,16,,,,,,,,3.4,2.8,1.9*35
$GPRMC,091356.000,A,4806.8597,N,00139.4357,W,0.76,151.34,060218,,,A*7D
$GPGGA,091357.000,4806.8597,N,00139.4361,W,1,05,2.8,-17.4,M,48.3,M,,0000*5A
$GPGSA,M,3,09,07,06,23,16,,,,,,,,3.4,2.8,1.9*35
$GPRMC,091357.000,A,4806.8597,N,00139.4361,W,0.32,151.34,060218,,,A*79
arfcn: 981 bsic: 46 rxLev: -45 ber: 0.00 mcc: 208 mnc: 20 lac: 418 cellId: 21807 cellStatus: CELL_SUITABLE numArfcn: 1 arfcn: 981 numChannels: 16 array: 787 790 791 793 796 882 884 979 982 983 985 1012 1014 1017 1019 1020 pbcch: 0 nom: 2 rac: 6 spgc: 0 pat: 6 nco: 0 t3168: 1500 t3192: 500 drxmax: 0 ctrlAck: 0 bsCVmax: 8 alpha: 6 pcMeasCh: 1 
arfcn: 985 bsic: 44 rxLev: -50 ber: 50.00 mcc: 208 mnc: 20 lac: 418 cellId: 21808 cellStatus: CELL_SUITABLE numArfcn: 1 arfcn: 985 numChannels: 25 array: 975 977 978 979 980 981 982 983 1011 1012 1014 1015 1017 1019 1020 1021 1022 787 788 790 793 795 796 879 884 pbcch: 0 nom: 2 rac: 6 spgc: 0 pat: 6 nco: 0 t3168: 1500 t3192: 500 drxmax: 0 ctrlAck: 0 bsCVmax: 8 alpha: 6 pcMeasCh: 1 
arfcn: 991 rxLev: -61
arfcn: 992 rxLev: -61
arfcn: 993 rxLev: -62
$GPGGA,091358.000,4806.8590,N,00139.4353,W,1,06,2.4,-17.2,M,48.3,M,,0000*5A
arfcn: 990 rxLev: -62
$GPGSA,M,3,09,07,06,30,23,16,,,,,,,3.2,2.4,2.1*37
arfcn: 997 rxLev: -62
arfcn: 998 rxLev: -62
$GPRMC,091358.000,A,4806.8590,N,00139.4353,W,0.95,151.34,060218,,,A*7D
arfcn: 999 rxLev: -62
arfcn: 1000 rxLev: -62
arfcn: 1001 rxLev: -62
arfcn: 994 rxLev: -62
arfcn: 995 rxLev: -63
arfcn: 996 rxLev: -63
arfcn: 1002 rxLev: -63
arfcn: 1003 rxLev: -63
$GPGGA,091359.000,4806.8587,N,00139.4344,W,1,06,2.4,-17.1,M,48.3,M,,0000*58
arfcn: 1007 rxLev: -63
$GPGSA,M,3,09,07,06,30,23,16,,,,,,,3.2,2.4,2.1*37
arfcn: 982 rxLev: -63
arfcn: 980 rxLev: -64
$GPGSV,3,1,12,09,62,060,21,07,54,145,21,06,48,208,16,30,35,173,11*72
arfcn: 1004 rxLev: -64
arfcn: 1005 rxLev: -64
$GPGSV,3,2,12,23,26,066,24,16,10,047,17,05,26,297,04,38,00,000,*79
arfcn: 1006 rxLev: -64
$GPGSV,3,3,12,02,49,273,,04,34,303,,29,08,329,,26,03,020,*7E
arfcn: 1008 rxLev: -64
$GPRMC,091359.000,A,4806.8587,N,00139.4344,W,1.03,151.34,060218,,,A*72
$GPGGA,091400.000,4806.8587,N,00139.4346,W,1,06,2.4,-16.9,M,48.3,M,,0000*58
$GPGSA,M,3,09,07,06,30,23,16,,,,,,,3.2,2.4,2.1*37
$GPRMC,091400.000,A,4806.8587,N,00139.4346,W,0.68,151.34,060218,,,A*77
$GPGGA,091401.000,4806.8585,N,00139.4348,W,1,06,2.4,-16.7,M,48.3,M,,0000*5B
$GPGSA,M,3,09,07,06,30,23,16,,,,,,,3.2,2.4,2.1*37
$GPRMC,091401.000,A,4806.8585,N,00139.4348,W,0.75,151.34,060218,,,A*76
$GPGGA,091402.000,4806.8584,N,00139.4343,W,1,06,2.4,-16.6,M,48.3,M,,0000*53
$GPGSA,M,3,09,07,06,30,23,16,,,,,,,3.2,2.4,2.1*37
arfcn: 12 bsic: 0 rxLev: -64 ber: 0.00 mcc: 208 mnc: 01 lac: 10300 cellId: 6467 cellStatus: CELL_FORBIDDEN numArfcn: 13 arfcn: 12 17 18 19 20 21 22 23 24 25 47 48 49 numChannels: 15 array: 1 2 3 8 9 10 14 512 513 514 515 518 605 606 608 pbcch: 0 nom: 2 rac: 1 spgc: 0 pat: 6 nco: 0 t3168: 1000 t3192: 500 drxmax: 2 ctrlAck: 0 bsCVmax: 9 alpha: 5 pcMeasCh: 1 
arfcn: 984 rxLev: -68
$GPRMC,091402.000,A,4806.8584,N,00139.4343,W,0.58,151.34,060218,,,A*70
arfcn: 986 rxLev: -68
arfcn: 989 rxLev: -70
arfcn: 1009 rxLev: -72
$GPGGA,091403.000,4806.8581,N,00139.4342,W,1,06,2.4,-16.4,M,48.3,M,,0000*54
$GPGSA,M,3,09,07,06,30,23,16,,,,,,,3.2,2.4,2.1*37
$GPRMC,091403.000,A,4806.8581,N,00139.4342,W,0.59,151.34,060218,,,A*74
$GPGGA,091404.000,4806.8575,N,00139.4333,W,1,06,2.4,-16.3,M,48.3,M,,0000*59
$GPGSA,M,3,09,07,06,30,23,16,,,,,,,3.2,2.4,2.1*37
$GPGSV,3,1,12,09,62,060,21,07,54,145,21,06,48,208,17,30,35,173,11*73
$GPGSV,3,2,12,23,26,066,24,16,10,047,16,05,26,297,04,38,00,000,*78
$GPGSV,3,3,12,02,49,273,,04,34,303,,29,08,329,,26,03,020,*7E
$GPRMC,091404.000,A,4806.8575,N,00139.4333,W,1.19,150.54,060218,,,A*7C
$GPGGA,091405.000,4806.8568,N,00139.4313,W,1,07,1.2,-16.1,M,48.3,M,,0000*50
$GPGSA,M,3,09,07,06,30,23,05,16,,,,,,2.3,1.2,2.0*36
arfcn: 983 bsic: 21 rxLev: -74 ber: 0.00 mcc: 208 mnc: 20 lac: 418 cellId: 21809 cellStatus: CELL_SUITABLE numArfcn: 1 arfcn: 983 numChannels: 24 array: 788 790 792 793 795 796 878 882 884 976 977 979 981 985 986 987 1012 1013 1014 1016 1017 1019 1020 1022 pbcch: 0 nom: 2 rac: 6 spgc: 0 pat: 6 nco: 0 t3168: 1500 t3192: 500 drxmax: 0 ctrlAck: 0 bsCVmax: 8 alpha: 6 pcMeasCh: 1 
$GPRMC,091405.000,A,4806.8568,N,00139.4313,W,1.60,139.91,060218,,,A*7B
$GPGGA,091406.000,4806.8562,N,00139.4296,W,1,07,1.2,-16.0,M,48.3,M,,0000*54
$GPGSA,M,3,09,07,06,30,23,05,16,,,,,,2.3,1.2,2.0*36
$GPRMC,091406.000,A,4806.8562,N,00139.4296,W,1.72,131.05,060218,,,A*78
$GPGGA,091407.000,4806.8550,N,00139.4272,W,1,06,1.5,-15.8,M,48.3,M,,0000*53
$GPGSA,M,3,09,07,06,23,05,16,,,,,,,2.9,1.5,2.4*3C
arfcn: 80 bsic: 47 rxLev: -74 ber: 0.00 mcc: 208 mnc: 10 lac: 49415 cellId: 23568 cellStatus: CELL_FORBIDDEN numArfcn: 2 arfcn: 80 89 numChannels: 19 array: 76 77 78 80 82 83 84 85 113 114 115 116 117 118 119 120 122 123 124 pbcch: 0 nom: 2 rac: 31 spgc: 0 pat: 6 nco: 0 t3168: 1000 t3192: 500 drxmax: 4 ctrlAck: 1 bsCVmax: 9 alpha: 10 pcMeasCh: 0 
arfcn: 867 rxLev: -77
$GPRMC,091407.000,A,4806.8550,N,00139.4272,W,2.52,126.41,060218,,,A*75
arfcn: 866 rxLev: -77
arfcn: 808 rxLev: -77
arfcn: 853 rxLev: -78
arfcn: 856 rxLev: -78
arfcn: 857 rxLev: -78
arfcn: 852 rxLev: -78
arfcn: 813 rxLev: -78
arfcn: 29 rxLev: -78
$GPGGA,091408.000,4806.8538,N,00139.4254,W,1,06,1.5,-15.7,M,48.3,M,,0000*59
arfcn: 40 rxLev: -79
$GPGSA,M,3,09,07,06,23,05,16,,,,,,,2.9,1.5,2.4*3C
arfcn: 43 rxLev: -79
arfcn: 44 rxLev: -79
$GPRMC,091408.000,A,4806.8538,N,00139.4254,W,2.85,130.44,060218,,,A*78
arfcn: 791 rxLev: -79
arfcn: 796 rxLev: -79
arfcn: 800 rxLev: -79
arfcn: 830 rxLev: -79
arfcn: 841 rxLev: -79
arfcn: 837 rxLev: -79
arfcn: 838 rxLev: -79
$GPGGA,091409.000,4806.8532,N,00139.4243,W,1,06,1.5,-15.6,M,48.3,M,,0000*55
arfcn: 828 rxLev: -79
$GPGSA,M,3,09,07,06,23,05,16,,,,,,,2.9,1.5,2.4*3C
arfcn: 829 rxLev: -79
arfcn: 821 rxLev: -79
$GPGSV,3,1,12,09,62,060,21,07,54,145,21,06,48,208,17,23,26,066,24*70
arfcn: 825 rxLev: -79
arfcn: 827 rxLev: -79
$GPGSV,3,2,12,05,26,297,12,16,10,047,16,30,35,173,04,38,00,000,*78
arfcn: 858 rxLev: -79
$GPGSV,3,3,12,02,49,273,,04,34,303,,29,08,329,,26,03,020,*7E
arfcn: 865 rxLev: -79
arfcn: 868 rxLev: -79
$GPRMC,091409.000,A,4806.8532,N,00139.4243,W,2.40,131.65,060218,,,A*7E
arfcn: 805 rxLev: -79
arfcn: 806 rxLev: -79
arfcn: 807 rxLev: -79
$GPGGA,091410.000,4806.8525,N,00139.4228,W,1,06,1.5,-15.4,M,48.3,M,,0000*54
arfcn: 42 rxLev: -79
arfcn: 41 rxLev: -79
$GPGSA,M,3,09,07,06,23,05,16,,,,,,,2.9,1.5,2.4*3C
arfcn: 28 rxLev: -79
$GPRMC,091410.000,A,4806.8525,N,00139.4228,W,2.26,128.97,060218,,,A*78
$GPGGA,091411.000,4806.8519,N,00139.4215,W,1,06,1.5,-15.3,M,48.3,M,,0000*53
$GPGSA,M,3,09,07,06,23,05,16,,,,,,,2.9,1.5,2.4*3C
$GPRMC,091411.000,A,4806.8519,N,00139.4215,W,2.19,127.79,060218,,,A*7B
$GPGGA,091412.000,4806.8516,N,00139.4203,W,1,06,1.5,-15.2,M,48.3,M,,0000*59
$GPGSA,M,3,09,07,06,23,05,16,,,,,,,2.9,1.5,2.4*3C
arfcn: 10 bsic: 1 rxLev: -79 ber: 1.09 mcc: 208 mnc: 01 lac: 10300 cellId: 39884 cellStatus: CELL_FORBIDDEN numArfcn: 13 arfcn: 10 17 18 19 20 21 22 23 24 25 47 48 49 numChannels: 16 array: 5 6 7 11 15 16 512 514 516 517 518 604 605 608 609 610 pbcch: 0 nom: 2 rac: 1 spgc: 0 pat: 6 nco: 0 t3168: 1000 t3192: 500 drxmax: 2 ctrlAck: 0 bsCVmax: 9 alpha: 5 pcMeasCh: 1 
arfcn: 37 rxLev: -80
$GPRMC,091412.000,A,4806.8516,N,00139.4203,W,2.10,125.75,060218,,,A*77
$GPGGA,091413.000,4806.8514,N,00139.4192,W,1,06,1.5,-15.0,M,48.3,M,,0000*53
$GPGSA,M,3,09,07,06,23,05,16,,,,,,,2.9,1.5,2.4*3C
$GPRMC,091413.000,A,4806.8514,N,00139.4192,W,1.91,123.19,060218,,,A*79
arfcn: 85 bsic: 0 rxLev: -80 ber: 0.00 mcc: 208 mnc: 10 lac: 49415 cellId: 44814 cellStatus: CELL_FORBIDDEN numArfcn: 2 arfcn: 85 119 numChannels: 20 array: 76 77 78 79 80 82 83 85 86 114 115 116 117 118 119 120 121 122 123 124 pbcch: 0 nom: 2 rac: 31 spgc: 0 pat: 6 nco: 0 t3168: 1000 t3192: 500 drxmax: 4 ctrlAck: 1 bsCVmax: 9 alpha: 10 pcMeasCh: 0 
arfcn: 809 rxLev: -80
arfcn: 819 rxLev: -80
$GPGGA,091414.000,4806.8514,N,00139.4184,W,1,06,1.5,-14.9,M,48.3,M,,0000*5B
arfcn: 803 rxLev: -80
$GPGSA,M,3,09,07,06,23,05,16,,,,,,,2.9,1.5,2.4*3C
arfcn: 823 rxLev: -80
arfcn: 836 rxLev: -80
$GPGSV,3,1,12,09,62,060,20,07,54,145,22,06,48,208,17,23,26,066,24*72
arfcn: 840 rxLev: -80
arfcn: 851 rxLev: -80
$GPGSV,3,2,12,05,26,297,12,16,10,047,16,30,35,173,04,38,00,000,*78
arfcn: 820 rxLev: -80
$GPGSV,3,3,12,02,49,273,,04,34,303,,29,08,329,,26,03,020,*7E
arfcn: 831 rxLev: -80
arfcn: 832 rxLev: -80
$GPRMC,091414.000,A,4806.8514,N,00139.4184,W,1.54,120.45,060218,,,A*7A
arfcn: 833 rxLev: -80
arfcn: 859 rxLev: -80
$GPGGA,091415.000,4806.8514,N,00139.4178,W,1,06,1.5,-14.8,M,48.3,M,,0000*58
arfcn: 854 rxLev: -80
arfcn: 792 rxLev: -80
$GPGSA,M,3,09,07,06,23,05,16,,,,,,,2.9,1.5,2.4*3C
arfcn: 793 rxLev: -80
arfcn: 794 rxLev: -80
$GPRMC,091415.000,A,4806.8514,N,00139.4178,W,1.19,118.57,060218,,,A*79
arfcn: 817 rxLev: -80
arfcn: 815 rxLev: -80
arfcn: 811 rxLev: -80
arfcn: 38 rxLev: -80
arfcn: 30 rxLev: -80
arfcn: 31 rxLev: -81
arfcn: 27 rxLev: -81
arfcn: 13 rxLev: -81
$GPGGA,091416.000,4806.8514,N,00139.4172,W,1,06,1.5,-14.7,M,48.3,M,,0000*5E
$GPGSA,M,3,09,07,06,23,05,16,,,,,,,2.9,1.5,2.4*3C
$GPRMC,091416.000,A,4806.8514,N,00139.4172,W,0.95,118.57,060218,,,A*75
$GPGGA,091417.000,4806.8511,N,00139.4164,W,1,06,1.5,-14.6,M,48.3,M,,0000*5C
$GPGSA,M,3,09,07,06,23,05,16,,,,,,,2.9,1.5,2.4*3C
$GPRMC,091417.000,A,4806.8511,N,00139.4164,W,1.18,116.88,060218,,,A*7E
$GPGGA,091418.000,4806.8506,N,00139.4154,W,1,06,1.5,-14.5,M,48.3,M,,0000*55
$GPGSA,M,3,09,07,06,23,05,16,,,,,,,2.9,1.5,2.4*3C
$GPRMC,091418.000,A,4806.8506,N,00139.4154,W,1.60,117.27,060218,,,A*7F
arfcn: 3 bsic: 0 rxLev: -81 ber: 0.04 mcc: 208 mnc: 01 lac: 10300 cellId: 2686 cellStatus: CELL_FORBIDDEN numArfcn: 13 arfcn: 3 17 18 19 20 21 22 23 24 25 47 48 49 numChannels: 13 array: 1 5 6 7 10 12 14 512 515 517 604 606 608 pbcch: 0 nom: 2 rac: 1 spgc: 0 pat: 6 nco: 0 t3168: 1000 t3192: 500 drxmax: 2 ctrlAck: 0 bsCVmax: 9 alpha: 5 pcMeasCh: 1 
arfcn: 39 rxLev: -81
$GPGGA,091419.000,4806.8508,N,00139.4161,W,1,06,1.5,-14.4,M,48.3,M,,0000*5D
$GPGSA,M,3,09,07,06,23,05,16,,,,,,,2.9,1.5,2.4*3C
arfcn: 45 rxLev: -81
$GPGSV,3,1,12,09,62,060,20,07,54,145,21,06,48,208,16,23,26,066,24*70
$GPGSV,3,2,12,05,26,297,12,16,10,047,17,30,35,173,04,38,00,000,*79
$GPGSV,3,3,12,02,49,273,,04,34,303,,29,08,329,,26,03,020,*7E
$GPRMC,091419.000,A,4806.8508,N,00139.4161,W,0.64,117.27,060218,,,A*73
$GPGGA,091420.000,4806.8507,N,00139.4156,W,1,06,1.5,-14.3,M,48.3,M,,0000*5B
$GPGSA,M,3,09,07,06,23,05,16,,,,,,,2.9,1.5,2.4*3C
$GPRMC,091420.000,A,4806.8507,N,00139.4156,W,0.84,117.27,060218,,,A*7C
$GPGGA,091421.000,4806.8507,N,00139.4150,W,1,06,1.5,-14.1,M,48.3,M,,0000*5E
$GPGSA,M,3,09,07,06,23,05,16,,,,,,,2.9,1.5,2.4*3C
arfcn: 78 bsic: 2 rxLev: -81 ber: 0.00 mcc: 208 mnc: 10 lac: 49415 cellId: 45280 cellStatus: CELL_FORBIDDEN numArfcn: 2 arfcn: 78 116 numChannels: 20 array: 76 77 78 79 80 82 83 84 85 86 114 115 116 117 118 120 121 122 123 124 pbcch: 0 nom: 2 rac: 31 spgc: 0 pat: 6 nco: 0 t3168: 1000 t3192: 500 drxmax: 4 ctrlAck: 1 bsCVmax: 9 alpha: 10 pcMeasCh: 0 
arfcn: 814 rxLev: -81
$GPRMC,091421.000,A,4806.8507,N,00139.4150,W,1.39,109.00,060218,,,A*76
arfcn: 855 rxLev: -81
arfcn: 877 rxLev: -81
arfcn: 879 rxLev: -81
arfcn: 880 rxLev: -81
arfcn: 822 rxLev: -81
arfcn: 824 rxLev: -81
arfcn: 844 rxLev: -81
arfcn: 842 rxLev: -81
$GPGGA,091422.000,4806.8507,N,00139.4144,W,1,06,1.5,-14.0,M,48.3,M,,0000*59
arfcn: 839 rxLev: -81
$GPGSA,M,3,09,07,06,23,05,16,,,,,,,2.9,1.5,2.4*3C
arfcn: 843 rxLev: -81
arfcn: 846 rxLev: -81
$GPRMC,091422.000,A,4806.8507,N,00139.4144,W,1.43,104.82,060218,,,A*7A
arfcn: 850 rxLev: -81
arfcn: 826 rxLev: -81
arfcn: 835 rxLev: -81
arfcn: 878 rxLev: -81
arfcn: 864 rxLev: -81
arfcn: 812 rxLev: -81
arfcn: 810 rxLev: -81
arfcn: 804 rxLev: -81
$GPGGA,091423.000,4806.8509,N,00139.4139,W,1,06,1.5,-13.9,M,48.3,M,,0000*52
arfcn: 797 rxLev: -81
arfcn: 798 rxLev: -81
$GPGSA,M,3,09,07,06,23,05,16,,,,,,,2.9,1.5,2.4*3C
arfcn: 36 rxLev: -81
$GPRMC,091423.000,A,4806.8509,N,00139.4139,W,1.52,95.55,060218,,,A*4C
arfcn: 32 rxLev: -81
arfcn: 33 rxLev: -82
$GPGGA,091424.000,4806.8511,N,00139.4131,W,1,06,1.5,-13.8,M,48.3,M,,0000*55
$GPGSA,M,3,09,07,06,23,05,16,,,,,,,2.9,1.5,2.4*3C
$GPGSV,3,1,12,09,62,060,19,07,54,145,22,06,48,208,16,23,26,066,24*79
$GPGSV,3,2,12,05,26,297,13,16,10,047,17,33,33,198,,02,49,273,*7E
$GPGSV,3,3,12,30,35,173,,04,34,303,,29,08,329,,26,03,020,*77
$GPRMC,091424.000,A,4806.8511,N,00139.4131,W,1.87,86.32,060218,,,A*41
$GPGGA,091425.000,4806.8513,N,00139.4125,W,1,06,1.5,-13.7,M,48.3,M,,0000*5C
$GPGSA,M,3,09,07,06,23,05,16,,,,,,,2.9,1.5,2.4*3C
$GPRMC,091425.000,A,4806.8513,N,00139.4125,W,1.40,83.62,060218,,,A*4C
$GPGGA,091426.000,4806.8513,N,00139.4122,W,1,06,1.5,-13.6,M,48.3,M,,0000*59
$GPGSA,M,3,09,07,06,23,05,16,,,,,,,2.9,1.5,2.4*3C
$GPRMC,091426.000,A,4806.8513,N,00139.4122,W,0.96,83.62,060218,,,A*42
$GPGGA,091427.000,4806.8514,N,00139.4118,W,1,06,1.5,-13.5,M,48.3,M,,0000*55
$GPGSA,M,3,09,07,06,23,05,16,,,,,,,2.9,1.5,2.4*3C
$GPRMC,091427.000,A,4806.8514,N,00139.4118,W,1.11,83.62,060218,,,A*43
arfcn: 605 bsic: 33 rxLev: -82 ber: 0.08 mcc: 208 mnc: 01 lac: 10300 cellId: 27588 cellStatus: CELL_FORBIDDEN numArfcn: 22 arfcn: 525 526 527 528 529 530 531 532 533 534 535 587 588 589 590 591 592 593 594 595 596 597 numChannels: 18 array: 1 3 5 8 12 15 512 513 514 515 516 517 518 604 605 606 607 609 pbcch: 0 nom: 2 rac: 1 spgc: 0 pat: 6 nco: 0 t3168: 1000 t3192: 500 drxmax: 2 ctrlAck: 0 bsCVmax: 9 alpha: 5 pcMeasCh: 1 
arfcn: 801 rxLev: -82
arfcn: 816 rxLev: -82
arfcn: 818 rxLev: -82
arfcn: 860 rxLev: -82
arfcn: 862 rxLev: -82
arfcn: 869 rxLev: -82
$GPGGA,091428.000,4806.8512,N,00139.4114,W,1,06,1.5,-13.4,M,48.3,M,,0000*51
arfcn: 874 rxLev: -82
$GPGSA,M,3,09,07,06,23,05,16,,,,,,,2.9,1.5,2.4*3C
arfcn: 875 rxLev: -82
arfcn: 876 rxLev: -82
$GPRMC,091428.000,A,4806.8512,N,00139.4114,W,1.32,89.76,060218,,,A*48
arfcn: 834 rxLev: -82
arfcn: 847 rxLev: -82
arfcn: 845 rxLev: -82
arfcn: 802 rxLev: -82
arfcn: 799 rxLev: -82
arfcn: 795 rxLev: -82
arfcn: 35 rxLev: -82
$GPGGA,091429.000,4806.8511,N,00139.4107,W,1,06,1.5,-13.3,M,48.3,M,,0000*56
$GPGSA,M,3,09,07,06,23,05,16,,,,,,,2.9,1.5,2.4*3C
$GPGSV,3,1,12,09,62,060,20,07,54,145,22,06,48,208,16,23,26,066,24*73
$GPGSV,3,2,12,05,26,297,13,16,10,047,17,33,33,198,,02,49,273,*7E
$GPGSV,3,3,12,30,35,173,,04,34,303,,29,08,329,,26,03,020,*77
$GPRMC,091429.000,A,4806.8511,N,00139.4107,W,1.65,92.41,060218,,,A*44
$GPGGA,091430.000,4806.8513,N,00139.4102,W,1,06,1.5,-13.2,M,48.3,M,,0000*58
$GPGSA,M,3,09,07,06,23,05,16,,,,,,,2.9,1.5,2.4*3C
$GPRMC,091430.000,A,4806.8513,N,00139.4102,W,1.17,92.30,060218,,,A*48
arfcn: 14 bsic: 35 rxLev: -82 ber: 0.00 mcc: 208 mnc: 01 lac: 10300 cellId: 39250 cellStatus: CELL_FORBIDDEN numArfcn: 13 arfcn: 14 17 18 19 20 21 22 23 24 25 47 48 49 numChannels: 14 array: 1 3 4 6 8 10 12 14 512 513 514 517 604 608 pbcch: 0 nom: 2 rac: 1 spgc: 1 pat: 6 nco: 0 t3168: 1000 t3192: 500 drxmax: 4 ctrlAck: 1 bsCVmax: 9 alpha: 7 pcMeasCh: 0 
$GPGGA,091431.000,4806.8514,N,00139.4096,W,1,06,1.5,-13.1,M,48.3,M,,0000*51
$GPGSA,M,3,09,07,06,23,05,16,,,,,,,2.9,1.5,2.4*3C
$GPRMC,091431.000,A,4806.8514,N,00139.4096,W,1.37,91.22,060218,,,A*40
$GPGGA,091432.000,4806.8513,N,00139.4089,W,1,06,1.5,-13.1,M,48.3,M,,0000*5B
$GPGSA,M,3,09,07,06,23,05,16,,,,,,,2.9,1.5,2.4*3C
$GPRMC,091432.000,A,4806.8513,N,00139.4089,W,1.72,92.96,060218,,,A*47
$GPGGA,091433.000,4806.8510,N,00139.4081,W,1,06,1.5,-13.0,M,48.3,M,,0000*50
$GPGSA,M,3,09,07,06,23,05,16,,,,,,,2.9,1.5,2.4*3C
$GPRMC,091433.000,A,4806.8510,N,00139.4081,W,2.23,100.56,060218,,,A*7C
$GPGGA,091434.000,4806.8507,N,00139.4075,W,1,06,1.5,-12.9,M,48.3,M,,0000*52
$GPGSA,M,3,09,07,06,23,05,16,,,,,,,2.9,1.5,2.4*3C
arfcn: 8 bsic: 48 rxLev: -82 ber: 0.00 mcc: 208 mnc: 01 lac: 10300 cellId: 6473 cellStatus: CELL_FORBIDDEN numArfcn: 13 arfcn: 8 17 18 19 20 21 22 23 24 25 47 48 49 numChannels: 18 array: 1 2 3 4 5 10 12 13 14 15 512 513 514 515 516 517 605 610 pbcch: 0 nom: 2 rac: 1 spgc: 0 pat: 6 nco: 0 t3168: 1000 t3192: 500 drxmax: 2 ctrlAck: 0 bsCVmax: 9 alpha: 5 pcMeasCh: 1 
arfcn: 11 rxLev: -83
$GPGSV,3,1,12,09,62,060,20,07,54,145,22,06,48,208,16,23,26,066,24*73
arfcn: 34 rxLev: -83
$GPGSV,3,2,12,05,26,297,13,16,10,047,17,30,35,173,15,33,33,198,*73
arfcn: 55 rxLev: -83
$GPGSV,3,3,12,02,49,273,,04,34,303,,29,08,329,,26,03,020,*7E
$GPRMC,091434.000,A,4806.8507,N,00139.4075,W,2.01,106.48,060218,,,A*7F
$GPGGA,091435.000,4806.8505,N,00139.4067,W,1,07,1.2,-12.8,M,48.3,M,,0000*55
$GPGSA,M,3,09,07,06,30,23,05,16,,,,,,2.4,1.2,2.0*31
$GPRMC,091435.000,A,4806.8505,N,00139.4067,W,1.96,111.23,060218,,,A*79
$GPGGA,091436.000,4806.8505,N,00139.4060,W,1,07,1.2,-12.6,M,48.3,M,,0000*5F
$GPGSA,M,3,09,07,06,30,23,05,16,,,,,,2.4,1.2,2.0*31
$GPRMC,091436.000,A,4806.8505,N,00139.4060,W,1.77,111.68,060218,,,A*7D
arfcn: 122 bsic: 3 rxLev: -83 ber: 0.00 mcc: 208 mnc: 10 lac: 49415 cellId: 33517 cellStatus: CELL_FORBIDDEN numArfcn: 3 arfcn: 77 88 122 numChannels: 17 array: 77 78 79 80 82 84 85 86 114 115 117 118 119 120 122 123 124 pbcch: 0 nom: 2 rac: 31 spgc: 0 pat: 6 nco: 0 t3168: 1000 t3192: 500 drxmax: 4 ctrlAck: 1 bsCVmax: 9 alpha: 10 pcMeasCh: 0 
arfcn: 848 rxLev: -83
arfcn: 849 rxLev: -83
arfcn: 872 rxLev: -83
arfcn: 871 rxLev: -83
arfcn: 861 rxLev: -83
arfcn: 863 rxLev: -83
arfcn: 870 rxLev: -83
arfcn: 873 rxLev: -83
$GPGGA,091437.000,4806.8504,N,00139.4053,W,1,07,1.2,-12.5,M,48.3,M,,0000*5C
arfcn: 881 rxLev: -83
$GPGSA,M,3,09,07,06,30,23,05,16,,,,,,2.4,1.2,2.0*31
arfcn: 56 rxLev: -83
arfcn: 46 rxLev: -83
$GPRMC,091437.000,A,4806.8504,N,00139.4053,W,1.88,112.04,060218,,,A*74
arfcn: 26 rxLev: -83
$GPGGA,091438.000,4806.8505,N,00139.4046,W,1,07,1.2,-12.3,M,48.3,M,,0000*50
$GPGSA,M,3,09,07,06,30,23,05,16,,,,,,2.4,1.2,2.0*31
$GPRMC,091438.000,A,4806.8505,N,00139.4046,W,1.76,111.71,060218,,,A*7E
$GPGGA,091439.000,4806.8506,N,00139.4038,W,1,07,1.2,-12.1,M,48.3,M,,0000*59
$GPGSA,M,3,09,07,06,30,23,05,16,,,,,,2.4,1.2,2.0*31
$GPGSV,3,1,12,09,62,060,21,07,54,145,22,06,48,208,17,30,35,173,13*72
$GPGSV,3,2,12,23,26,066,24,05,26,297,12,16,10,047,17,33,33,198,*75
$GPGSV,3,3,12,02,49,273,,04,34,303,,29,08,329,,26,03,020,*7E
$GPRMC,091439.000,A,4806.8506,N,00139.4038,W,1.86,109.74,060218,,,A*76
$GPGGA,091440.000,4806.8505,N,00139.4032,W,1,07,1.2,-11.9,M,48.3,M,,0000*55
$GPGSA,M,3,09,07,06,30,23,05,16,,,,,,2.4,1.2,2.0*31
arfcn: 515 bsic: 34 rxLev: -83 ber: 0.00 mcc: 208 mnc: 01 lac: 10300 cellId: 27586 cellStatus: CELL_FORBIDDEN numArfcn: 16 arfcn: 519 520 521 522 523 524 525 526 596 597 598 599 600 601 602 603 numChannels: 9 array: 1 8 12 512 513 516 605 606 607 pbcch: 0 nom: 2 rac: 1 spgc: 0 pat: 6 nco: 0 t3168: 1000 t3192: 500 drxmax: 2 ctrlAck: 0 bsCVmax: 9 alpha: 5 pcMeasCh: 1 
$GPRMC,091440.000,A,4806.8505,N,00139.4032,W,1.87,109.13,060218,,,A*71
$GPGGA,091441.000,4806.8507,N,00139.4031,W,1,07,1.2,-11.7,M,48.3,M,,0000*5B
$GPGSA,M,3,09,07,06,30,23,05,16,,,,,,2.4,1.2,2.0*31
$GPRMC,091441.000,A,4806.8507,N,00139.4031,W,1.27,108.67,060218,,,A*79
$GPGGA,091442.000,4806.8509,N,00139.4030,W,1,07,1.2,-11.6,M,48.3,M,,0000*56
arfcn: 1 bsic: 44 rxLev: -84 ber: 0.06 mcc: 208 mnc: 01 lac: 10300 cellId: 6468 cellStatus: CELL_FORBIDDEN numArfcn: 13 arfcn: 1 17 18 19 20 21 22 23 24 25 47 48 49 numChannels: 24 array: 2 4 5 6 7 8 9 10 11 12 15 512 513 514 515 516 517 518 605 606 607 608 609 610 pbcch: 0 nom: 2 rac: 1 spgc: 0 pat: 6 nco: 0 t3168: 1000 t3192: 500 drxmax: 2 ctrlAck: 0 bsCVmax: 9 alpha: 5 pcMeasCh: 1 
arfcn: 57 rxLev: -84
arfcn: 58 rxLev: -84
$GPGSA,M,3,09,07,06,30,23,05,16,,,,,,2.4,1.2,2.0*31
arfcn: 63 rxLev: -84
$GPRMC,091442.000,A,4806.8509,N,00139.4030,W,0.99,108.67,060218,,,A*71
arfcn: 68 rxLev: -84
$GPGGA,091443.000,4806.8507,N,00139.4028,W,1,07,1.2,-11.4,M,48.3,M,,0000*52
$GPGSA,M,3,09,07,06,30,23,05,16,,,,,,2.4,1.2,2.0*31
$GPRMC,091443.000,A,4806.8507,N,00139.4028,W,0.96,108.67,060218,,,A*78
$GPGGA,091444.000,4806.8505,N,00139.4027,W,1,07,1.2,-11.1,M,48.3,M,,0000*5D
$GPGSA,M,3,09,07,06,30,23,05,16,,,,,,2.4,1.2,2.0*31
$GPGSV,3,1,12,09,62,060,21,07,54,145,21,06,48,208,17,30,35,173,13*71
$GPGSV,3,2,12,23,26,066,25,05,26,297,08,16,10,047,16,33,33,198,*7E
arfcn: 512 bsic: 25 rxLev: -84 ber: 0.00 mcc: 208 mnc: 01 lac: 10300 cellId: 40155 cellStatus: CELL_FORBIDDEN numArfcn: 16 arfcn: 519 520 521 522 523 524 525 526 596 597 598 599 600 601 602 603 numChannels: 16 array: 2 3 5 8 10 11 12 15 16 517 518 604 605 606 609 610 pbcch: 0 nom: 2 rac: 1 spgc: 0 pat: 6 nco: 0 t3168: 1000 t3192: 500 drxmax: 2 ctrlAck: 0 bsCVmax: 9 alpha: 5 pcMeasCh: 1 
$GPGSV,3,3,12,02,49,273,,04,34,303,,29,08,329,,26,03,020,*7E
$GPRMC,091444.000,A,4806.8505,N,00139.4027,W,1.03,108.67,060218,,,A*7F
$GPGGA,091445.000,4806.8502,N,00139.4024,W,1,06,2.4,-10.9,M,48.3,M,,0000*55
$GPGSA,M,3,09,07,06,30,23,16,,,,,,,3.2,2.4,2.1*37
$GPRMC,091445.000,A,4806.8502,N,00139.4024,W,1.04,108.67,060218,,,A*7D
$GPGGA,091446.000,4806.8499,N,00139.4020,W,1,06,2.4,-10.7,M,48.3,M,,0000*5F
$GPGSA,M,3,09,07,06,30,23,16,,,,,,,3.2,2.4,2.1*37
$GPRMC,091446.000,A,4806.8499,N,00139.4020,W,1.22,110.41,060218,,,A*70
$GPGGA,091447.000,4806.8496,N,00139.4019,W,1,06,2.4,-10.6,M,48.3,M,,0000*5A
$GPGSA,M,3,09,07,06,30,23,16,,,,,,,3.2,2.4,2.1*37
$GPRMC,091447.000,A,4806.8496,N,00139.4019,W,1.16,110.41,060218,,,A*73
arfcn: 1020 bsic: 39 rxLev: -85 ber: 0.00 mcc: 208 mnc: 20 lac: 418 cellId: 38980 cellStatus: CELL_SUITABLE numArfcn: 1 arfcn: 1020 numChannels: 26 array: 787 788 790 791 793 795 796 879 884 885 978 979 981 982 983 985 986 987 1011 1012 1013 1014 1015 1017 1019 1022 pbcch: 0 nom: 2 rac: 6 spgc: 0 pat: 6 nco: 0 t3168: 1500 t3192: 500 drxmax: 0 ctrlAck: 0 bsCVmax: 8 alpha: 6 pcMeasCh: 1 
arfcn: 64 rxLev: -85
arfcn: 62 rxLev: -85
arfcn: 59 rxLev: -85
arfcn: 60 rxLev: -86
arfcn: 54 rxLev: -86
$GPGGA,091448.000,4806.8493,N,00139.4018,W,1,06,2.4,-10.4,M,48.3,M,,0000*53
$GPGSA,M,3,09,07,06,30,23,16,,,,,,,3.2,2.4,2.1*37
$GPRMC,091448.000,A,4806.8493,N,00139.4018,W,1.07,110.41,060218,,,A*78
$GPGGA,091449.000,4806.8490,N,00139.4017,W,1,06,2.4,-10.1,M,48.3,M,,0000*5B
$GPGSA,M,3,09,07,06,30,23,16,,,,,,,3.2,2.4,2.1*37
$GPGSV,3,1,12,09,62,060,20,07,54,145,21,06,48,208,17,30,35,173,11*72
$GPGSV,3,2,12,23,26,066,25,16,10,047,16,05,26,297,06,33,33,198,*70
$GPGSV,3,3,12,02,49,273,,04,34,303,,29,08,329,,26,03,020,*7E
$GPRMC,091449.000,A,4806.8490,N,00139.4017,W,1.36,117.56,060218,,,A*76
arfcn: 2 bsic: 54 rxLev: -86 ber: 0.01 mcc: 208 mnc: 01 lac: 10300 cellId: 42646 cellStatus: CELL_FORBIDDEN numArfcn: 13 arfcn: 2 17 18 19 20 21 22 23 24 25 47 48 49 numChannels: 22 array: 1 5 6 7 8 10 12 13 15 16 512 514 515 516 517 518 604 606 607 608 609 610 pbcch: 0 nom: 2 rac: 1 spgc: 0 pat: 6 nco: 0 t3168: 1000 t3192: 500 drxmax: 2 ctrlAck: 0 bsCVmax: 9 alpha: 5 pcMeasCh: 1 
$GPGGA,091450.000,4806.8487,N,00139.4019,W,1,06,2.4,-10.0,M,48.3,M,,0000*5A
$GPGSA,M,3,09,07,06,30,23,16,,,,,,,3.2,2.4,2.1*37
$GPRMC,091450.000,A,4806.8487,N,00139.4019,W,1.26,124.11,060218,,,A*74
$GPGGA,091451.000,4806.8485,N,00139.4019,W,1,06,2.4,-9.8,M,48.3,M,,0000*69
$GPGSA,M,3,09,07,06,30,23,16,,,,,,,3.2,2.4,2.1*37
$GPRMC,091451.000,A,4806.8485,N,00139.4019,W,1.19,128.36,060218,,,A*72
arfcn: 4 bsic: 54 rxLev: -86 ber: 1.08 mcc: 208 mnc: 01 lac: 10300 cellId: 43768 cellStatus: CELL_FORBIDDEN numArfcn: 13 arfcn: 4 17 18 19 20 21 22 23 24 25 47 48 49 numChannels: 20 array: 1 3 5 6 7 8 12 13 14 513 514 515 517 518 601 605 606 608 609 610 pbcch: 0 nom: 2 rac: 1 spgc: 0 pat: 6 nco: 0 t3168: 1000 t3192: 500 drxmax: 2 ctrlAck: 0 bsCVmax: 9 alpha: 5 pcMeasCh: 1 
$GPGGA,091452.000,4806.8484,N,00139.4023,W,1,06,2.4,-9.6,M,48.3,M,,0000*6C
$GPGSA,M,3,09,07,06,30,23,16,,,,,,,3.2,2.4,2.1*37
$GPRMC,091452.000,A,4806.8484,N,00139.4023,W,1.08,128.36,060218,,,A*79
$GPGGA,091453.000,4806.8484,N,00139.4026,W,1,05,2.8,-9.8,M,48.3,M,,0000*69
$GPGSA,M,3,09,07,06,23,16,,,,,,,,3.4,2.8,1.9*35
$GPRMC,091453.000,A,4806.8484,N,00139.4026,W,0.53,128.36,060218,,,A*72
arfcn: 5 bsic: 1 rxLev: -86 ber: 0.00 mcc: 208 mnc: 01 lac: 10300 cellId: 40079 cellStatus: CELL_FORBIDDEN numArfcn: 13 arfcn: 5 17 18 19 20 21 22 23 24 25 47 48 49 numChannels: 20 array: 1 2 3 4 5 8 9 10 11 13 14 15 16 512 513 518 604 606 608 610 pbcch: 0 nom: 2 rac: 1 spgc: 0 pat: 6 nco: 0 t3168: 1000 t3192: 500 drxmax: 2 ctrlAck: 0 bsCVmax: 9 alpha: 5 pcMeasCh: 1 
$GPGGA,091454.000,4806.8483,N,00139.4026,W,1,05,2.8,-10.2,M,48.3,M,,0000*5B
$GPGSA,M,3,09,07,06,23,16,,,,,,,,3.4,2.8,1.9*35
$GPGSV,3,1,12,09,62,060,19,07,54,145,21,06,48,208,16,23,26,066,26*78
$GPGSV,3,2,12,16,10,047,17,05,26,297,04,30,35,173,04,37,27,150,*70
$GPGSV,3,3,12,02,49,273,,04,34,303,,29,08,329,,26,03,020,*7E
$GPRMC,091454.000,A,4806.8483,N,00139.4026,W,0.41,128.36,060218,,,A*71
$GPGGA,091455.000,4806.8483,N,00139.4024,W,1,05,2.8,-10.5,M,48.3,M,,0000*5F
$GPGSA,M,3,09,07,06,23,16,,,,,,,,3.4,2.8,1.9*35
$GPRMC,091455.000,A,4806.8483,N,00139.4024,W,0.49,128.36,060218,,,A*7A
arfcn: 76 bsic: 5 rxLev: -86 ber: 0.00 mcc: 208 mnc: 10 lac: 49415 cellId: 44813 cellStatus: CELL_FORBIDDEN numArfcn: 2 arfcn: 76 121 numChannels: 16 array: 76 77 78 79 80 82 84 85 86 113 114 117 118 121 123 124 pbcch: 0 nom: 2 rac: 31 spgc: 0 pat: 6 nco: 0 t3168: 1000 t3192: 500 drxmax: 4 ctrlAck: 1 bsCVmax: 9 alpha: 10 pcMeasCh: 0 
$GPGGA,091456.000,4806.8485,N,00139.4028,W,1,05,2.8,-10.7,M,48.3,M,,0000*54
$GPGSA,M,3,09,07,06,23,16,,,,,,,,3.4,2.8,1.9*35
$GPRMC,091456.000,A,4806.8485,N,00139.4028,W,0.44,128.36,060218,,,A*7E
$GPGGA,091457.000,4806.8490,N,00139.4035,W,1,05,2.8,-11.0,M,48.3,M,,0000*5B
arfcn: 124 bsic: 2 rxLev: -86 ber: 2.01 mcc: 208 mnc: 10 lac: 49415 cellId: 43517 cellStatus: CELL_FORBIDDEN numArfcn: 2 arfcn: 112 124 numChannels: 14 array: 76 77 78 80 82 85 114 115 117 118 120 121 122 124 pbcch: 0 nom: 2 rac: 31 spgc: 0 pat: 6 nco: 0 t3168: 1000 t3192: 500 drxmax: 4 ctrlAck: 1 bsCVmax: 9 alpha: 10 pcMeasCh: 0 
arfcn: 67 rxLev: -86
$GPGSA,M,3,09,07,06,23,16,,,,,,,,3.4,2.8,1.9*35
$GPRMC,091457.000,A,4806.8490,N,00139.4035,W,0.75,128.36,060218,,,A*75
arfcn: 70 rxLev: -86
arfcn: 61 rxLev: -86
arfcn: 69 rxLev: -87
$GPGGA,091458.000,4806.8494,N,00139.4036,W,1,05,2.8,-11.3,M,48.3,M,,0000*50
$GPGSA,M,3,09,07,06,23,16,,,,,,,,3.4,2.8,1.9*35
$GPRMC,091458.000,A,4806.8494,N,00139.4036,W,1.05,128.36,060218,,,A*7B
$GPGGA,091459.000,4806.8498,N,00139.4037,W,1,05,2.8,-11.7,M,48.3,M,,0000*58
$GPGSA,M,3,09,07,06,23,16,,,,,,,,3.4,2.8,1.9*35
$GPGSV,3,1,12,09,62,060,20,07,54,145,21,06,48,208,16,23,26,066,26*72
$GPGSV,3,2,12,16,10,047,17,05,26,297,04,30,35,173,04,37,27,150,*70
$GPGSV,3,3,12,02,49,273,,04,34,303,,29,08,329,,26,03,020,*7E
$GPRMC,091459.000,A,4806.8498,N,00139.4037,W,0.95,128.36,060218,,,A*7F
$GPGGA,091500.000,4806.8504,N,00139.4043,W,1,05,2.8,-12.0,M,48.3,M,,0000*56
$GPGSA,M,3,09,07,06,23,16,,,,,,,,3.4,2.8,1.9*35
$GPRMC,091500.000,A,4806.8504,N,00139.4043,W,1.04,128.36,060218,,,A*7C
arfcn: 979 bsic: 19 rxLev: -87 ber: 2.06 mcc: 208 mnc: 20 lac: 418 cellId: 20718 cellStatus: CELL_SUITABLE numArfcn: 1 arfcn: 979 numChannels: 22 array: 788 789 790 792 793 795 878 882 884 977 981 983 984 985 986 987 1012 1013 1014 1017 1019 1020 pbcch: 0 nom: 2 rac: 6 spgc: 0 pat: 6 nco: 0 t3168: 1500 t3192: 500 drxmax: 0 ctrlAck: 0 bsCVmax: 8 alpha: 6 pcMeasCh: 1 
$GPGGA,091501.000,4806.8507,N,00139.4050,W,1,05,2.8,-12.2,M,48.3,M,,0000*54
$GPGSA,M,3,09,07,06,23,16,,,,,,,,3.4,2.8,1.9*35
$GPRMC,091501.000,A,4806.8507,N,00139.4050,W,0.95,128.36,060218,,,A*75
$GPGGA,091502.000,4806.8509,N,00139.4044,W,1,06,2.4,-12.1,M,48.3,M,,0000*50
$GPGSA,M,3,09,07,06,30,23,16,,,,,,,3.2,2.4,2.1*37
$GPRMC,091502.000,A,4806.8509,N,00139.4044,W,0.93,128.36,060218,,,A*7B
$GPGGA,091503.000,4806.8509,N,00139.4041,W,1,06,2.4,-12.0,M,48.3,M,,0000*55
$GPGSA,M,3,09,07,06,30,23,16,,,,,,,3.2,2.4,2.1*37
$GPRMC,091503.000,A,4806.8509,N,00139.4041,W,0.43,128.36,060218,,,A*72
arfcn: 978 bsic: 19 rxLev: -87 ber: 0.02 mcc: 208 mnc: 20 lac: 418 cellId: 18480 cellStatus: CELL_SUITABLE numArfcn: 2 arfcn: 978 1023 numChannels: 24 array: 788 790 794 880 883 975 976 977 979 980 981 982 983 985 986 1011 1012 1014 1016 1017 1018 1019 1020 1021 pbcch: 0 nom: 2 rac: 6 spgc: 0 pat: 6 nco: 0 t3168: 1500 t3192: 500 drxmax: 4 ctrlAck: 1 bsCVmax: 8 alpha: 6 pcMeasCh: 1 
$GPGGA,091504.000,4806.8510,N,00139.4038,W,1,06,2.4,-11.9,M,48.3,M,,0000*5E
$GPGSA,M,3,09,07,06,30,23,16,,,,,,,3.2,2.4,2.1*37
$GPGSV,3,1,12,09,62,060,21,07,54,145,22,06,48,208,16,30,35,173,12*72
$GPGSV,3,2,12,23,26,066,27,16,10,047,17,37,27,150,,02,49,273,*74
$GPGSV,3,3,12,04,34,303,,05,26,297,,29,08,329,,26,03,020,*7A
$GPRMC,091504.000,A,4806.8510,N,00139.4038,W,0.39,128.36,060218,,,A*7E
$GPGGA,091505.000,4806.8512,N,00139.4038,W,1,06,2.4,-11.8,M,48.3,M,,0000*5C
$GPGSA,M,3,09,07,06,30,23,16,,,,,,,3.2,2.4,2.1*37
$GPRMC,091505.000,A,4806.8512,N,00139.4038,W,0.42,128.36,060218,,,A*71
arfcn: 514 bsic: 1 rxLev: -87 ber: 0.04 mcc: 208 mnc: 01 lac: 10300 cellId: 39259 cellStatus: CELL_FORBIDDEN numArfcn: 17 arfcn: 514 519 520 521 522 523 524 525 526 596 597 598 599 600 601 602 603 numChannels: 14 array: 1 6 8 10 12 14 512 513 514 517 604 605 606 608 pbcch: 0 nom: 2 rac: 1 spgc: 1 pat: 6 nco: 0 t3168: 1000 t3192: 500 drxmax: 4 ctrlAck: 1 bsCVmax: 9 alpha: 7 pcMeasCh: 0 
$GPGGA,091506.000,4806.8517,N,00139.4037,W,1,06,2.4,-11.6,M,48.3,M,,0000*5B
$GPGSA,M,3,09,07,06,30,23,16,,,,,,,3.2,2.4,2.1*37
$GPRMC,091506.000,A,4806.8517,N,00139.4037,W,0.74,128.36,060218,,,A*7D
$GPGGA,091507.000,4806.8522,N,00139.4043,W,1,06,2.4,-11.5,M,48.3,M,,0000*5C
arfcn: 604 bsic: 20 rxLev: -87 ber: 0.05 mcc: 208 mnc: 01 lac: 10300 cellId: 39915 cellStatus: CELL_FORBIDDEN numArfcn: 16 arfcn: 519 520 521 522 523 524 525 526 596 597 598 599 600 601 602 603 numChannels: 13 array: 5 6 10 15 16 512 514 516 517 518 608 609 610 pbcch: 0 nom: 2 rac: 1 spgc: 0 pat: 6 nco: 0 t3168: 1000 t3192: 500 drxmax: 2 ctrlAck: 0 bsCVmax: 9 alpha: 5 pcMeasCh: 1 
arfcn: 71 rxLev: -87
$GPGSA,M,3,09,07,06,30,23,16,,,,,,,3.2,2.4,2.1*37
arfcn: 66 rxLev: -87
arfcn: 65 rxLev: -88
$GPRMC,091507.000,A,4806.8522,N,00139.4043,W,0.26,128.36,060218,,,A*7E
arfcn: 107 rxLev: -88
arfcn: 53 rxLev: -88
arfcn: 24 rxLev: -88
$GPGGA,091508.000,4806.8524,N,00139.4048,W,1,06,2.4,-11.4,M,48.3,M,,0000*5F
$GPGSA,M,3,09,07,06,30,23,16,,,,,,,3.2,2.4,2.1*37
$GPRMC,091508.000,A,4806.8524,N,00139.4048,W,0.32,128.36,060218,,,A*79
$GPGGA,091509.000,4806.8524,N,00139.4054,W,1,06,2.4,-11.2,M,48.3,M,,0000*55
$GPGSA,M,3,09,07,06,30,23,16,,,,,,,3.2,2.4,2.1*37
$GPGSV,3,1,12,09,62,060,21,07,54,145,22,06,48,208,15,30,35,173,13*70
$GPGSV,3,2,12,23,26,066,27,16,10,047,17,37,27,150,,02,49,273,*74
$GPGSV,3,3,12,04,34,303,,05,26,297,,29,08,329,,26,03,020,*7A
$GPRMC,091509.000,A,4806.8524,N,00139.4054,W,0.72,128.36,060218,,,A*71
$GPGGA,091510.000,4806.8525,N,00139.4056,W,1,06,2.4,-11.0,M,48.3,M,,0000*5C
$GPGSA,M,3,09,07,06,30,23,16,,,,,,,3.2,2.4,2.1*37
$GPRMC,091510.000,A,4806.8525,N,00139.4056,W,0.30,128.36,060218,,,A*7C
$GPGGA,091511.000,4806.8527,N,00139.4060,W,1,06,2.4,-10.9,M,48.3,M,,0000*52
$GPGSA,M,3,09,07,06,30,23,16,,,,,,,3.2,2.4,2.1*37
$GPRMC,091511.000,A,4806.8527,N,00139.4060,W,0.45,128.36,060218,,,A*78
arfcn: 1016 bsic: 41 rxLev: -88 ber: 0.00 mcc: 208 mnc: 20 lac: 418 cellId: 23623 cellStatus: CELL_SUITABLE numArfcn: 1 arfcn: 1016 numChannels: 28 array: 787 788 791 792 793 794 795 879 880 883 884 975 977 978 979 981 982 983 986 987 1011 1012 1017 1018 1019 1020 1021 1022 pbcch: 0 nom: 2 rac: 6 spgc: 0 pat: 6 nco: 0 t3168: 1500 t3192: 500 drxmax: 4 ctrlAck: 1 bsCVmax: 8 alpha: 6 pcMeasCh: 1 
arfcn: 1014 rxLev: -89
$GPGGA,091512.000,4806.8531,N,00139.4064,W,1,06,2.4,-10.7,M,48.3,M,,0000*5C
$GPGSA,M,3,09,07,06,30,23,16,,,,,,,3.2,2.4,2.1*37
arfcn: 72 rxLev: -89
arfcn: 108 rxLev: -89
$GPRMC,091512.000,A,4806.8531,N,00139.4064,W,0.67,128.36,060218,,,A*78
$GPGGA,091513.000,4806.8534,N,00139.4063,W,1,06,2.4,-10.6,M,48.3,M,,0000*5E
$GPGSA,M,3,09,07,06,30,23,16,,,,,,,3.2,2.4,2.1*37
$GPRMC,091513.000,A,4806.8534,N,00139.4063,W,0.75,128.36,060218,,,A*78
$GPGGA,091514.000,4806.8535,N,00139.4057,W,1,06,2.4,-10.5,M,48.3,M,,0000*5C
$GPGSA,M,3,09,07,06,30,23,16,,,,,,,3.2,2.4,2.1*37
arfcn: 114 bsic: 6 rxLev: -89 ber: 0.00 mcc: 208 mnc: 10 lac: 49415 cellId: 44202 cellStatus: CELL_FORBIDDEN numArfcn: 2 arfcn: 80 114 numChannels: 20 array: 76 77 78 79 80 84 85 86 113 114 115 116 117 118 119 120 121 122 123 124 pbcch: 0 nom: 2 rac: 31 spgc: 0 pat: 6 nco: 0 t3168: 1000 t3192: 500 drxmax: 4 ctrlAck: 1 bsCVmax: 9 alpha: 10 pcMeasCh: 0 
arfcn: 106 rxLev: -90
$GPGSV,3,1,12,09,62,060,21,07,54,145,23,06,48,208,11,30,35,173,12*74
arfcn: 105 rxLev: -90
arfcn: 96 rxLev: -90
$GPGSV,3,2,12,23,26,066,27,16,10,047,18,37,27,150,,02,49,273,*7B
arfcn: 100 rxLev: -90
$GPGSV,3,3,12,04,34,303,,05,26,297,,29,08,329,,26,03,020,*7A
arfcn: 101 rxLev: -90
arfcn: 92 rxLev: -90
$GPRMC,091514.000,A,4806.8535,N,00139.4057,W,0.44,128.36,060218,,,A*7B
arfcn: 94 rxLev: -90
arfcn: 95 rxLev: -90
arfcn: 606 rxLev: -90
$GPGGA,091515.000,4806.8536,N,00139.4057,W,1,06,2.4,-10.3,M,48.3,M,,0000*58
$GPGSA,M,3,09,07,06,30,23,16,,,,,,,3.2,2.4,2.1*37
$GPRMC,091515.000,A,4806.8536,N,00139.4057,W,0.36,128.36,060218,,,A*7C
$GPGGA,091516.000,4806.8533,N,00139.4060,W,1,05,4.3,-10.5,M,48.3,M,,0000*5E
$GPGSA,M,3,09,07,30,23,16,,,,,,,,4.6,4.3,1.8*39
$GPRMC,091516.000,A,4806.8533,N,00139.4060,W,0.71,128.36,060218,,,A*7D
$GPGGA,091517.000,4806.8528,N,00139.4058,W,1,06,2.4,-10.4,M,48.3,M,,0000*5D
$GPGSA,M,3,09,07,06,30,23,16,,,,,,,3.2,2.4,2.1*37
$GPRMC,091517.000,A,4806.8528,N,00139.4058,W,1.32,138.49,060218,,,A*72
$GPGGA,091518.000,4806.8525,N,00139.4062,W,1,06,2.4,-10.2,M,48.3,M,,0000*50
$GPGSA,M,3,09,07,06,30,23,16,,,,,,,3.2,2.4,2.1*37
$GPRMC,091518.000,A,4806.8525,N,00139.4062,W,1.22,143.63,060218,,,A*7C
arfcn: 1017 bsic: 33 rxLev: -90 ber: 4.08 mcc: 208 mnc: 20 lac: 418 cellId: 20104 cellStatus: CELL_SUITABLE numArfcn: 3 arfcn: 986 987 1017 numChannels: 20 array: 788 790 885 975 976 978 979 980 981 982 986 987 1011 1012 1015 1017 1019 1020 1021 1022 pbcch: 0 nom: 2 rac: 7 spgc: 0 pat: 6 nco: 0 t3168: 1500 t3192: 500 drxmax: 4 ctrlAck: 1 bsCVmax: 8 alpha: 6 pcMeasCh: 1 
arfcn: 79 rxLev: -90
arfcn: 103 rxLev: -90
$GPGGA,091519.000,4806.8526,N,00139.4071,W,1,06,2.4,-10.1,M,48.3,M,,0000*53
arfcn: 97 rxLev: -90
arfcn: 99 rxLev: -90
$GPGSA,M,3,09,07,06,30,23,16,,,,,,,3.2,2.4,2.1*37
arfcn: 104 rxLev: -90
$GPGSV,3,1,12,09,62,060,20,07,54,145,22,06,48,208,10,30,35,173,11*76
arfcn: 109 rxLev: -90
arfcn: 52 rxLev: -90
$GPGSV,3,2,12,23,26,066,27,16,10,047,18,37,27,150,,02,49,273,*7B
arfcn: 47 rxLev: -90
arfcn: 25 rxLev: -91
$GPGSV,3,3,12,04,34,303,,05,26,297,,29,08,329,,26,03,020,*7A
arfcn: 98 rxLev: -91
arfcn: 102 rxLev: -91
$GPRMC,091519.000,A,4806.8526,N,00139.4071,W,0.82,143.63,060218,,,A*77
arfcn: 120 rxLev: -91
arfcn: 93 rxLev: -91
arfcn: 91 rxLev: -91
$GPGGA,091520.000,4806.8524,N,00139.4070,W,1,06,2.4,-9.9,M,48.3,M,,0000*6A
$GPGSA,M,3,09,07,06,30,23,16,,,,,,,3.2,2.4,2.1*37
$GPRMC,091520.000,A,4806.8524,N,00139.4070,W,0.56,143.63,060218,,,A*77
$GPGGA,091521.000,4806.8521,N,00139.4068,W,1,06,2.4,-9.8,M,48.3,M,,0000*66
$GPGSA,M,3,09,07,06,30,23,16,,,,,,,3.2,2.4,2.1*37
$GPRMC,091521.000,A,4806.8521,N,00139.4068,W,0.84,143.63,060218,,,A*75
$GPGGA,091522.000,4806.8521,N,00139.4075,W,1,06,2.4,-9.6,M,48.3,M,,0000*67
$GPGSA,M,3,09,07,06,30,23,16,,,,,,,3.2,2.4,2.1*37
$GPRMC,091522.000,A,4806.8521,N,00139.4075,W,0.51,143.63,060218,,,A*72
arfcn: 82 bsic: 63 rxLev: -91 ber: 0.00 mcc: 208 mnc: 10 lac: 49415 cellId: 53517 cellStatus: CELL_FORBIDDEN numArfcn: 2 arfcn: 82 84 numChannels: 17 array: 76 77 78 79 80 82 85 86 114 115 118 119 120 121 122 123 124 pbcch: 0 nom: 2 rac: 31 spgc: 0 pat: 6 nco: 0 t3168: 1000 t3192: 500 drxmax: 4 ctrlAck: 1 bsCVmax: 9 alpha: 10 pcMeasCh: 0 
arfcn: 81 rxLev: -91
$GPGGA,091523.000,4806.8520,N,00139.4079,W,1,05,4.3,-9.9,M,48.3,M,,0000*66
$GPGSA,M,3,09,07,30,23,16,,,,,,,,4.6,4.3,1.8*39
$GPRMC,091523.000,A,4806.8520,N,00139.4079,W,0.28,143.63,060218,,,A*70
$GPGGA,091524.000,4806.8523,N,00139.4090,W,1,06,2.4,-9.8,M,48.3,M,,0000*66
$GPGSA,M,3,09,07,06,30,23,16,,,,,,,3.2,2.4,2.1*37
$GPGSV,3,1,12,09,62,060,20,07,54,145,21,06,48,208,08,30,35,173,10*7D
$GPGSV,3,2,12,23,26,066,26,16,10,047,18,39,31,144,,02,49,273,*76
arfcn: 117 bsic: 12 rxLev: -91 ber: 0.00 mcc: 208 mnc: 10 lac: 49415 cellId: 3568 cellStatus: CELL_FORBIDDEN numArfcn: 2 arfcn: 82 117 numChannels: 17 array: 76 77 78 79 80 83 84 85 87 113 114 116 117 120 122 123 124 pbcch: 0 nom: 2 rac: 31 spgc: 0 pat: 6 nco: 0 t3168: 1000 t3192: 500 drxmax: 4 ctrlAck: 1 bsCVmax: 9 alpha: 10 pcMeasCh: 0 
arfcn: 123 rxLev: -92
$GPGSV,3,3,12,04,34,303,,05,26,297,,29,08,329,,26,03,020,*7A
$GPRMC,091524.000,A,4806.8523,N,00139.4090,W,0.42,143.63,060218,,,A*7F
$GPGGA,091525.000,4806.8524,N,00139.4099,W,1,06,2.4,-9.6,M,48.3,M,,0000*67
$GPGSA,M,3,09,07,06,30,23,16,,,,,,,3.2,2.4,2.1*37
$GPRMC,091525.000,A,4806.8524,N,00139.4099,W,0.68,143.63,060218,,,A*78
$GPGGA,091526.000,4806.8526,N,00139.4106,W,1,06,2.4,-9.4,M,48.3,M,,0000*63
$GPGSA,M,3,09,07,06,30,23,16,,,,,,,3.2,2.4,2.1*37
arfcn: 513 bsic: 27 rxLev: -92 ber: 0.00 mcc: 208 mnc: 01 lac: 10300 cellId: 27587 cellStatus: CELL_FORBIDDEN numArfcn: 16 arfcn: 519 520 521 522 523 524 525 526 596 597 598 599 600 601 602 603 numChannels: 14 array: 1 4 8 12 512 513 515 516 517 518 605 606 607 609 pbcch: 0 nom: 2 rac: 1 spgc: 0 pat: 6 nco: 0 t3168: 1000 t3192: 500 drxmax: 2 ctrlAck: 0 bsCVmax: 9 alpha: 5 pcMeasCh: 1 
arfcn: 23 rxLev: -92
$GPRMC,091526.000,A,4806.8526,N,00139.4106,W,0.84,143.63,060218,,,A*7C
arfcn: 9 rxLev: -93
arfcn: 110 rxLev: -93
arfcn: 774 rxLev: -93
arfcn: 775 rxLev: -93
arfcn: 776 rxLev: -93
arfcn: 777 rxLev: -93
arfcn: 724 rxLev: -93
$GPGGA,091527.000,4806.8529,N,00139.4117,W,1,06,2.4,-9.3,M,48.3,M,,0000*6A
arfcn: 750 rxLev: -94
$GPGSA,M,3,09,07,06,30,23,16,,,,,,,3.2,2.4,2.1*37
arfcn: 767 rxLev: -94
arfcn: 758 rxLev: -94
$GPRMC,091527.000,A,4806.8529,N,00139.4117,W,1.19,187.71,060218,,,A*7C
$GPGGA,091528.000,4806.8526,N,00139.4117,W,1,05,4.3,-9.5,M,48.3,M,,0000*6E
$GPGSA,M,3,09,07,30,23,16,,,,,,,,4.6,4.3,1.8*39
$GPRMC,091528.000,A,4806.8526,N,00139.4117,W,0.68,187.71,060218,,,A*7B
$GPGGA,091529.000,4806.8527,N,00139.4124,W,1,05,4.3,-9.7,M,48.3,M,,0000*6C
$GPGSA,M,3,09,07,30,23,16,,,,,,,,4.6,4.3,1.8*39
$GPGSV,3,1,12,09,62,060,21,07,54,145,21,30,35,173,10,23,26,066,26*75
$GPGSV,3,2,12,16,10,047,19,06,48,208,07,39,31,144,,02,49,273,*71
$GPGSV,3,3,12,04,34,303,,05,26,297,,29,08,329,,26,03,020,*7A
$GPRMC,091529.000,A,4806.8527,N,00139.4124,W,0.60,187.71,060218,,,A*73
$GPGGA,091530.000,4806.8524,N,00139.4130,W,1,05,4.3,-9.9,M,48.3,M,,0000*6C
$GPGSA,M,3,09,07,30,23,16,,,,,,,,4.6,4.3,1.8*39
$GPRMC,091530.000,A,4806.8524,N,00139.4130,W,0.91,187.71,060218,,,A*73
arfcn: 1019 bsic: 48 rxLev: -94 ber: 0.02 mcc: 208 mnc: 20 lac: 418 cellId: 20015 cellStatus: CELL_SUITABLE numArfcn: 2 arfcn: 1010 1019 numChannels: 20 array: 787 789 794 882 976 979 981 982 983 985 986 987 1012 1013 1015 1016 1017 1020 1021 1022 pbcch: 0 nom: 2 rac: 6 spgc: 0 pat: 6 nco: 0 t3168: 1500 t3192: 500 drxmax: 0 ctrlAck: 0 bsCVmax: 8 alpha: 4 pcMeasCh: 1 
$GPGGA,091531.000,4806.8523,N,00139.4133,W,1,05,4.3,-10.1,M,48.3,M,,0000*59
arfcn: 608 rxLev: -94
$GPGSA,M,3,09,07,30,23,16,,,,,,,,4.6,4.3,1.8*39
$GPRMC,091531.000,A,4806.8523,N,00139.4133,W,0.59,187.71,060218,,,A*72
$GPGGA,091532.000,4806.8522,N,00139.4137,W,1,05,4.3,-10.3,M,48.3,M,,0000*5D
$GPGSA,M,3,09,07,30,23,16,,,,,,,,4.6,4.3,1.8*39
$GPRMC,091532.000,A,4806.8522,N,00139.4137,W,0.34,187.71,060218,,,A*7F
arfcn: 15 bsic: 7 rxLev: -94 ber: 2.01 mcc: 208 mnc: 01 lac: 10300 cellId: 6474 cellStatus: CELL_FORBIDDEN numArfcn: 13 arfcn: 15 17 18 19 20 21 22 23 24 25 47 48 49 numChannels: 17 array: 1 3 5 6 8 10 11 13 513 514 515 516 517 604 605 607 610 pbcch: 0 nom: 2 rac: 1 spgc: 0 pat: 6 nco: 0 t3168: 1000 t3192: 500 drxmax: 2 ctrlAck: 0 bsCVmax: 9 alpha: 5 pcMeasCh: 1 
arfcn: 7 rxLev: -94
arfcn: 759 rxLev: -94
arfcn: 766 rxLev: -94
arfcn: 778 rxLev: -94
arfcn: 723 rxLev: -94
$GPGGA,091533.000,4806.8523,N,00139.4141,W,1,05,4.3,-10.5,M,48.3,M,,0000*5A
arfcn: 730 rxLev: -94
$GPGSA,M,3,09,07,30,23,16,,,,,,,,4.6,4.3,1.8*39
$GPRMC,091533.000,A,4806.8523,N,00139.4141,W,0.38,187.71,060218,,,A*72
arfcn: 716 rxLev: -94
arfcn: 715 rxLev: -95
arfcn: 729 rxLev: -95
arfcn: 732 rxLev: -95
arfcn: 733 rxLev: -95
arfcn: 725 rxLev: -95
arfcn: 722 rxLev: -95
arfcn: 768 rxLev: -95
arfcn: 773 rxLev: -95
$GPGGA,091534.000,4806.8527,N,00139.4149,W,1,06,2.4,-10.4,M,48.3,M,,0000*52
arfcn: 765 rxLev: -95
$GPGSA,M,3,09,07,06,30,23,16,,,,,,,3.2,2.4,2.1*37
arfcn: 760 rxLev: -95
arfcn: 757 rxLev: -95
$GPGSV,3,1,12,09,62,060,21,07,54,145,20,06,48,208,08,30,35,173,13*7E
arfcn: 751 rxLev: -95
arfcn: 84 rxLev: -95
$GPGSV,3,2,12,23,26,066,26,16,10,047,20,05,26,297,13,39,31,144,*7B
arfcn: 86 rxLev: -95
$GPGSV,3,3,12,02,49,273,,04,34,303,,29,08,329,,26,03,020,*7E
arfcn: 90 rxLev: -95
arfcn: 77 rxLev: -95
$GPRMC,091534.000,A,4806.8527,N,00139.4149,W,0.85,187.71,060218,,,A*7F
arfcn: 73 rxLev: -95
$GPGGA,091535.000,4806.8528,N,00139.4152,W,1,06,2.4,-10.2,M,48.3,M,,0000*50
$GPGSA,M,3,09,07,06,30,23,16,,,,,,,3.2,2.4,2.1*37
$GPRMC,091535.000,A,4806.8528,N,00139.4152,W,0.74,187.71,060218,,,A*75
$GPGGA,091536.000,4806.8534,N,00139.4166,W,1,07,1.2,-10.1,M,48.3,M,,0000*5E
$GPGSA,M,3,09,07,06,30,23,05,16,,,,,,2.4,1.2,2.1*30
$GPRMC,091536.000,A,4806.8534,N,00139.4166,W,0.85,187.71,060218,,,A*72
arfcn: 115 bsic: 43 rxLev: -95 ber: 0.04 mcc: 208 mnc: 10 lac: 49415 cellId: 55710 cellStatus: CELL_FORBIDDEN numArfcn: 2 arfcn: 87 115 numChannels: 22 array: 76 77 78 79 80 82 83 84 85 86 113 114 115 116 117 118 119 120 121 122 123 124 pbcch: 0 nom: 2 rac: 31 spgc: 0 pat: 6 nco: 0 t3168: 1000 t3192: 500 drxmax: 4 ctrlAck: 1 bsCVmax: 9 alpha: 10 pcMeasCh: 0 
arfcn: 756 rxLev: -95
arfcn: 721 rxLev: -95
arfcn: 720 rxLev: -95
arfcn: 741 rxLev: -95
$GPGGA,091537.000,4806.8536,N,00139.4173,W,1,07,1.2,-9.9,M,48.3,M,,0000*69
arfcn: 742 rxLev: -95
arfcn: 749 rxLev: -96
$GPGSA,M,3,09,07,06,30,23,05,16,,,,,,2.4,1.2,2.1*30
arfcn: 748 rxLev: -96
arfcn: 731 rxLev: -96
$GPRMC,091537.000,A,4806.8536,N,00139.4173,W,0.39,187.71,060218,,,A*72
arfcn: 752 rxLev: -96
arfcn: 753 rxLev: -96
arfcn: 764 rxLev: -96
arfcn: 6 rxLev: -96
arfcn: 22 rxLev: -96
arfcn: 1015 rxLev: -96
arfcn: 763 rxLev: -96
$GPGGA,091538.000,4806.8540,N,00139.4181,W,1,07,1.2,-9.8,M,48.3,M,,0000*6B
arfcn: 761 rxLev: -96
$GPGSA,M,3,09,07,06,30,23,05,16,,,,,,2.4,1.2,2.1*30
arfcn: 755 rxLev: -96
arfcn: 769 rxLev: -96
$GPRMC,091538.000,A,4806.8540,N,00139.4181,W,0.28,187.71,060218,,,A*71
arfcn: 734 rxLev: -96
arfcn: 744 rxLev: -96
arfcn: 740 rxLev: -96
arfcn: 717 rxLev: -96
arfcn: 738 rxLev: -97
arfcn: 743 rxLev: -97
arfcn: 747 rxLev: -97
arfcn: 727 rxLev: -97
$GPGGA,091539.000,4806.8543,N,00139.4189,W,1,07,1.2,-9.7,M,48.3,M,,0000*6E
arfcn: 728 rxLev: -97
arfcn: 719 rxLev: -97
$GPGSA,M,3,09,07,06,30,23,05,16,,,,,,2.4,1.2,2.1*30
arfcn: 726 rxLev: -97
arfcn: 770 rxLev: -97
$GPGSV,3,1,12,09,62,060,21,07,54,145,21,06,48,208,10,30,35,173,14*71
arfcn: 772 rxLev: -97
$GPGSV,3,2,12,23,26,066,26,05,26,297,13,16,10,047,20,39,31,144,*7B
arfcn: 779 rxLev: -97
$GPGSV,3,3,12,02,49,273,,04,34,303,,29,08,329,,26,03,020,*7E
arfcn: 781 rxLev: -97
$GPRMC,091539.000,A,4806.8543,N,00139.4189,W,0.32,187.71,060218,,,A*70
arfcn: 1021 rxLev: -97
arfcn: 121 rxLev: -97
arfcn: 75 rxLev: -97
$GPGGA,091540.000,4806.8547,N,00139.4193,W,1,07,1.2,-9.6,M,48.3,M,,0000*6E
arfcn: 21 rxLev: -97
arfcn: 48 rxLev: -97
$GPGSA,M,3,09,07,06,30,23,05,16,,,,,,2.4,1.2,2.1*30
arfcn: 51 rxLev: -97
$GPRMC,091540.000,A,4806.8547,N,00139.4193,W,0.16,187.71,060218,,,A*77
arfcn: 987 rxLev: -97
arfcn: 782 rxLev: -97
arfcn: 762 rxLev: -97
arfcn: 718 rxLev: -97
arfcn: 736 rxLev: -98
arfcn: 739 rxLev: -98
arfcn: 754 rxLev: -98
arfcn: 780 rxLev: -98
$GPGGA,091541.000,4806.8550,N,00139.4200,W,1,07,1.2,-9.5,M,48.3,M,,0000*63
arfcn: 771 rxLev: -98
$GPGSA,M,3,09,07,06,30,23,05,16,,,,,,2.4,1.2,2.1*30
arfcn: 16 rxLev: -98
arfcn: 111 rxLev: -98
$GPRMC,091541.000,A,4806.8550,N,00139.4200,W,0.26,187.71,060218,,,A*7A
arfcn: 975 rxLev: -98
arfcn: 118 rxLev: -98
$GPGGA,091542.000,4806.8553,N,00139.4207,W,1,07,1.2,-9.4,M,48.3,M,,0000*65
$GPGSA,M,3,09,07,06,30,05,23,16,,,,,,2.4,1.2,2.1*30
$GPRMC,091542.000,A,4806.8553,N,00139.4207,W,0.21,187.71,060218,,,A*7A
$GPGGA,091543.000,4806.8556,N,00139.4212,W,1,07,1.2,-9.2,M,48.3,M,,0000*63
$GPGSA,M,3,09,07,06,30,05,23,16,,,,,,2.4,1.2,2.1*30
$GPRMC,091543.000,A,4806.8556,N,00139.4212,W,0.30,187.71,060218,,,A*7A
$GPGGA,091544.000,4806.8560,N,00139.4216,W,1,07,1.2,-9.1,M,48.3,M,,0000*66
$GPGSA,M,3,09,07,06,30,05,23,16,,,,,,2.4,1.2,2.1*30
$GPGSV,3,1,12,09,61,060,20,07,55,143,21,06,47,207,10,30,36,173,14*77
arfcn: 1011 bsic: 26 rxLev: -98 ber: 7.05 mcc: 208 mnc: 20 lac: 418 cellId: 17727 cellStatus: CELL_SUITABLE numArfcn: 1 arfcn: 1011 numChannels: 0 array:
arfcn: 617 rxLev: -98
$GPGSV,3,2,12,05,27,297,14,23,25,066,26,16,10,046,21,39,31,144,*7E
arfcn: 660 rxLev: -98
$GPGSV,3,3,12,02,49,271,,04,34,302,,29,08,328,,26,03,019,*76
arfcn: 735 rxLev: -98
arfcn: 737 rxLev: -98
$GPRMC,091544.000,A,4806.8560,N,00139.4216,W,0.70,187.71,060218,,,A*78
arfcn: 746 rxLev: -99
arfcn: 610 rxLev: -99
$GPGGA,091545.000,4806.8564,N,00139.4218,W,1,07,1.2,-9.1,M,48.3,M,,0000*6D
arfcn: 517 rxLev: -99
arfcn: 609 rxLev: -99
$GPGSA,M,3,09,07,06,30,05,23,16,,,,,,2.4,1.2,2.1*30
arfcn: 659 rxLev: -99
$GPRMC,091545.000,A,4806.8564,N,00139.4218,W,0.85,187.71,060218,,,A*79
arfcn: 661 rxLev: -99
arfcn: 663 rxLev: -99
arfcn: 116 rxLev: -99
arfcn: 977 rxLev: -99
$GPGGA,091546.000,4806.8569,N,00139.4221,W,1,07,1.2,-9.0,M,48.3,M,,0000*68
$GPGSA,M,3,09,07,06,30,05,23,16,,,,,,2.4,1.2,2.1*30
$GPRMC,091546.000,A,4806.8569,N,00139.4221,W,0.94,187.71,060218,,,A*7D
$GPGGA,091547.000,4806.8574,N,00139.4223,W,1,07,1.2,-8.8,M,48.3,M,,0000*6E
$GPGSA,M,3,09,07,06,30,05,23,16,,,,,,2.4,1.2,2.1*30
$GPRMC,091547.000,A,4806.8574,N,00139.4223,W,0.91,187.71,060218,,,A*77
arfcn: 83 bsic: 42 rxLev: -99 ber: 5.04 mcc: FFF mnc: FF lac: 65535 cellId: 0 cellStatus: CELL_OTHER numArfcn: 0 arfcn: numChannels: 0 array:
arfcn: 745 rxLev: -99
arfcn: 788 rxLev: -99
arfcn: 976 rxLev: -100
arfcn: 664 rxLev: -100
$GPGGA,091548.000,4806.8579,N,00139.4224,W,1,07,1.2,-8.6,M,48.3,M,,0000*65
$GPGSA,M,3,09,07,06,30,05,23,16,,,,,,2.4,1.2,2.1*30
arfcn: 665 rxLev: -100
arfcn: 669 rxLev: -100
$GPRMC,091548.000,A,4806.8579,N,00139.4224,W,0.79,187.71,060218,,,A*74
arfcn: 636 rxLev: -100
arfcn: 638 rxLev: -100
arfcn: 516 rxLev: -100
arfcn: 74 rxLev: -100
arfcn: 119 rxLev: -101
arfcn: 113 rxLev: -101
arfcn: 1018 rxLev: -101
arfcn: 633 rxLev: -101
$GPGGA,091549.000,4806.8583,N,00139.4225,W,1,07,1.2,-8.5,M,48.3,M,,0000*63
arfcn: 642 rxLev: -101
arfcn: 618 rxLev: -101
$GPGSA,M,3,09,07,06,30,05,23,16,,,,,,2.4,1.2,2.1*30
arfcn: 667 rxLev: -101
arfcn: 666 rxLev: -101
$GPGSV,3,1,12,09,61,060,20,07,55,143,22,06,47,207,09,30,36,173,13*7B
arfcn: 671 rxLev: -101
$GPGSV,3,2,12,05,27,297,12,23,25,066,26,16,10,046,21,39,31,144,*78
arfcn: 662 rxLev: -101
arfcn: 657 rxLev: -101
$GPGSV,3,3,12,02,49,271,,04,34,302,,29,08,328,,26,03,019,*76
arfcn: 647 rxLev: -101
arfcn: 682 rxLev: -101
$GPRMC,091549.000,A,4806.8583,N,00139.4225,W,0.80,187.71,060218,,,A*77
arfcn: 679 rxLev: -101
arfcn: 704 rxLev: -101
arfcn: 696 rxLev: -101
$GPGGA,091550.000,4806.8586,N,00139.4226,W,1,07,1.2,-8.3,M,48.3,M,,0000*6B
arfcn: 673 rxLev: -101
$GPGSA,M,3,09,07,06,30,05,23,16,,,,,,2.4,1.2,2.1*30
arfcn: 624 rxLev: -101
$GPRMC,091550.000,A,4806.8586,N,00139.4226,W,0.57,187.71,060218,,,A*73
arfcn: 630 rxLev: -101
arfcn: 639 rxLev: -101
arfcn: 640 rxLev: -101
arfcn: 643 rxLev: -101
arfcn: 644 rxLev: -101
arfcn: 634 rxLev: -101
arfcn: 631 rxLev: -101
arfcn: 632 rxLev: -101
$GPGGA,091551.000,4806.8587,N,00139.4227,W,1,07,1.2,-8.1,M,48.3,M,,0000*68
$GPGSA,M,3,09,07,06,30,05,23,16,,,,,,2.4,1.2,2.1*30
$GPRMC,091551.000,A,4806.8587,N,00139.4227,W,0.61,187.71,060218,,,A*77
$GPGGA,091552.000,4806.8587,N,00139.4228,W,1,07,1.2,-7.9,M,48.3,M,,0000*63
$GPGSA,M,3,09,07,06,30,05,23,16,,,,,,2.4,1.2,2.1*30
$GPRMC,091552.000,A,4806.8587,N,00139.4228,W,0.58,187.71,060218,,,A*71
$GPGGA,091553.000,4806.8588,N,00139.4229,W,1,07,1.2,-7.7,M,48.3,M,,0000*62
$GPGSA,M,3,09,07,06,30,05,23,16,,,,,,2.4,1.2,2.1*30
$GPRMC,091553.000,A,4806.8588,N,00139.4229,W,0.53,187.71,060218,,,A*75
$GPGGA,091554.000,4806.8592,N,00139.4232,W,1,06,1.2,-7.5,M,48.3,M,,0000*67
$GPGSA,M,3,09,07,30,05,23,16,,,,,,,2.4,1.2,2.1*36
$GPGSV,3,1,12,09,61,060,21,07,55,143,22,30,36,173,12,05,27,297,11*7E
$GPGSV,3,2,12,23,25,066,26,16,10,046,21,06,47,207,08,26,03,019,05*7C
$GPGSV,3,3,12,43,00,000,,02,49,271,,04,34,302,,29,08,328,*7E
$GPRMC,091554.000,A,4806.8592,N,00139.4232,W,0.85,187.71,060218,,,A*78
$GPGGA,091555.000,4806.8592,N,00139.4232,W,1,05,1.8,-7.8,M,48.3,M,,0000*62
$GPGSA,M,3,09,07,05,23,16,,,,,,,,2.7,1.8,2.1*3C
$GPRMC,091555.000,A,4806.8592,N,00139.4232,W,0.51,187.71,060218,,,A*70
$GPGGA,091556.000,4806.8593,N,00139.4230,W,1,05,1.8,-8.1,M,48.3,M,,0000*64
$GPGSA,M,3,09,07,05,23,16,,,,,,,,2.7,1.8,2.1*3C
arfcn: 1012 bsic: 19 rxLev: -101 ber: 1.05 mcc: 208 mnc: 20 lac: 418 cellId: 20011 cellStatus: CELL_OTHER numArfcn: 2 arfcn: 988 1012 numChannels: 24 array: 787 789 794 882 976 977 978 979 980 981 982 983 985 986 987 1011 1013 1014 1015 1016 1017 1019 1020 1021 pbcch: 0 nom: 2 rac: 6 spgc: 0 pat: 6 nco: 0 t3168: 1500 t3192: 500 drxmax: 0 ctrlAck: 0 bsCVmax: 8 alpha: 4 pcMeasCh: 1 
arfcn: 89 rxLev: -101
$GPRMC,091556.000,A,4806.8593,N,00139.4230,W,0.84,187.71,060218,,,A*78
arfcn: 17 rxLev: -102
arfcn: 645 rxLev: -102
arfcn: 622 rxLev: -102
arfcn: 675 rxLev: -102
arfcn: 658 rxLev: -102
arfcn: 655 rxLev: -102
arfcn: 695 rxLev: -102
$GPGGA,091557.000,4806.8593,N,00139.4227,W,1,05,1.8,-8.4,M,48.3,M,,0000*66
arfcn: 698 rxLev: -102
$GPGSA,M,3,09,07,05,23,16,,,,,,,,2.7,1.8,2.1*3C
arfcn: 703 rxLev: -102
arfcn: 706 rxLev: -102
$GPRMC,091557.000,A,4806.8593,N,00139.4227,W,1.19,124.25,060218,,,A*72
arfcn: 680 rxLev: -102
arfcn: 692 rxLev: -102
arfcn: 693 rxLev: -102
arfcn: 694 rxLev: -102
arfcn: 790 rxLev: -102
arfcn: 687 rxLev: -102
arfcn: 688 rxLev: -102
arfcn: 681 rxLev: -102
$GPGGA,091558.000,4806.8594,N,00139.4225,W,1,05,1.8,-8.6,M,48.3,M,,0000*6E
arfcn: 684 rxLev: -102
arfcn: 697 rxLev: -102
$GPGSA,M,3,09,07,05,23,16,,,,,,,,2.7,1.8,2.1*3C
arfcn: 699 rxLev: -102
$GPRMC,091558.000,A,4806.8594,N,00139.4225,W,1.29,92.28,060218,,,A*4A
arfcn: 648 rxLev: -102
arfcn: 650 rxLev: -102
arfcn: 651 rxLev: -102
arfcn: 653 rxLev: -102
arfcn: 677 rxLev: -102
arfcn: 674 rxLev: -102
arfcn: 672 rxLev: -102
arfcn: 621 rxLev: -102
$GPGGA,091559.000,4806.8597,N,00139.4227,W,1,05,1.8,-8.8,M,48.3,M,,0000*60
arfcn: 620 rxLev: -102
$GPGSA,M,3,09,07,05,23,16,,,,,,,,2.7,1.8,2.1*3C
arfcn: 628 rxLev: -102
arfcn: 626 rxLev: -102
$GPGSV,3,1,12,09,61,060,21,07,55,143,21,05,27,297,17,23,25,066,26*79
arfcn: 646 rxLev: -102
$GPGSV,3,2,12,16,10,046,21,06,47,207,07,26,03,019,04,30,36,173,07*74
arfcn: 635 rxLev: -102
arfcn: 607 rxLev: -102
$GPGSV,3,3,12,43,00,000,,02,49,271,,04,34,302,,29,08,328,*7E
arfcn: 0 rxLev: -102
arfcn: 1013 rxLev: -103
$GPRMC,091559.000,A,4806.8597,N,00139.4227,W,1.41,59.54,060218,,,A*48
arfcn: 988 rxLev: -103
arfcn: 637 rxLev: -103
arfcn: 641 rxLev: -103
$GPGGA,091600.000,4806.8597,N,00139.4225,W,1,05,1.8,-9.1,M,48.3,M,,0000*65
arfcn: 629 rxLev: -103
$GPGSA,M,3,09,07,05,23,16,,,,,,,,2.7,1.8,2.1*3C
arfcn: 676 rxLev: -103
arfcn: 668 rxLev: -103
$GPRMC,091600.000,A,4806.8597,N,00139.4225,W,1.26,52.22,060218,,,A*4E
arfcn: 654 rxLev: -103
arfcn: 649 rxLev: -103
arfcn: 656 rxLev: -103
arfcn: 700 rxLev: -103
arfcn: 701 rxLev: -103
arfcn: 702 rxLev: -103
arfcn: 683 rxLev: -103
$GPGGA,091601.000,4806.8598,N,00139.4223,W,1,05,1.8,-9.4,M,48.3,M,,0000*68
arfcn: 689 rxLev: -103
arfcn: 690 rxLev: -103
$GPGSA,M,3,09,07,05,23,16,,,,,,,,2.7,1.8,2.1*3C
arfcn: 685 rxLev: -103
arfcn: 686 rxLev: -103
$GPRMC,091601.000,A,4806.8598,N,00139.4223,W,1.02,52.22,060218,,,A*40
arfcn: 705 rxLev: -103
arfcn: 670 rxLev: -103
arfcn: 678 rxLev: -103
arfcn: 627 rxLev: -103
arfcn: 623 rxLev: -103
arfcn: 619 rxLev: -103
arfcn: 1022 rxLev: -103
arfcn: 518 rxLev: -103
$GPGGA,091602.000,4806.8597,N,00139.4224,W,1,05,1.8,-9.6,M,48.3,M,,0000*61
arfcn: 20 rxLev: -103
$GPGSA,M,3,09,07,05,23,16,,,,,,,,2.7,1.8,2.1*3C
arfcn: 50 rxLev: -104
arfcn: 1010 rxLev: -104
$GPRMC,091602.000,A,4806.8597,N,00139.4224,W,0.67,52.22,060218,,,A*49
arfcn: 625 rxLev: -104
arfcn: 652 rxLev: -104
arfcn: 691 rxLev: -104
arfcn: 603 rxLev: -104
arfcn: 596 rxLev: -104
arfcn: 49 rxLev: -105
arfcn: 18 rxLev: -105
$GPGGA,091603.000,4806.8599,N,00139.4225,W,1,06,1.2,-9.5,M,48.3,M,,0000*65
arfcn: 600 rxLev: -105
$GPGSA,M,3,09,07,30,05,23,16,,,,,,,2.4,1.2,2.1*36
arfcn: 546 rxLev: -105
arfcn: 786 rxLev: -105
$GPRMC,091603.000,A,4806.8599,N,00139.4225,W,0.86,52.22,060218,,,A*48
arfcn: 545 rxLev: -106
arfcn: 19 rxLev: -107
arfcn: 87 rxLev: -107
arfcn: 112 rxLev: -107
arfcn: 547 rxLev: -107
arfcn: 882 rxLev: -107
arfcn: 549 rxLev: -108
arfcn: 88 rxLev: -108
Network survey ended
$GPGGA,091604.000,4806.8597,N,00139.4226,W,1,05,1.8,-9.8,M,48.3,M,,0000*6B
Survey end at #CCLK: "18/02/06,10:16:04+04"
Survey duration: 136 seconds, 38 bases detected over 447 freqs scanned.
$GPGSA,M,3,09,07,05,23,16,,,,,,,,2.7,1.8,2.1*3C
$GPGSV,3,1,12,09,61,060,22,07,55,143,20,05,27,297,17,23,25,066,26*7B
$GPGSV,3,2,12,16,10,046,21,06,47,207,04,26,03,019,04,30,36,173,10*71
$GPGSV,3,3,12,43,00,000,,02,49,271,,04,34,302,,29,08,328,*7E
$GPRMC,091604.000,A,4806.8597,N,00139.4226,W,0.77,52.22,060218,,,A*4C
$GPGGA,091605.000,4806.8597,N,00139.4226,W,1,06,1.2,-9.6,M,48.3,M,,0000*6D
$GPGSA,M,3,09,07,30,05,23,16,,,,,,,2.4,1.2,2.1*36
$GPRMC,091605.000,A,4806.8597,N,00139.4226,W,0.47,52.22,060218,,,A*4E
$GPGGA,091606.000,4806.8595,N,00139.4227,W,1,05,1.8,-9.9,M,48.3,M,,0000*6B
$GPGSA,M,3,09,07,05,23,16,,,,,,,,2.7,1.8,2.1*3C
$GPRMC,091606.000,A,4806.8595,N,00139.4227,W,0.55,52.22,060218,,,A*4D
Survey start at #CCLK: "18/02/06,10:16:06+04"
at#csurv
Network survey started ...
$GPGGA,091607.000,4806.8596,N,00139.4231,W,1,06,1.2,-9.8,M,48.3,M,,0000*66
$GPGSA,M,3,09,07,30,05,23,16,,,,,,,2.4,1.2,2.1*36
$GPRMC,091607.000,A,4806.8596,N,00139.4231,W,1.02,52.22,060218,,,A*4B
$GPGGA,091608.000,4806.8599,N,00139.4230,W,1,06,1.2,-9.7,M,48.3,M,,0000*68
$GPGSA,M,3,09,07,30,05,23,16,,,,,,,2.4,1.2,2.1*36
$GPRMC,091608.000,A,4806.8599,N,00139.4230,W,0.76,52.22,060218,,,A*48
$GPGGA,091609.000,4806.8602,N,00139.4233,W,1,06,1.2,-9.5,M,48.3,M,,0000*69
$GPGSA,M,3,09,07,30,05,23,16,,,,,,,2.4,1.2,2.1*36
$GPGSV,3,1,12,09,61,060,23,07,55,143,20,30,36,173,13,05,27,297,17*79
$GPGSV,3,2,12,23,25,066,26,16,10,046,21,02,49,271,10,06,47,207,06*72
$GPGSV,3,3,12,26,03,019,05,43,00,000,,04,34,302,,29,08,328,*7F
$GPRMC,091609.000,A,4806.8602,N,00139.4233,W,0.82,52.22,060218,,,A*40
$GPGGA,091610.000,4806.8605,N,00139.4236,W,1,06,1.2,-9.4,M,48.3,M,,0000*62
$GPGSA,M,3,09,07,30,05,23,16,,,,,,,2.4,1.2,2.1*36
$GPRMC,091610.000,A,4806.8605,N,00139.4236,W,0.96,52.22,060218,,,A*4F
$GPGGA,091611.000,4806.8609,N,00139.4241,W,1,07,1.1,-9.3,M,48.3,M,,0000*6A
$GPGSA,M,3,09,07,02,30,05,23,16,,,,,,2.3,1.1,2.0*31
$GPRMC,091611.000,A,4806.8609,N,00139.4241,W,0.64,52.22,060218,,,A*4F
$GPGGA,091612.000,4806.8613,N,00139.4244,W,1,07,1.1,-9.1,M,48.3,M,,0000*65
$GPGSA,M,3,09,07,02,30,05,23,16,,,,,,2.3,1.1,2.0*31
$GPRMC,091612.000,A,4806.8613,N,00139.4244,W,0.58,52.22,060218,,,A*4D
$GPGGA,091613.000,4806.8619,N,00139.4246,W,1,07,1.1,-9.0,M,48.3,M,,0000*6D
$GPGSA,M,3,09,07,02,30,05,23,16,,,,,,2.3,1.1,2.0*31
$GPRMC,091613.000,A,4806.8619,N,00139.4246,W,0.77,52.22,060218,,,A*49
$GPGGA,091614.000,4806.8623,N,00139.4249,W,1,07,1.1,-8.8,M,48.3,M,,0000*65
$GPGSA,M,3,09,07,02,30,05,23,16,,,,,,2.3,1.1,2.0*31
$GPGSV,3,1,12,09,61,060,23,07,55,143,21,02,49,271,12,30,36,173,15*7C
$GPGSV,3,2,12,05,27,297,17,23,25,066,26,16,10,046,21,06,47,207,06*72
$GPGSV,3,3,12,43,00,000,,04,34,302,,29,08,328,,26,03,019,*7A
$GPRMC,091614.000,A,4806.8623,N,00139.4249,W,0.54,52.22,060218,,,A*49
$GPGGA,091615.000,4806.8625,N,00139.4249,W,1,07,1.1,-8.6,M,48.3,M,,0000*6C
$GPGSA,M,3,09,07,02,30,05,23,16,,,,,,2.3,1.1,2.0*31
arfcn: 981 bsic: 46 rxLev: -45 ber: 0.00 mcc: 208 mnc: 20 lac: 418 cellId: 21807 cellStatus: CELL_SUITABLE numArfcn: 1 arfcn: 981 numChannels: 16 array: 787 790 791 793 796 882 884 979 982 983 985 1012 1014 1017 1019 1020 pbcch: 0 nom: 2 rac: 6 spgc: 0 pat: 6 nco: 0 t3168: 1500 t3192: 500 drxmax: 0 ctrlAck: 0 bsCVmax: 8 alpha: 6 pcMeasCh: 1 
arfcn: 985 bsic: 44 rxLev: -50 ber: 0.00 mcc: 208 mnc: 20 lac: 418 cellId: 21808 cellStatus: CELL_SUITABLE numArfcn: 1 arfcn: 985 numChannels: 25 array: 975 977 978 979 980 981 982 983 1011 1012 1014 1015 1017 1019 1020 1021 1022 787 788 790 793 795 796 879 884 pbcch: 0 nom: 2 rac: 6 spgc: 0 pat: 6 nco: 0 t3168: 1500 t3192: 500 drxmax: 0 ctrlAck: 0 bsCVmax: 8 alpha: 6 pcMeasCh: 1 
arfcn: 998 rxLev: -60
arfcn: 997 rxLev: -61
$GPRMC,091615.000,A,4806.8625,N,00139.4249,W,0.26,52.22,060218,,,A*4B
arfcn: 996 rxLev: -61
arfcn: 995 rxLev: -61
arfcn: 999 rxLev: -61
arfcn: 1000 rxLev: -61
arfcn: 1001 rxLev: -61
arfcn: 990 rxLev: -61
arfcn: 991 rxLev: -61
$GPGGA,091616.000,4806.8625,N,00139.4249,W,1,07,1.1,-8.5,M,48.3,M,,0000*6C
arfcn: 992 rxLev: -61
arfcn: 993 rxLev: -62
$GPGSA,M,3,09,07,02,30,05,23,16,,,,,,2.3,1.1,2.0*31
arfcn: 994 rxLev: -62
arfcn: 1003 rxLev: -62
$GPRMC,091616.000,A,4806.8625,N,00139.4249,W,0.80,52.22,060218,,,A*44
arfcn: 1004 rxLev: -62
arfcn: 1006 rxLev: -62
arfcn: 1007 rxLev: -62
arfcn: 1005 rxLev: -62
arfcn: 1002 rxLev: -62
arfcn: 1008 rxLev: -63
arfcn: 982 rxLev: -63
arfcn: 980 rxLev: -64
$GPGGA,091617.000,4806.8627,N,00139.4248,W,1,08,1.1,-8.3,M,48.3,M,,0000*67
$GPGSA,M,3,09,07,02,06,30,05,23,16,,,,,2.3,1.1,2.0*37
$GPRMC,091617.000,A,4806.8627,N,00139.4248,W,1.09,52.22,060218,,,A*46
$GPGGA,091618.000,4806.8629,N,00139.4249,W,1,08,1.1,-8.2,M,48.3,M,,0000*66
$GPGSA,M,3,09,07,02,06,30,05,23,16,,,,,2.3,1.1,2.0*37
$GPRMC,091618.000,A,4806.8629,N,00139.4249,W,0.94,52.22,060218,,,A*43
