$GPGSA,M,1,,,,,,,,,,,,,,,*12
$GPRMC,021248.518,V,,,,,,,060218,,,N*41
Survey start at #CCLK: "18/02/06,03:12:48+04"
at#csurv
Network survey started ...
Survey end at #CCLK: "18/02/06,03:12:48+04"
Survey duration: 0 seconds, 0 bases detected over 0 freqs scanned.
$GPGGA,021249.518,,,,,0,04,2.9,,M,0.0,M,,0000*77
$GPGSA,M,1,,,,,,,,,,,,,,,*12
$GPRMC,021249.518,V,,,,,,,060218,,,N*40
$GPGGA,021250.518,,,,,0,04,2.9,,M,0.0,M,,0000*7F
$GPGSA,M,1,,,,,,,,,,,,,,,*12
$GPGSV,3,1,12,08,86,209,19,27,46,130,19,10,41,056,22,32,22,105,17*74
$GPGSV,3,2,12,33,33,198,,11,44,282,,01,36,266,,22,25,206,*76
$GPGSV,3,3,12,28,21,318,,14,12,125,,18,11,046,,03,05,209,*7F
$GPRMC,021250.518,V,,,,,,,060218,,,N*48
$GPGGA,021251.518,,,,,0,04,2.9,,M,0.0,M,,0000*7E
Survey start at #CCLK: "18/02/06,03:12:50+04"
at#csurv
$GPGSA,M,1,,,,,,,,,,,,,,,*12
Network survey started ...
$GPRMC,021251.518,V,,,,,,,060218,,,N*49
$GPGGA,021252.518,,,,,0,04,2.9,,M,0.0,M,,0000*7D
$GPGSA,M,1,,,,,,,,,,,,,,,*12
$GPRMC,021252.518,V,,,,,,,060218,,,N*4A
$GPGGA,021253.518,,,,,0,04,2.9,,M,0.0,M,,0000*7C
$GPGSA,M,1,,,,,,,,,,,,,,,*12
$GPRMC,021253.518,V,,,,,,,060218,,,N*4B
$GPGGA,021254.518,,,,,0,04,2.9,,M,0.0,M,,0000*7B
$GPGSA,M,1,,,,,,,,,,,,,,,*12
$GPRMC,021254.518,V,,,,,,,060218,,,N*4C
$GPGGA,021255.518,,,,,0,04,2.9,,M,0.0,M,,0000*7A
$GPGSA,M,1,,,,,,,,,,,,,,,*12
$GPGSV,3,1,12,08,86,209,18,27,46,130,19,10,41,056,21,32,22,105,17*76
$GPGSV,3,2,12,33,33,198,,11,44,282,,01,36,266,,22,25,206,*76
$GPGSV,3,3,12,28,21,318,,14,12,125,,18,11,046,,03,05,209,*7F
$GPRMC,021255.518,V,,,,,,,060218,,,N*4D
$GPGGA,021256.518,,,,,0,04,2.9,,M,0.0,M,,0000*79
$GPGSA,M,1,,,,,,,,,,,,,,,*12
$GPRMC,021256.518,V,,,,,,,060218,,,N*4E
$GPGGA,021257.518,,,,,0,04,2.9,,M,0.0,M,,0000*78
$GPGSA,M,1,,,,,,,,,,,,,,,*12
$GPRMC,021257.518,V,,,,,,,060218,,,N*4F
arfcn: 981 bsic: 46 rxLev: -52 ber: 0.00 mcc: 208 mnc: 20 lac: 418 cellId: 21807 cellStatus: CELL_SUITABLE numArfcn: 1 arfcn: 981 numChannels: 16 array: 979 982 983 985 1012 1014 1017 1019 1020 787 790 791 793 796 882 884 pbcch: 0 nom: 2 rac: 6 spgc: 0 pat: 6 nco: 0 t3168: 1500 t3192: 500 drxmax: 0 ctrlAck: 0 bsCVmax: 8 alpha: 6 pcMeasCh: 1 
$GPGGA,021258.518,,,,,0,04,2.9,,M,0.0,M,,0000*77
$GPGSA,M,1,,,,,,,,,,,,,,,*12
$GPRMC,021258.518,V,,,,,,,060218,,,N*40
$GPGGA,021259.518,,,,,0,04,2.9,,M,0.0,M,,0000*76
$GPGSA,M,1,,,,,,,,,,,,,,,*12
$GPRMC,021259.518,V,,,,,,,060218,,,N*41
$GPGGA,021300.518,,,,,0,04,2.9,,M,0.0,M,,0000*7B
$GPGSA,M,1,,,,,,,,,,,,,,,*12
$GPGSV,3,1,12,08,86,209,17,27,46,130,19,10,41,056,21,32,22,105,17*79
$GPGSV,3,2,12,33,33,198,,11,44,282,,01,36,266,,22,25,206,*76
$GPGSV,3,3,12,28,21,318,,14,12,125,,18,11,046,,03,05,209,*7F
$GPRMC,021300.518,V,,,,,,,060218,,,N*4C
$GPGGA,021301.518,,,,,0,04,2.9,,M,0.0,M,,0000*7A
$GPGSA,M,1,,,,,,,,,,,,,,,*12
$GPRMC,021301.518,V,,,,,,,060218,,,N*4D
$GPGGA,021302.518,,,,,0,04,2.9,,M,0.0,M,,0000*79
$GPGSA,M,1,,,,,,,,,,,,,,,*12
$GPRMC,021302.518,V,,,,,,,060218,,,N*4E
$GPGGA,021303.518,,,,,0,04,2.9,,M,0.0,M,,0000*78
$GPGSA,M,1,,,,,,,,,,,,,,,*12
$GPRMC,021303.518,V,,,,,,,060218,,,N*4F
$GPGGA,021304.523,,,,,0,04,2.9,,M,0.0,M,,0000*77
$GPGSA,M,1,,,,,,,,,,,,,,,*12
$GPRMC,021304.523,V,,,,,,,060218,,,N*40
Survey end at #CCLK: "18/02/06,03:13:04+04"
Survey duration: 13 seconds, 1 bases detected over 1 freqs scanned.
$GPGGA,021305.518,,,,,0,04,2.9,,M,0.0,M,,0000*7E
$GPGSA,M,1,,,,,,,,,,,,,,,*12
$GPGSV,3,1,12,08,86,209,17,27,46,130,19,10,41,056,21,32,22,105,18*76
$GPGSV,3,2,12,33,33,198,,11,44,282,,01,36,266,,22,25,206,*76
$GPGSV,3,3,12,28,21,318,,14,12,125,,18,11,046,,03,05,209,*7F
$GPRMC,021305.518,V,,,,,,,060218,,,N*49
Survey start at #CCLK: "18/02/06,03:13:05+04"
at#csurv
Network survey started ...
$GPGGA,021306.518,,,,,0,04,2.9,,M,0.0,M,,0000*7D
Survey end at #CCLK: "18/02/06,03:13:05+04"
Survey duration: 0 seconds, 0 bases detected over 0 freqs scanned.
$GPGSA,M,1,,,,,,,,,,,,,,,*12
$GPRMC,021306.518,V,,,,,,,060218,,,N*4A
$GPGGA,021307.518,,,,,0,04,2.9,,M,0.0,M,,0000*7C
$GPGSA,M,1,,,,,,,,,,,,,,,*12
$GPRMC,021307.518,V,,,,,,,060218,,,N*4B
$GPGGA,021308.518,,,,,0,04,2.9,,M,0.0,M,,0000*73
$GPGSA,M,1,,,,,,,,,,,,,,,*12
$GPRMC,021308.518,V,,,,,,,060218,,,N*44
Survey start at #CCLK: "18/02/06,03:13:07+04"
at#csurv
Network survey started ...
Survey end at #CCLK: "18/02/06,03:13:07+04"
Survey duration: 0 seconds, 0 bases detected over 0 freqs scanned.
$GPGGA,021309.518,,,,,0,04,2.9,,M,0.0,M,,0000*72
$GPGSA,M,1,,,,,,,,,,,,,,,*12
$GPRMC,021309.518,V,,,,,,,060218,,,N*45
$GPGGA,021310.518,,,,,0,04,2.9,,M,0.0,M,,0000*7A
$GPGSA,M,1,,,,,,,,,,,,,,,*12
$GPGSV,3,1,12,08,86,209,16,27,46,130,19,10,41,056,21,32,22,105,18*77
$GPGSV,3,2,12,33,33,198,,11,44,282,,01,36,266,,22,25,206,*76
$GPGSV,3,3,12,28,21,318,,14,12,125,,18,11,046,,03,05,209,*7F
Survey start at #CCLK: "18/02/06,03:13:10+04"
at#csurv
Network survey started ...
$GPRMC,021310.518,V,,,,,,,060218,,,N*4D
$GPGGA,021311.518,,,,,0,04,2.9,,M,0.0,M,,0000*7B
$GPGSA,M,1,,,,,,,,,,,,,,,*12
$GPRMC,021311.518,V,,,,,,,060218,,,N*4C
$GPGGA,021312.518,,,,,0,04,2.9,,M,0.0,M,,0000*78
$GPGSA,M,1,,,,,,,,,,,,,,,*12
$GPRMC,021312.518,V,,,,,,,060218,,,N*4F
$GPGGA,021313.518,,,,,0,04,2.9,,M,0.0,M,,0000*79
$GPGSA,M,1,,,,,,,,,,,,,,,*12
$GPRMC,021313.518,V,,,,,,,060218,,,N*4E
$GPGGA,021314.518,,,,,0,04,2.9,,M,0.0,M,,0000*7E
$GPGSA,M,1,,,,,,,,,,,,,,,*12
$GPRMC,021314.518,V,,,,,,,060218,,,N*49
$GPGGA,021315.518,,,,,0,04,2.9,,M,0.0,M,,0000*7F
$GPGSA,M,1,,,,,,,,,,,,,,,*12
$GPGSV,3,1,12,08,86,209,17,27,46,130,19,10,41,056,21,32,22,105,18*76
$GPGSV,3,2,12,33,33,198,,11,44,282,,01,36,266,,22,25,206,*76
$GPGSV,3,3,12,28,21,318,,14,12,125,,18,11,046,,03,05,209,*7F
$GPRMC,021315.518,V,,,,,,,060218,,,N*48
$GPGGA,021316.518,,,,,0,04,2.9,,M,0.0,M,,0000*7C
$GPGSA,M,1,,,,,,,,,,,,,,,*12
$GPRMC,021316.518,V,,,,,,,060218,,,N*4B
$GPGGA,021317.518,,,,,0,04,2.9,,M,0.0,M,,0000*7D
$GPGSA,M,1,,,,,,,,,,,,,,,*12
$GPRMC,021317.518,V,,,,,,,060218,,,N*4A
$GPGGA,021318.518,,,,,0,04,2.9,,M,0.0,M,,0000*72
$GPGSA,M,1,,,,,,,,,,,,,,,*12
$GPRMC,021318.518,V,,,,,,,060218,,,N*45
arfcn: 981 bsic: 46 rxLev: -53 ber: 0.00 mcc: 208 mnc: 20 lac: 418 cellId: 21807 cellStatus: CELL_SUITABLE numArfcn: 1 arfcn: 981 numChannels: 16 array: 979 982 983 985 1012 1014 1017 1019 1020 787 790 791 793 796 882 884 pbcch: 0 nom: 2 rac: 6 spgc: 0 pat: 6 nco: 0 t3168: 1500 t3192: 500 drxmax: 0 ctrlAck: 0 bsCVmax: 8 alpha: 6 pcMeasCh: 1 
$GPGGA,021319.518,,,,,0,04,2.9,,M,0.0,M,,0000*73
$GPGSA,M,1,,,,,,,,,,,,,,,*12
$GPRMC,021319.518,V,,,,,,,060218,,,N*44
$GPGGA,021320.518,,,,,0,04,2.9,,M,0.0,M,,0000*79
$GPGSA,M,1,,,,,,,,,,,,,,,*12
$GPGSV,3,1,12,08,86,209,17,27,46,130,19,10,41,056,21,32,22,105,18*76
$GPGSV,3,2,12,33,33,198,,11,44,282,,01,36,266,,22,25,206,*76
$GPGSV,3,3,12,28,21,318,,14,12,125,,18,11,046,,03,05,209,*7F
$GPRMC,021320.518,V,,,,,,,060218,,,N*4E
$GPGGA,021321.518,,,,,0,04,2.9,,M,0.0,M,,0000*78
$GPGSA,M,1,,,,,,,,,,,,,,,*12
$GPRMC,021321.518,V,,,,,,,060218,,,N*4F
$GPGGA,021322.518,,,,,0,04,2.9,,M,0.0,M,,0000*7B
$GPGSA,M,1,,,,,,,,,,,,,,,*12
$GPRMC,021322.518,V,,,,,,,060218,,,N*4C
$GPGGA,021323.518,,,,,0,04,2.9,,M,0.0,M,,0000*7A
$GPGSA,M,1,,,,,,,,,,,,,,,*12
$GPRMC,021323.518,V,,,,,,,060218,,,N*4D
$GPGGA,021324.518,,,,,0,04,2.9,,M,0.0,M,,0000*7D
$GPGSA,M,1,,,,,,,,,,,,,,,*12
$GPRMC,021324.518,V,,,,,,,060218,,,N*4A
$GPGGA,021325.518,,,,,0,04,2.9,,M,0.0,M,,0000*7C
Survey end at #CCLK: "18/02/06,03:13:24+04"
Survey duration: 14 seconds, 1 bases detected over 1 freqs scanned.
$GPGSA,M,1,,,,,,,,,,,,,,,*12
$GPGSV,3,1,12,08,86,209,16,27,46,130,20,10,41,056,21,32,22,105,18*7D
$GPGSV,3,2,12,33,33,198,,11,44,282,,01,36,266,,22,25,206,*76
$GPGSV,3,3,12,28,21,318,,14,12,125,,18,11,046,,03,05,209,*7F
$GPRMC,021325.518,V,,,,,,,060218,,,N*4B
$GPGGA,021326.518,,,,,0,04,2.9,,M,0.0,M,,0000*7F
$GPGSA,M,1,,,,,,,,,,,,,,,*12
$GPRMC,021326.518,V,,,,,,,060218,,,N*48
Survey start at #CCLK: "18/02/06,03:13:26+04"
$GPGGA,021327.523,,,,,0,04,2.9,,M,0.0,M,,0000*76
at#csurv
Network survey started ...
$GPGSA,M,1,,,,,,,,,,,,,,,*12
$GPRMC,021327.523,V,,,,,,,060218,,,N*41
$GPGGA,021328.523,,,,,0,04,2.9,,M,0.0,M,,0000*79
$GPGSA,M,1,,,,,,,,,,,,,,,*12
$GPRMC,021328.523,V,,,,,,,060218,,,N*4E
$GPGGA,021329.518,,,,,0,04,2.9,,M,0.0,M,,0000*70
$GPGSA,M,1,,,,,,,,,,,,,,,*12
$GPRMC,021329.518,V,,,,,,,060218,,,N*47
$GPGGA,021330.518,,,,,0,04,2.9,,M,0.0,M,,0000*78
$GPGSA,M,1,,,,,,,,,,,,,,,*12
$GPGSV,3,1,12,08,86,209,15,27,46,130,20,10,41,056,21,32,22,105,19*7F
$GPGSV,3,2,12,33,33,198,,11,44,282,,01,36,266,,22,25,206,*76
$GPGSV,3,3,12,28,21,318,,14,12,125,,18,11,046,,03,05,209,*7F
$GPRMC,021330.518,V,,,,,,,060218,,,N*4F
$GPGGA,021331.518,,,,,0,04,2.9,,M,0.0,M,,0000*79
$GPGSA,M,1,,,,,,,,,,,,,,,*12
$GPRMC,021331.518,V,,,,,,,060218,,,N*4E
$GPGGA,021332.518,,,,,0,04,2.9,,M,0.0,M,,0000*7A
$GPGSA,M,1,,,,,,,,,,,,,,,*12
$GPRMC,021332.518,V,,,,,,,060218,,,N*4D
$GPGGA,021333.518,,,,,0,04,2.9,,M,0.0,M,,0000*7B
$GPGSA,M,1,,,,,,,,,,,,,,,*12
$GPRMC,021333.518,V,,,,,,,060218,,,N*4C
arfcn: 981 bsic: 46 rxLev: -53 ber: 50.00 mcc: 208 mnc: 20 lac: 418 cellId: 21807 cellStatus: CELL_SUITABLE numArfcn: 1 arfcn: 981 numChannels: 16 array: 979 982 983 985 1012 1014 1017 1019 1020 787 790 791 793 796 882 884 pbcch: 0 nom: 2 rac: 6 spgc: 0 pat: 6 nco: 0 t3168: 1500 t3192: 500 drxmax: 0 ctrlAck: 0 bsCVmax: 8 alpha: 6 pcMeasCh: 1 
$GPGGA,021334.518,,,,,0,04,2.9,,M,0.0,M,,0000*7C
$GPGSA,M,1,,,,,,,,,,,,,,,*12
$GPRMC,021334.518,V,,,,,,,060218,,,N*4B
$GPGGA,021335.518,,,,,0,04,2.9,,M,0.0,M,,0000*7D
$GPGSA,M,1,,,,,,,,,,,,,,,*12
$GPGSV,3,1,12,08,86,209,15,27,46,130,20,10,41,056,21,32,22,105,19*7F
$GPGSV,3,2,12,33,33,198,,11,44,282,,01,36,266,,22,25,206,*76
$GPGSV,3,3,12,28,21,318,,14,12,125,,18,11,046,,03,05,209,*7F
$GPRMC,021335.518,V,,,,,,,060218,,,N*4A
$GPGGA,021336.518,,,,,0,04,2.9,,M,0.0,M,,0000*7E
$GPGSA,M,1,,,,,,,,,,,,,,,*12
$GPRMC,021336.518,V,,,,,,,060218,,,N*49
$GPGGA,021337.518,,,,,0,04,2.9,,M,0.0,M,,0000*7F
$GPGSA,M,1,,,,,,,,,,,,,,,*12
$GPRMC,021337.518,V,,,,,,,060218,,,N*48
$GPGGA,021338.518,,,,,0,04,2.9,,M,0.0,M,,0000*70
$GPGSA,M,1,,,,,,,,,,,,,,,*12
$GPRMC,021338.518,V,,,,,,,060218,,,N*47
$GPGGA,021339.518,,,,,0,04,2.9,,M,0.0,M,,0000*71
$GPGSA,M,1,,,,,,,,,,,,,,,*12
$GPRMC,021339.518,V,,,,,,,060218,,,N*46
$GPGGA,021340.518,,,,,0,04,2.9,,M,0.0,M,,0000*7F
$GPGSA,M,1,,,,,,,,,,,,,,,*12
$GPGSV,3,1,12,08,86,209,15,27,46,130,20,10,41,056,22,32,22,105,19*7C
$GPGSV,3,2,12,33,33,198,,11,44,282,,01,36,266,,22,25,206,*76
$GPGSV,3,3,12,28,21,318,,14,12,125,,18,11,046,,03,05,209,*7F
$GPRMC,021340.518,V,,,,,,,060218,,,N*48
$GPGGA,021341.518,,,,,0,04,2.9,,M,0.0,M,,0000*7E
$GPGSA,M,1,,,,,,,,,,,,,,,*12
$GPRMC,021341.518,V,,,,,,,060218,,,N*49
Survey end at #CCLK: "18/02/06,03:13:41+04"
Survey duration: 15 seconds, 1 bases detected over 1 freqs scanned.
$GPGGA,021342.518,,,,,0,04,2.9,,M,0.0,M,,0000*7D
$GPGSA,M,1,,,,,,,,,,,,,,,*12
$GPRMC,021342.518,V,,,,,,,060218,,,N*4A
$GPGGA,021343.518,,,,,0,04,2.9,,M,0.0,M,,0000*7C
$GPGSA,M,1,,,,,,,,,,,,,,,*12
$GPRMC,021343.518,V,,,,,,,060218,,,N*4B
Survey start at #CCLK: "18/02/06,03:13:43+04"
at#csurv
Network survey started ...
Survey end at #CCLK: "18/02/06,03:13:43+04"
Survey duration: 0 seconds, 0 bases detected over 0 freqs scanned.
$GPGGA,021344.518,,,,,0,04,2.9,,M,0.0,M,,0000*7B
$GPGSA,M,1,,,,,,,,,,,,,,,*12
$GPRMC,021344.518,V,,,,,,,060218,,,N*4C
$GPGGA,021345.518,,,,,0,04,2.9,,M,0.0,M,,0000*7A
$GPGSA,M,1,,,,,,,,,,,,,,,*12
$GPGSV,3,1,12,08,86,209,14,27,46,130,20,10,41,056,22,32,22,105,19*7D
$GPGSV,3,2,12,33,33,198,,11,44,282,,01,36,266,,22,25,206,*76
Survey start at #CCLK: "18/02/06,03:13:45+04"
at#csurv
Network survey started ...
Survey end at #CCLK: "18/02/06,03:13:45+04"
Survey duration: 0 seconds, 0 bases detected over 0 freqs scanned.
$GPGSV,3,3,12,28,21,318,,14,12,125,,18,11,046,,03,05,209,*7F
$GPRMC,021345.518,V,,,,,,,060218,,,N*4D
$GPGGA,021346.518,,,,,0,04,2.9,,M,0.0,M,,0000*79
$GPGSA,M,1,,,,,,,,,,,,,,,*12
$GPRMC,021346.518,V,,,,,,,060218,,,N*4E
$GPGGA,021347.518,,,,,0,04,2.9,,M,0.0,M,,0000*78
$GPGSA,M,1,,,,,,,,,,,,,,,*12
$GPRMC,021347.518,V,,,,,,,060218,,,N*4F
Survey start at #CCLK: "18/02/06,03:13:47+04"
$GPGGA,021348.518,,,,,0,04,2.9,,M,0.0,M,,0000*77
at#csurv
Network survey started ...
$GPGSA,M,1,,,,,,,,,,,,,,,*12
$GPRMC,021348.518,V,,,,,,,060218,,,N*40
$GPGGA,021349.518,,,,,0,04,2.9,,M,0.0,M,,0000*76
$GPGSA,M,1,,,,,,,,,,,,,,,*12
$GPRMC,021349.518,V,,,,,,,060218,,,N*41
$GPGGA,021350.523,,,,,0,04,2.9,,M,0.0,M,,0000*76
$GPGSA,M,1,,,,,,,,,,,,,,,*12
$GPGSV,3,1,12,08,86,209,14,27,46,130,20,10,41,056,23,32,22,105,20*76
$GPGSV,3,2,12,33,33,198,,11,44,282,,01,36,266,,22,25,206,*76
$GPGSV,3,3,12,28,21,318,,14,12,125,,18,11,046,,03,05,209,*7F
$GPRMC,021350.523,V,,,,,,,060218,,,N*41
$GPGGA,021351.522,,,,,0,04,2.9,,M,0.0,M,,0000*76
$GPGSA,M,1,,,,,,,,,,,,,,,*12
$GPRMC,021351.522,V,,,,,,,060218,,,N*41
$GPGGA,021352.518,,,,,0,04,2.9,,M,0.0,M,,0000*7C
$GPGSA,M,1,,,,,,,,,,,,,,,*12
$GPRMC,021352.518,V,,,,,,,060218,,,N*4B
$GPGGA,021353.518,,,,,0,04,2.9,,M,0.0,M,,0000*7D
$GPGSA,M,1,,,,,,,,,,,,,,,*12
$GPRMC,021353.518,V,,,,,,,060218,,,N*4A
$GPGGA,021354.518,,,,,0,04,2.9,,M,0.0,M,,0000*7A
$GPGSA,M,1,,,,,,,,,,,,,,,*12
$GPRMC,021354.518,V,,,,,,,060218,,,N*4D
$GPGGA,021355.518,,,,,0,04,2.9,,M,0.0,M,,0000*7B
$GPGSA,M,1,,,,,,,,,,,,,,,*12
$GPGSV,3,1,12,08,86,209,14,27,46,130,21,10,41,056,23,32,22,105,19*7D
$GPGSV,3,2,12,33,33,198,,11,44,282,,01,36,266,,22,25,206,*76
$GPGSV,3,3,12,28,21,318,,14,12,125,,18,11,046,,03,05,209,*7F
$GPRMC,021355.518,V,,,,,,,060218,,,N*4C
$GPGGA,021356.518,,,,,0,04,2.9,,M,0.0,M,,0000*78
$GPGSA,M,1,,,,,,,,,,,,,,,*12
$GPRMC,021356.518,V,,,,,,,060218,,,N*4F
arfcn: 981 bsic: 46 rxLev: -53 ber: 50.00 mcc: 208 mnc: 20 lac: 418 cellId: 21807 cellStatus: CELL_SUITABLE numArfcn: 1 arfcn: 981 numChannels: 16 array: 979 982 983 985 1012 1014 1017 1019 1020 787 790 791 793 796 882 884 pbcch: 0 nom: 2 rac: 6 spgc: 0 pat: 6 nco: 0 t3168: 1500 t3192: 500 drxmax: 0 ctrlAck: 0 bsCVmax: 8 alpha: 6 pcMeasCh: 1 
$GPGGA,021357.518,,,,,0,00,,,M,0.0,M,,0000*58
$GPGSA,M,1,,,,,,,,,,,,,,,*12
$GPRMC,021357.518,V,,,,,,,060218,,,N*4E
$GPGGA,021358.518,,,,,0,00,,,M,0.0,M,,0000*57
$GPGSA,M,1,,,,,,,,,,,,,,,*12
$GPRMC,021358.518,V,,,,,,,060218,,,N*41
$GPGGA,021359.518,,,,,0,00,,,M,0.0,M,,0000*56
$GPGSA,M,1,,,,,,,,,,,,,,,*12
$GPRMC,021359.518,V,,,,,,,060218,,,N*40
arfcn: 985 bsic: 44 rxLev: -55 ber: 0.00 mcc: 208 mnc: 20 lac: 418 cellId: 21808 cellStatus: CELL_SUITABLE numArfcn: 1 arfcn: 985 numChannels: 25 array: 787 788 790 793 795 796 879 884 975 977 978 979 980 981 982 983 1011 1012 1014 1015 1017 1019 1020 1021 1022 pbcch: 0 nom: 2 rac: 6 spgc: 0 pat: 6 nco: 0 t3168: 1500 t3192: 500 drxmax: 0 ctrlAck: 0 bsCVmax: 8 alpha: 6 pcMeasCh: 1 
arfcn: 991 rxLev: -62
$GPGGA,021400.518,,,,,0,00,,,M,0.0,M,,0000*5D
arfcn: 994 rxLev: -62
$GPGSA,M,1,,,,,,,,,,,,,,,*12
arfcn: 992 rxLev: -62
arfcn: 990 rxLev: -62
$GPGSV,3,1,12,08,86,209,07,10,41,056,24,27,46,130,21,32,22,105,19*78
arfcn: 997 rxLev: -62
arfcn: 1001 rxLev: -62
$GPGSV,3,2,12,33,33,198,,11,44,282,,01,36,266,,22,25,206,*76
arfcn: 1002 rxLev: -62
$GPGSV,3,3,12,28,21,318,,14,12,125,,18,11,046,,03,05,209,*7F
arfcn: 1003 rxLev: -62
$GPRMC,021400.518,V,,,,,,,060218,,,N*4B
arfcn: 1005 rxLev: -62
arfcn: 1004 rxLev: -63
arfcn: 1000 rxLev: -63
arfcn: 996 rxLev: -63
$GPGGA,021401.518,,,,,0,00,,,M,0.0,M,,0000*5C
$GPGSA,M,1,,,,,,,,,,,,,,,*12
arfcn: 999 rxLev: -63
$GPRMC,021401.518,V,,,,,,,060218,,,N*4A
arfcn: 993 rxLev: -63
arfcn: 995 rxLev: -63
arfcn: 998 rxLev: -63
arfcn: 1006 rxLev: -64
arfcn: 1007 rxLev: -64
arfcn: 1008 rxLev: -64
arfcn: 980 rxLev: -70
arfcn: 982 rxLev: -70
arfcn: 12 rxLev: -70
arfcn: 989 rxLev: -71
$GPGGA,021402.518,,,,,0,00,,,M,0.0,M,,0000*5F
$GPGSA,M,1,,,,,,,,,,,,,,,*12
arfcn: 1009 rxLev: -71
$GPRMC,021402.518,V,,,,,,,060218,,,N*49
arfcn: 986 rxLev: -73
$GPGGA,021403.518,,,,,0,00,,,M,0.0,M,,0000*5E
$GPGSA,M,1,,,,,,,,,,,,,,,*12
$GPRMC,021403.518,V,,,,,,,060218,,,N*48
arfcn: 80 bsic: 47 rxLev: -73 ber: 0.00 mcc: 208 mnc: 10 lac: 49415 cellId: 23568 cellStatus: CELL_FORBIDDEN numArfcn: 2 arfcn: 80 89 numChannels: 19 array: 76 77 78 80 82 83 84 85 113 114 115 116 117 118 119 120 122 123 124 pbcch: 0 nom: 2 rac: 31 spgc: 0 pat: 6 nco: 0 t3168: 1000 t3192: 500 drxmax: 4 ctrlAck: 1 bsCVmax: 9 alpha: 10 pcMeasCh: 0 
arfcn: 984 rxLev: -74
$GPGGA,021404.518,,,,,0,00,,,M,0.0,M,,0000*59
$GPGSA,M,1,,,,,,,,,,,,,,,*12
$GPRMC,021404.518,V,,,,,,,060218,,,N*4F
$GPGGA,021405.518,,,,,0,00,,,M,0.0,M,,0000*58
$GPGSA,M,1,,,,,,,,,,,,,,,*12
$GPGSV,3,1,12,08,86,209,07,10,41,056,24,27,46,130,22,32,22,105,18*7A
$GPGSV,3,2,12,33,33,198,,11,44,282,,01,36,266,,22,25,206,*76
$GPGSV,3,3,12,28,21,318,,14,12,125,,18,11,046,,03,05,209,*7F
$GPRMC,021405.518,V,,,,,,,060218,,,N*4E
arfcn: 85 bsic: 0 rxLev: -76 ber: 0.00 mcc: 208 mnc: 10 lac: 49415 cellId: 44814 cellStatus: CELL_FORBIDDEN numArfcn: 2 arfcn: 85 119 numChannels: 20 array: 76 77 78 79 80 82 83 85 86 114 115 116 117 118 119 120 121 122 123 124 pbcch: 0 nom: 2 rac: 31 spgc: 0 pat: 6 nco: 0 t3168: 1000 t3192: 500 drxmax: 4 ctrlAck: 1 bsCVmax: 9 alpha: 10 pcMeasCh: 0 
$GPGGA,021406.518,,,,,0,00,,,M,0.0,M,,0000*5B
$GPGSA,M,1,,,,,,,,,,,,,,,*12
$GPRMC,021406.518,V,,,,,,,060218,,,N*4D
$GPGGA,021407.518,,,,,0,00,,,M,0.0,M,,0000*5A
$GPGSA,M,1,,,,,,,,,,,,,,,*12
$GPRMC,021407.518,V,,,,,,,060218,,,N*4C
$GPGGA,021408.518,,,,,0,00,,,M,0.0,M,,0000*55
$GPGSA,M,1,,,,,,,,,,,,,,,*12
$GPRMC,021408.518,V,,,,,,,060218,,,N*43
arfcn: 8 bsic: 48 rxLev: -76 ber: 0.00 mcc: 208 mnc: 01 lac: 10300 cellId: 6473 cellStatus: CELL_FORBIDDEN numArfcn: 13 arfcn: 8 17 18 19 20 21 22 23 24 25 47 48 49 numChannels: 18 array: 1 2 3 4 5 10 12 13 14 15 512 513 514 515 516 517 605 610 pbcch: 0 nom: 2 rac: 1 spgc: 0 pat: 6 nco: 0 t3168: 1000 t3192: 500 drxmax: 2 ctrlAck: 0 bsCVmax: 9 alpha: 5 pcMeasCh: 1 
$GPGGA,021409.518,,,,,0,00,,,M,0.0,M,,0000*54
$GPGSA,M,1,,,,,,,,,,,,,,,*12
$GPRMC,021409.518,V,,,,,,,060218,,,N*42
$GPGGA,021410.518,,,,,0,00,,,M,0.0,M,,0000*5C
$GPGSA,M,1,,,,,,,,,,,,,,,*12
arfcn: 78 bsic: 2 rxLev: -77 ber: 0.00 mcc: 208 mnc: 10 lac: 49415 cellId: 45280 cellStatus: CELL_FORBIDDEN numArfcn: 2 arfcn: 78 116 numChannels: 20 array: 76 77 78 79 80 82 83 84 85 86 114 115 116 117 118 120 121 122 123 124 pbcch: 0 nom: 2 rac: 31 spgc: 0 pat: 6 nco: 0 t3168: 1000 t3192: 500 drxmax: 4 ctrlAck: 1 bsCVmax: 9 alpha: 10 pcMeasCh: 0 
$GPGSV,3,1,12,08,86,209,05,10,41,056,23,27,46,130,21,32,22,105,17*73
$GPGSV,3,2,12,33,33,198,,11,44,282,,01,36,266,,22,25,206,*76
$GPGSV,3,3,12,28,21,318,,14,12,125,,18,11,046,,03,05,209,*7F
$GPRMC,021410.518,V,,,,,,,060218,,,N*4A
$GPGGA,021411.518,,,,,0,00,,,M,0.0,M,,0000*5D
$GPGSA,M,1,,,,,,,,,,,,,,,*12
$GPRMC,021411.518,V,,,,,,,060218,,,N*4B
$GPGGA,021412.518,,,,,0,00,,,M,0.0,M,,0000*5E
$GPGSA,M,1,,,,,,,,,,,,,,,*12
$GPRMC,021412.518,V,,,,,,,060218,,,N*48
arfcn: 10 bsic: 45 rxLev: -77 ber: 3.10 mcc: 208 mnc: 01 lac: 10301 cellId: 6461 cellStatus: CELL_FORBIDDEN numArfcn: 13 arfcn: 10 17 18 19 20 21 22 23 24 25 47 48 49 numChannels: 17 array: 1 3 4 5 6 8 12 14 512 513 514 516 517 604 605 606 608 pbcch: 0 nom: 2 rac: 1 spgc: 0 pat: 6 nco: 0 t3168: 1000 t3192: 500 drxmax: 2 ctrlAck: 0 bsCVmax: 9 alpha: 5 pcMeasCh: 1 
$GPGGA,021413.523,,,,,0,00,,,M,0.0,M,,0000*57
$GPGSA,M,1,,,,,,,,,,,,,,,*12
$GPRMC,021413.523,V,,,,,,,060218,,,N*41
$GPGGA,021414.523,,,,,0,00,,,M,0.0,M,,0000*50
$GPGSA,M,1,,,,,,,,,,,,,,,*12
$GPRMC,021414.523,V,,,,,,,060218,,,N*46
$GPGGA,021415.523,,,,,0,00,,,M,0.0,M,,0000*51
$GPGSA,M,1,,,,,,,,,,,,,,,*12
$GPGSV,3,1,12,08,86,209,05,10,41,056,23,27,46,130,22,32,22,105,17*70
$GPGSV,3,2,12,33,33,198,,11,44,282,,01,36,266,,22,25,206,*76
$GPGSV,3,3,12,28,21,318,,14,12,125,,18,11,046,,03,05,209,*7F
$GPRMC,021415.523,V,,,,,,,060218,,,N*47
$GPGGA,021416.518,,,,,0,00,,,M,0.0,M,,0000*5A
$GPGSA,M,1,,,,,,,,,,,,,,,*12
$GPRMC,021416.518,V,,,,,,,060218,,,N*4C
arfcn: 983 bsic: 21 rxLev: -80 ber: 0.00 mcc: 208 mnc: 20 lac: 418 cellId: 21809 cellStatus: CELL_SUITABLE numArfcn: 1 arfcn: 983 numChannels: 24 array: 788 790 792 793 795 796 878 882 884 976 977 979 981 985 986 987 1012 1013 1014 1016 1017 1019 1020 1022 pbcch: 0 nom: 2 rac: 6 spgc: 0 pat: 6 nco: 0 t3168: 1500 t3192: 500 drxmax: 0 ctrlAck: 0 bsCVmax: 8 alpha: 6 pcMeasCh: 1 
arfcn: 838 rxLev: -80
arfcn: 849 rxLev: -81
$GPGGA,021417.518,,,,,0,00,,,M,0.0,M,,0000*5B
arfcn: 866 rxLev: -81
$GPGSA,M,1,,,,,,,,,,,,,,,*12
arfcn: 796 rxLev: -81
$GPRMC,021417.518,V,,,,,,,060218,,,N*4D
arfcn: 821 rxLev: -81
arfcn: 822 rxLev: -81
arfcn: 824 rxLev: -81
arfcn: 827 rxLev: -81
arfcn: 851 rxLev: -81
arfcn: 857 rxLev: -81
arfcn: 835 rxLev: -81
arfcn: 842 rxLev: -82
$GPGGA,021418.518,,,,,0,00,,,M,0.0,M,,0000*54
arfcn: 798 rxLev: -82
$GPGSA,M,1,,,,,,,,,,,,,,,*12
arfcn: 810 rxLev: -82
$GPRMC,021418.518,V,,,,,,,060218,,,N*42
arfcn: 797 rxLev: -82
arfcn: 812 rxLev: -82
arfcn: 813 rxLev: -82
arfcn: 808 rxLev: -82
arfcn: 800 rxLev: -82
arfcn: 829 rxLev: -82
arfcn: 825 rxLev: -82
arfcn: 823 rxLev: -82
arfcn: 814 rxLev: -82
arfcn: 815 rxLev: -82
$GPGGA,021419.518,,,,,0,00,,,M,0.0,M,,0000*55
arfcn: 844 rxLev: -82
$GPGSA,M,1,,,,,,,,,,,,,,,*12
arfcn: 837 rxLev: -82
$GPRMC,021419.518,V,,,,,,,060218,,,N*43
arfcn: 831 rxLev: -82
$GPGGA,021420.518,,,,,0,00,,,M,0.0,M,,0000*5F
$GPGSA,M,1,,,,,,,,,,,,,,,*12
$GPGSV,3,1,12,08,86,209,04,10,41,056,23,27,46,130,22,32,22,105,17*71
$GPGSV,3,2,12,33,33,198,,11,44,282,,01,36,266,,22,25,206,*76
$GPGSV,3,3,12,28,21,318,,14,12,125,,18,11,046,,03,05,209,*7F
$GPRMC,021420.518,V,,,,,,,060218,,,N*49
$GPGGA,021421.518,,,,,0,00,,,M,0.0,M,,0000*5E
$GPGSA,M,1,,,,,,,,,,,,,,,*12
$GPRMC,021421.518,V,,,,,,,060218,,,N*48
arfcn: 5 bsic: 1 rxLev: -82 ber: 0.00 mcc: 208 mnc: 01 lac: 10300 cellId: 40079 cellStatus: CELL_FORBIDDEN numArfcn: 13 arfcn: 5 17 18 19 20 21 22 23 24 25 47 48 49 numChannels: 20 array: 1 2 3 4 5 8 9 10 11 13 14 15 16 512 513 518 604 606 608 610 pbcch: 0 nom: 2 rac: 1 spgc: 0 pat: 6 nco: 0 t3168: 1000 t3192: 500 drxmax: 2 ctrlAck: 0 bsCVmax: 9 alpha: 5 pcMeasCh: 1 
$GPGGA,021422.518,,,,,0,00,,,M,0.0,M,,0000*5D
$GPGSA,M,1,,,,,,,,,,,,,,,*12
$GPRMC,021422.518,V,,,,,,,060218,,,N*4B
$GPGGA,021423.518,,,,,0,00,,,M,0.0,M,,0000*5C
$GPGSA,M,1,,,,,,,,,,,,,,,*12
arfcn: 512 bsic: 25 rxLev: -82 ber: 0.03 mcc: 208 mnc: 01 lac: 10300 cellId: 40155 cellStatus: CELL_FORBIDDEN numArfcn: 16 arfcn: 519 520 521 522 523 524 525 526 596 597 598 599 600 601 602 603 numChannels: 16 array: 2 3 5 8 10 11 12 15 16 517 518 604 605 606 609 610 pbcch: 0 nom: 2 rac: 1 spgc: 0 pat: 6 nco: 0 t3168: 1000 t3192: 500 drxmax: 2 ctrlAck: 0 bsCVmax: 9 alpha: 5 pcMeasCh: 1 
$GPRMC,021423.518,V,,,,,,,060218,,,N*4A
$GPGGA,021424.518,,,,,0,00,,,M,0.0,M,,0000*5B
$GPGSA,M,1,,,,,,,,,,,,,,,*12
$GPRMC,021424.518,V,,,,,,,060218,,,N*4D
$GPGGA,021425.518,,,,,0,00,,,M,0.0,M,,0000*5A
arfcn: 604 bsic: 20 rxLev: -83 ber: 0.00 mcc: 208 mnc: 01 lac: 10300 cellId: 39915 cellStatus: CELL_FORBIDDEN numArfcn: 16 arfcn: 519 520 521 522 523 524 525 526 596 597 598 599 600 601 602 603 numChannels: 13 array: 5 6 10 15 16 512 514 516 517 518 608 609 610 pbcch: 0 nom: 2 rac: 1 spgc: 0 pat: 6 nco: 0 t3168: 1000 t3192: 500 drxmax: 2 ctrlAck: 0 bsCVmax: 9 alpha: 5 pcMeasCh: 1 
arfcn: 832 rxLev: -83
$GPGSA,M,1,,,,,,,,,,,,,,,*12
arfcn: 833 rxLev: -83
arfcn: 834 rxLev: -83
$GPGSV,3,1,12,08,86,209,06,10,41,056,23,27,46,130,22,32,22,105,17*73
arfcn: 843 rxLev: -83
$GPGSV,3,2,12,33,33,198,,11,44,282,,01,36,266,,22,25,206,*76
arfcn: 839 rxLev: -83
arfcn: 841 rxLev: -83
$GPGSV,3,3,12,28,21,318,,14,12,125,,18,11,046,,03,05,209,*7F
arfcn: 856 rxLev: -83
$GPRMC,021425.518,V,,,,,,,060218,,,N*4C
arfcn: 867 rxLev: -83
arfcn: 816 rxLev: -83
arfcn: 817 rxLev: -83
arfcn: 820 rxLev: -83
arfcn: 818 rxLev: -83
$GPGGA,021426.518,,,,,0,00,,,M,0.0,M,,0000*59
arfcn: 828 rxLev: -83
$GPGSA,M,1,,,,,,,,,,,,,,,*12
arfcn: 802 rxLev: -83
$GPRMC,021426.518,V,,,,,,,060218,,,N*4F
arfcn: 804 rxLev: -83
arfcn: 806 rxLev: -83
arfcn: 811 rxLev: -83
arfcn: 807 rxLev: -83
arfcn: 809 rxLev: -83
arfcn: 805 rxLev: -83
arfcn: 803 rxLev: -83
arfcn: 826 rxLev: -83
arfcn: 819 rxLev: -83
$GPGGA,021427.518,,,,,0,00,,,M,0.0,M,,0000*58
$GPGSA,M,1,,,,,,,,,,,,,,,*12
arfcn: 794 rxLev: -83
arfcn: 795 rxLev: -83
$GPRMC,021427.518,V,,,,,,,060218,,,N*4E
arfcn: 792 rxLev: -83
arfcn: 793 rxLev: -83
arfcn: 873 rxLev: -83
arfcn: 854 rxLev: -83
arfcn: 858 rxLev: -83
arfcn: 859 rxLev: -83
arfcn: 861 rxLev: -83
arfcn: 852 rxLev: -83
arfcn: 847 rxLev: -83
arfcn: 845 rxLev: -83
$GPGGA,021428.518,,,,,0,00,,,M,0.0,M,,0000*57
$GPGSA,M,1,,,,,,,,,,,,,,,*12
arfcn: 830 rxLev: -83
arfcn: 840 rxLev: -84
$GPRMC,021428.518,V,,,,,,,060218,,,N*41
arfcn: 848 rxLev: -84
arfcn: 850 rxLev: -84
arfcn: 860 rxLev: -84
arfcn: 855 rxLev: -84
arfcn: 864 rxLev: -84
arfcn: 801 rxLev: -84
arfcn: 862 rxLev: -84
arfcn: 863 rxLev: -84
$GPGGA,021429.518,,,,,0,00,,,M,0.0,M,,0000*56
arfcn: 868 rxLev: -84
$GPGSA,M,1,,,,,,,,,,,,,,,*12
arfcn: 872 rxLev: -84
$GPRMC,021429.518,V,,,,,,,060218,,,N*40
arfcn: 874 rxLev: -84
arfcn: 876 rxLev: -84
arfcn: 878 rxLev: -84
arfcn: 853 rxLev: -84
arfcn: 846 rxLev: -84
arfcn: 836 rxLev: -84
arfcn: 880 rxLev: -85
arfcn: 869 rxLev: -85
arfcn: 865 rxLev: -85
arfcn: 799 rxLev: -85
$GPGGA,021430.518,,,,,0,00,,,M,0.0,M,,0000*5E
arfcn: 31 rxLev: -85
$GPGSA,M,1,,,,,,,,,,,,,,,*12
arfcn: 32 rxLev: -85
arfcn: 33 rxLev: -85
$GPGSV,3,1,12,08,86,209,05,10,41,056,23,27,46,130,22,32,22,105,18*7F
$GPGSV,3,2,12,33,33,198,,11,44,282,,01,36,266,,22,25,206,*76
$GPGSV,3,3,12,28,21,318,,14,12,125,,18,11,046,,03,05,209,*7F
$GPRMC,021430.518,V,,,,,,,060218,,,N*48
$GPGGA,021431.518,,,,,0,00,,,M,0.0,M,,0000*5F
$GPGSA,M,1,,,,,,,,,,,,,,,*12
$GPRMC,021431.518,V,,,,,,,060218,,,N*49
$GPGGA,021432.518,,,,,0,00,,,M,0.0,M,,0000*5C
$GPGSA,M,1,,,,,,,,,,,,,,,*12
arfcn: 117 bsic: 12 rxLev: -85 ber: 0.00 mcc: 208 mnc: 10 lac: 49415 cellId: 3568 cellStatus: CELL_FORBIDDEN numArfcn: 2 arfcn: 82 117 numChannels: 17 array: 76 77 78 79 80 83 84 85 87 113 114 116 117 120 122 123 124 pbcch: 0 nom: 2 rac: 31 spgc: 0 pat: 6 nco: 0 t3168: 1000 t3192: 500 drxmax: 4 ctrlAck: 1 bsCVmax: 9 alpha: 10 pcMeasCh: 0 
arfcn: 34 rxLev: -85
$GPRMC,021432.518,V,,,,,,,060218,,,N*4A
arfcn: 30 rxLev: -85
arfcn: 42 rxLev: -85
arfcn: 43 rxLev: -85
arfcn: 870 rxLev: -85
arfcn: 871 rxLev: -85
arfcn: 879 rxLev: -85
arfcn: 877 rxLev: -86
arfcn: 875 rxLev: -86
arfcn: 791 rxLev: -86
$GPGGA,021433.518,,,,,0,00,,,M,0.0,M,,0000*5D
arfcn: 44 rxLev: -86
$GPGSA,M,1,,,,,,,,,,,,,,,*12
arfcn: 45 rxLev: -86
$GPRMC,021433.518,V,,,,,,,060218,,,N*4B
$GPGGA,021434.518,,,,,0,00,,,M,0.0,M,,0000*5A
$GPGSA,M,1,,,,,,,,,,,,,,,*12
$GPRMC,021434.518,V,,,,,,,060218,,,N*4C
$GPGGA,021435.518,,,,,0,00,,,M,0.0,M,,0000*5B
$GPGSA,M,1,,,,,,,,,,,,,,,*12
$GPGSV,3,1,12,08,86,209,06,10,41,056,23,27,46,130,22,32,22,105,17*73
$GPGSV,3,2,12,33,33,198,,11,44,282,,01,36,266,,22,25,206,*76
$GPGSV,3,3,12,28,21,318,,14,12,125,,18,11,046,,03,05,209,*7F
$GPRMC,021435.518,V,,,,,,,060218,,,N*4D
$GPGGA,021436.518,,,,,0,00,,,M,0.0,M,,0000*58
$GPGSA,M,1,,,,,,,,,,,,,,,*12
$GPRMC,021436.518,V,,,,,,,060218,,,N*4E
arfcn: 124 bsic: 2 rxLev: -86 ber: 1.08 mcc: 208 mnc: 10 lac: 49415 cellId: 43517 cellStatus: CELL_FORBIDDEN numArfcn: 2 arfcn: 112 124 numChannels: 14 array: 76 77 78 80 82 85 114 115 117 118 120 121 122 124 pbcch: 0 nom: 2 rac: 31 spgc: 0 pat: 6 nco: 0 t3168: 1000 t3192: 500 drxmax: 4 ctrlAck: 1 bsCVmax: 9 alpha: 10 pcMeasCh: 0 
arfcn: 35 rxLev: -86
arfcn: 36 rxLev: -86
$GPGGA,021437.523,,,,,0,00,,,M,0.0,M,,0000*51
arfcn: 13 rxLev: -86
$GPGSA,M,1,,,,,,,,,,,,,,,*12
$GPRMC,021437.523,V,,,,,,,060218,,,N*47
$GPGGA,021438.523,,,,,0,00,,,M,0.0,M,,0000*5E
$GPGSA,M,1,,,,,,,,,,,,,,,*12
$GPRMC,021438.523,V,,,,,,,060218,,,N*48
$GPGGA,021439.518,,,,,0,00,,,M,0.0,M,,0000*57
$GPGSA,M,1,,,,,,,,,,,,,,,*12
$GPRMC,021439.518,V,,,,,,,060218,,,N*41
$GPGGA,021440.518,,,,,0,00,,,M,0.0,M,,0000*59
$GPGSA,M,1,,,,,,,,,,,,,,,*12
$GPGSV,3,1,12,08,86,209,06,10,41,056,23,27,46,130,23,32,22,105,17*72
$GPGSV,3,2,12,33,33,198,,11,44,282,,01,36,266,,22,25,206,*76
$GPGSV,3,3,12,28,21,318,,14,12,125,,18,11,046,,03,05,209,*7F
$GPRMC,021440.518,V,,,,,,,060218,,,N*4F
arfcn: 3 bsic: 0 rxLev: -87 ber: 0.04 mcc: 208 mnc: 01 lac: 10300 cellId: 2686 cellStatus: CELL_FORBIDDEN numArfcn: 13 arfcn: 3 17 18 19 20 21 22 23 24 25 47 48 49 numChannels: 13 array: 1 5 6 7 10 12 14 512 515 517 604 606 608 pbcch: 0 nom: 2 rac: 1 spgc: 0 pat: 6 nco: 0 t3168: 1000 t3192: 500 drxmax: 2 ctrlAck: 0 bsCVmax: 9 alpha: 5 pcMeasCh: 1 
arfcn: 29 rxLev: -87
$GPGGA,021441.518,,,,,0,00,,,M,0.0,M,,0000*58
$GPGSA,M,1,,,,,,,,,,,,,,,*12
$GPRMC,021441.518,V,,,,,,,060218,,,N*4E
arfcn: 28 rxLev: -87
arfcn: 37 rxLev: -87
arfcn: 39 rxLev: -87
arfcn: 40 rxLev: -87
arfcn: 41 rxLev: -87
arfcn: 57 rxLev: -87
arfcn: 64 rxLev: -87
$GPGGA,021442.518,,,,,0,04,2.9,,M,0.0,M,,0000*7A
$GPGSA,M,1,,,,,,,,,,,,,,,*12
$GPRMC,021442.518,V,,,,,,,060218,,,N*4D
$GPGGA,021443.518,,,,,0,04,2.9,,M,0.0,M,,0000*7B
$GPGSA,M,1,,,,,,,,,,,,,,,*12
$GPRMC,021443.518,V,,,,,,,060218,,,N*4C
arfcn: 514 bsic: 1 rxLev: -87 ber: 0.00 mcc: 208 mnc: 01 lac: 10300 cellId: 39259 cellStatus: CELL_FORBIDDEN numArfcn: 17 arfcn: 514 519 520 521 522 523 524 525 526 596 597 598 599 600 601 602 603 numChannels: 14 array: 1 6 8 10 12 14 512 513 514 517 604 605 606 608 pbcch: 0 nom: 2 rac: 1 spgc: 1 pat: 6 nco: 0 t3168: 1000 t3192: 500 drxmax: 4 ctrlAck: 1 bsCVmax: 9 alpha: 7 pcMeasCh: 0 
arfcn: 606 rxLev: -87
arfcn: 881 rxLev: -87
arfcn: 67 rxLev: -88
$GPGGA,021444.518,,,,,0,04,2.9,,M,0.0,M,,0000*7C
arfcn: 63 rxLev: -88
$GPGSA,M,1,,,,,,,,,,,,,,,*12
$GPRMC,021444.518,V,,,,,,,060218,,,N*4B
$GPGGA,021445.518,,,,,0,04,2.9,,M,0.0,M,,0000*7D
$GPGSA,M,1,,,,,,,,,,,,,,,*12
$GPGSV,3,1,12,08,86,209,10,27,46,130,23,10,41,056,24,32,22,105,16*73
$GPGSV,3,2,12,33,33,198,,11,44,282,,01,36,266,,22,25,206,*76
$GPGSV,3,3,12,28,21,318,,14,12,125,,18,11,046,,03,05,209,*7F
$GPRMC,021445.518,V,,,,,,,060218,,,N*4A
$GPGGA,021446.518,,,,,0,04,2.9,,M,0.0,M,,0000*7E
$GPGSA,M,1,,,,,,,,,,,,,,,*12
$GPRMC,021446.518,V,,,,,,,060218,,,N*49
$GPGGA,021447.518,,,,,0,04,2.9,,M,0.0,M,,0000*7F
$GPGSA,M,1,,,,,,,,,,,,,,,*12
$GPRMC,021447.518,V,,,,,,,060218,,,N*48
arfcn: 122 bsic: 3 rxLev: -88 ber: 0.00 mcc: 208 mnc: 10 lac: 49415 cellId: 33517 cellStatus: CELL_FORBIDDEN numArfcn: 3 arfcn: 77 88 122 numChannels: 17 array: 77 78 79 80 82 84 85 86 114 115 117 118 119 120 122 123 124 pbcch: 0 nom: 2 rac: 31 spgc: 0 pat: 6 nco: 0 t3168: 1000 t3192: 500 drxmax: 4 ctrlAck: 1 bsCVmax: 9 alpha: 10 pcMeasCh: 0 
arfcn: 62 rxLev: -88
arfcn: 56 rxLev: -88
arfcn: 38 rxLev: -88
arfcn: 1 rxLev: -88
arfcn: 11 rxLev: -88
arfcn: 27 rxLev: -89
arfcn: 58 rxLev: -89
$GPGGA,021448.518,,,,,0,04,2.9,,M,0.0,M,,0000*70
arfcn: 66 rxLev: -89
$GPGSA,M,1,,,,,,,,,,,,,,,*12
arfcn: 65 rxLev: -89
$GPRMC,021448.518,V,,,,,,,060218,,,N*47
arfcn: 68 rxLev: -89
arfcn: 46 rxLev: -89
arfcn: 55 rxLev: -89
$GPGGA,021449.518,,,,,0,04,2.9,,M,0.0,M,,0000*71
$GPGSA,M,1,,,,,,,,,,,,,,,*12
$GPRMC,021449.518,V,,,,,,,060218,,,N*46
$GPGGA,021450.518,,,,,0,00,,,M,0.0,M,,0000*58
$GPGSA,M,1,,,,,,,,,,,,,,,*12
$GPGSV,3,1,12,08,86,209,08,10,41,056,24,27,46,130,23,32,22,105,16*7A
$GPGSV,3,2,12,33,33,198,,11,44,282,,01,36,266,,22,25,206,*76
$GPGSV,3,3,12,28,21,318,,14,12,125,,18,11,046,,03,05,209,*7F
$GPRMC,021450.518,V,,,,,,,060218,,,N*4E
$GPGGA,021451.518,,,,,0,00,,,M,0.0,M,,0000*59
$GPGSA,M,1,,,,,,,,,,,,,,,*12
$GPRMC,021451.518,V,,,,,,,060218,,,N*4F
arfcn: 979 bsic: 19 rxLev: -89 ber: 1.06 mcc: 208 mnc: 20 lac: 418 cellId: 20718 cellStatus: CELL_SUITABLE numArfcn: 1 arfcn: 979 numChannels: 22 array: 788 789 790 792 793 795 878 882 884 977 981 983 984 985 986 987 1012 1013 1014 1017 1019 1020 pbcch: 0 nom: 2 rac: 6 spgc: 0 pat: 6 nco: 0 t3168: 1500 t3192: 500 drxmax: 0 ctrlAck: 0 bsCVmax: 8 alpha: 6 pcMeasCh: 1 
arfcn: 105 rxLev: -89
arfcn: 94 rxLev: -89
arfcn: 95 rxLev: -89
arfcn: 96 rxLev: -89
arfcn: 102 rxLev: -89
$GPGGA,021452.518,,,,,0,00,,,M,0.0,M,,0000*5A
arfcn: 103 rxLev: -89
$GPGSA,M,1,,,,,,,,,,,,,,,*12
arfcn: 100 rxLev: -89
$GPRMC,021452.518,V,,,,,,,060218,,,N*4C
arfcn: 93 rxLev: -89
arfcn: 92 rxLev: -89
arfcn: 79 rxLev: -89
arfcn: 106 rxLev: -89
arfcn: 59 rxLev: -89
$GPGGA,021453.518,,,,,0,00,,,M,0.0,M,,0000*5B
$GPGSA,M,1,,,,,,,,,,,,,,,*12
$GPRMC,021453.518,V,,,,,,,060218,,,N*4D
$GPGGA,021454.518,,,,,0,00,,,M,0.0,M,,0000*5C
$GPGSA,M,1,,,,,,,,,,,,,,,*12
$GPRMC,021454.518,V,,,,,,,060218,,,N*4A
arfcn: 2 bsic: 54 rxLev: -89 ber: 1.05 mcc: 208 mnc: 01 lac: 10300 cellId: 42646 cellStatus: CELL_FORBIDDEN numArfcn: 13 arfcn: 2 17 18 19 20 21 22 23 24 25 47 48 49 numChannels: 22 array: 1 5 6 7 8 10 12 13 15 16 512 514 515 516 517 518 604 606 607 608 609 610 pbcch: 0 nom: 2 rac: 1 spgc: 0 pat: 6 nco: 0 t3168: 1000 t3192: 500 drxmax: 2 ctrlAck: 0 bsCVmax: 9 alpha: 5 pcMeasCh: 1 
arfcn: 60 rxLev: -90
arfcn: 61 rxLev: -90
arfcn: 69 rxLev: -90
$GPGGA,021455.518,,,,,0,00,,,M,0.0,M,,0000*5D
$GPGSA,M,1,,,,,,,,,,,,,,,*12
$GPGSV,3,1,12,08,86,209,06,10,41,056,24,27,46,130,22,32,22,105,15*76
$GPGSV,3,2,12,33,33,198,,11,44,282,,01,36,266,,22,25,206,*76
$GPGSV,3,3,12,28,21,318,,14,12,125,,18,11,046,,03,05,209,*7F
$GPRMC,021455.518,V,,,,,,,060218,,,N*4B
$GPGGA,021456.518,,,,,0,00,,,M,0.0,M,,0000*5E
$GPGSA,M,1,,,,,,,,,,,,,,,*12
$GPRMC,021456.518,V,,,,,,,060218,,,N*48
arfcn: 114 bsic: 6 rxLev: -90 ber: 0.01 mcc: 208 mnc: 10 lac: 49415 cellId: 44202 cellStatus: CELL_FORBIDDEN numArfcn: 2 arfcn: 80 114 numChannels: 20 array: 76 77 78 79 80 84 85 86 113 114 115 116 117 118 119 120 121 122 123 124 pbcch: 0 nom: 2 rac: 31 spgc: 0 pat: 6 nco: 0 t3168: 1000 t3192: 500 drxmax: 4 ctrlAck: 1 bsCVmax: 9 alpha: 10 pcMeasCh: 0 
$GPGGA,021457.519,,,,,0,04,2.2,,M,0.0,M,,0000*74
$GPGSA,M,1,,,,,,,,,,,,,,,*12
$GPRMC,021457.519,V,,,,,,,060218,,,N*48
$GPGGA,021458.519,,,,,0,04,2.2,,M,0.0,M,,0000*7B
$GPGSA,M,1,,,,,,,,,,,,,,,*12
$GPRMC,021458.519,V,,,,,,,060218,,,N*47
arfcn: 76 bsic: 5 rxLev: -90 ber: 0.09 mcc: 208 mnc: 10 lac: 49415 cellId: 44813 cellStatus: CELL_FORBIDDEN numArfcn: 2 arfcn: 76 121 numChannels: 16 array: 76 77 78 79 80 82 84 85 86 113 114 117 118 121 123 124 pbcch: 0 nom: 2 rac: 31 spgc: 0 pat: 6 nco: 0 t3168: 1000 t3192: 500 drxmax: 4 ctrlAck: 1 bsCVmax: 9 alpha: 10 pcMeasCh: 0 
arfcn: 97 rxLev: -90
arfcn: 104 rxLev: -90
arfcn: 101 rxLev: -90
$GPGGA,021459.519,,,,,0,04,2.2,,M,0.0,M,,0000*7A
$GPGSA,M,1,,,,,,,,,,,,,,,*12
$GPRMC,021459.519,V,,,,,,,060218,,,N*46
$GPGGA,021500.519,,,,,0,04,2.2,,M,0.0,M,,0000*77
$GPGSA,M,1,,,,,,,,,,,,,,,*12
$GPGSV,3,1,12,27,46,130,22,10,41,056,24,32,22,105,09,03,05,209,12*7E
$GPGSV,3,2,12,08,86,209,08,33,33,198,,11,44,282,,01,36,266,*70
$GPGSV,3,3,12,22,25,206,,28,21,318,,14,12,125,,18,11,046,*71
$GPRMC,021500.519,V,,,,,,,060218,,,N*4B
$GPGGA,021501.519,,,,,0,04,2.2,,M,0.0,M,,0000*76
$GPGSA,M,1,,,,,,,,,,,,,,,*12
$GPRMC,021501.519,V,,,,,,,060218,,,N*4A
$GPGGA,021502.519,,,,,0,04,2.2,,M,0.0,M,,0000*75
$GPGSA,M,1,,,,,,,,,,,,,,,*12
$GPRMC,021502.519,V,,,,,,,060218,,,N*49
arfcn: 605 bsic: 33 rxLev: -90 ber: 0.02 mcc: 208 mnc: 01 lac: 10300 cellId: 27588 cellStatus: CELL_FORBIDDEN numArfcn: 22 arfcn: 525 526 527 528 529 530 531 532 533 534 535 587 588 589 590 591 592 593 594 595 596 597 numChannels: 18 array: 1 3 5 8 12 15 512 513 514 515 516 517 518 604 605 606 607 609 pbcch: 0 nom: 2 rac: 1 spgc: 0 pat: 6 nco: 0 t3168: 1000 t3192: 500 drxmax: 2 ctrlAck: 0 bsCVmax: 9 alpha: 5 pcMeasCh: 1 
$GPGGA,021503.519,4806.8462,N,00139.3998,W,1,05,1.9,73.3,M,48.3,M,,0000*71
$GPGSA,M,3,08,27,10,32,03,,,,,,,,2.7,1.9,1.9*35
$GPRMC,021503.519,A,4806.8462,N,00139.3998,W,2.68,358.01,060218,,,A*78
$GPGGA,021504.519,,,,,0,04,2.2,,M,0.0,M,,0000*73
$GPGSA,M,1,,,,,,,,,,,,,,,*12
$GPRMC,021504.519,V,,,,,,,060218,,,N*4F
$GPGGA,021505.519,,,,,0,04,2.2,,M,0.0,M,,0000*72
$GPGSA,M,1,,,,,,,,,,,,,,,*12
$GPGSV,3,1,12,27,46,130,22,10,41,056,24,32,22,105,08,03,05,209,12*7F
$GPGSV,3,2,12,08,86,209,07,33,33,198,,11,44,282,,01,36,266,*7F
$GPGSV,3,3,12,22,25,206,,28,21,318,,14,12,125,,18,11,046,*71
$GPRMC,021505.519,V,,,,,,,060218,,,N*4E
arfcn: 1017 bsic: 33 rxLev: -90 ber: 0.00 mcc: 208 mnc: 20 lac: 418 cellId: 20104 cellStatus: CELL_SUITABLE numArfcn: 3 arfcn: 986 987 1017 numChannels: 20 array: 788 790 885 975 976 978 979 980 981 982 986 987 1011 1012 1015 1017 1019 1020 1021 1022 pbcch: 0 nom: 2 rac: 7 spgc: 0 pat: 6 nco: 0 t3168: 1500 t3192: 500 drxmax: 4 ctrlAck: 1 bsCVmax: 8 alpha: 6 pcMeasCh: 1 
arfcn: 98 rxLev: -90
arfcn: 81 rxLev: -90
arfcn: 107 rxLev: -90
$GPGGA,021506.519,,,,,0,04,2.2,,M,0.0,M,,0000*71
arfcn: 108 rxLev: -90
$GPGSA,M,1,,,,,,,,,,,,,,,*12
arfcn: 54 rxLev: -90
$GPRMC,021506.519,V,,,,,,,060218,,,N*4D
$GPGGA,021507.519,,,,,0,00,,,M,0.0,M,,0000*5A
$GPGSA,M,1,,,,,,,,,,,,,,,*12
$GPRMC,021507.519,V,,,,,,,060218,,,N*4C
$GPGGA,021508.519,,,,,0,00,,,M,0.0,M,,0000*55
$GPGSA,M,1,,,,,,,,,,,,,,,*12
$GPRMC,021508.519,V,,,,,,,060218,,,N*43
$GPGGA,021509.519,,,,,0,00,,,M,0.0,M,,0000*54
$GPGSA,M,1,,,,,,,,,,,,,,,*12
$GPRMC,021509.519,V,,,,,,,060218,,,N*42
arfcn: 4 bsic: 54 rxLev: -90 ber: 2.04 mcc: 208 mnc: 01 lac: 10300 cellId: 43768 cellStatus: CELL_FORBIDDEN numArfcn: 13 arfcn: 4 17 18 19 20 21 22 23 24 25 47 48 49 numChannels: 20 array: 1 3 5 6 7 8 12 13 14 513 514 515 517 518 601 605 606 608 609 610 pbcch: 0 nom: 2 rac: 1 spgc: 0 pat: 6 nco: 0 t3168: 1000 t3192: 500 drxmax: 2 ctrlAck: 0 bsCVmax: 9 alpha: 5 pcMeasCh: 1 
arfcn: 53 rxLev: -91
arfcn: 99 rxLev: -91
$GPGGA,021510.519,,,,,0,00,,,M,0.0,M,,0000*5C
arfcn: 91 rxLev: -91
$GPGSA,M,1,,,,,,,,,,,,,,,*12
$GPGSV,3,1,12,03,05,209,04,08,86,209,06,10,41,056,24,27,46,130,22*7E
$GPGSV,3,2,12,32,22,105,09,33,33,198,,11,44,282,,01,36,266,*79
$GPGSV,3,3,12,22,25,206,,28,21,318,,14,12,125,,18,11,046,*71
$GPRMC,021510.519,V,,,,,,,060218,,,N*4A
$GPGGA,021511.519,,,,,0,00,,,M,0.0,M,,0000*5D
$GPGSA,M,1,,,,,,,,,,,,,,,*12
$GPRMC,021511.519,V,,,,,,,060218,,,N*4B
arfcn: 1014 bsic: 31 rxLev: -91 ber: 3.06 mcc: FFF mnc: FF lac: 65535 cellId: 0 cellStatus: CELL_OTHER numArfcn: 0 arfcn: numChannels: 0 array:
$GPGGA,021512.519,,,,,0,00,,,M,0.0,M,,0000*5E
$GPGSA,M,1,,,,,,,,,,,,,,,*12
$GPRMC,021512.519,V,,,,,,,060218,,,N*48
$GPGGA,021513.519,,,,,0,00,,,M,0.0,M,,0000*5F
$GPGSA,M,1,,,,,,,,,,,,,,,*12
$GPRMC,021513.519,V,,,,,,,060218,,,N*49
$GPGGA,021514.519,,,,,0,00,,,M,0.0,M,,0000*58
$GPGSA,M,1,,,,,,,,,,,,,,,*12
$GPRMC,021514.519,V,,,,,,,060218,,,N*4E
arfcn: 14 bsic: 35 rxLev: -91 ber: 0.06 mcc: 208 mnc: 01 lac: 10300 cellId: 39250 cellStatus: CELL_FORBIDDEN numArfcn: 13 arfcn: 14 17 18 19 20 21 22 23 24 25 47 48 49 numChannels: 14 array: 1 3 4 6 8 10 12 14 512 513 514 517 604 608 pbcch: 0 nom: 2 rac: 1 spgc: 1 pat: 6 nco: 0 t3168: 1000 t3192: 500 drxmax: 4 ctrlAck: 1 bsCVmax: 9 alpha: 7 pcMeasCh: 0 
arfcn: 26 rxLev: -91
$GPGGA,021515.519,,,,,0,00,,,M,0.0,M,,0000*59
arfcn: 9 rxLev: -92
$GPGSA,M,1,,,,,,,,,,,,,,,*12
arfcn: 70 rxLev: -92
$GPGSV,3,1,12,03,05,209,07,08,86,209,04,10,41,056,24,27,46,130,23*7E
arfcn: 109 rxLev: -92
$GPGSV,3,2,12,32,22,105,11,33,33,198,,11,44,282,,01,36,266,*70
$GPGSV,3,3,12,22,25,206,,28,21,318,,14,12,125,,18,11,046,*71
$GPRMC,021515.519,V,,,,,,,060218,,,N*4F
$GPGGA,021516.519,,,,,0,04,2.2,,M,0.0,M,,0000*70
$GPGSA,M,1,,,,,,,,,,,,,,,*12
$GPRMC,021516.519,V,,,,,,,060218,,,N*4C
$GPGGA,021517.519,,,,,0,04,2.2,,M,0.0,M,,0000*71
$GPGSA,M,1,,,,,,,,,,,,,,,*12
$GPRMC,021517.519,V,,,,,,,060218,,,N*4D
arfcn: 115 bsic: 43 rxLev: -92 ber: 0.00 mcc: 208 mnc: 10 lac: 49415 cellId: 55710 cellStatus: CELL_FORBIDDEN numArfcn: 2 arfcn: 87 115 numChannels: 22 array: 76 77 78 79 80 82 83 84 85 86 113 114 115 116 117 118 119 120 121 122 123 124 pbcch: 0 nom: 2 rac: 31 spgc: 0 pat: 6 nco: 0 t3168: 1000 t3192: 500 drxmax: 4 ctrlAck: 1 bsCVmax: 9 alpha: 10 pcMeasCh: 0 
$GPGGA,021518.519,,,,,0,04,2.2,,M,0.0,M,,0000*7E
$GPGSA,M,1,,,,,,,,,,,,,,,*12
$GPRMC,021518.519,V,,,,,,,060218,,,N*42
$GPGGA,021519.519,,,,,0,04,2.2,,M,0.0,M,,0000*7F
$GPGSA,M,1,,,,,,,,,,,,,,,*12
$GPRMC,021519.519,V,,,,,,,060218,,,N*43
arfcn: 608 bsic: 46 rxLev: -92 ber: 0.00 mcc: 208 mnc: 01 lac: 10300 cellId: 36733 cellStatus: CELL_FORBIDDEN numArfcn: 16 arfcn: 519 520 521 522 523 524 525 526 596 597 598 599 600 601 602 603 numChannels: 15 array: 1 3 6 7 10 12 14 512 513 514 515 517 604 605 606 pbcch: 0 nom: 2 rac: 1 spgc: 0 pat: 6 nco: 0 t3168: 1000 t3192: 500 drxmax: 2 ctrlAck: 0 bsCVmax: 9 alpha: 5 pcMeasCh: 1 
$GPGGA,021520.519,,,,,0,04,2.2,,M,0.0,M,,0000*75
$GPGSA,M,1,,,,,,,,,,,,,,,*12
$GPGSV,3,1,12,27,46,130,23,10,41,056,23,32,22,105,12,03,05,209,08*79
$GPGSV,3,2,12,08,86,209,06,33,33,198,,11,44,282,,01,36,266,*7E
$GPGSV,3,3,12,22,25,206,,28,21,318,,14,12,125,,18,11,046,*71
$GPRMC,021520.519,V,,,,,,,060218,,,N*49
arfcn: 515 bsic: 34 rxLev: -92 ber: 2.04 mcc: 208 mnc: 01 lac: 10300 cellId: 27586 cellStatus: CELL_FORBIDDEN numArfcn: 16 arfcn: 519 520 521 522 523 524 525 526 596 597 598 599 600 601 602 603 numChannels: 9 array: 1 8 12 512 513 516 605 606 607 pbcch: 0 nom: 2 rac: 1 spgc: 0 pat: 6 nco: 0 t3168: 1000 t3192: 500 drxmax: 2 ctrlAck: 0 bsCVmax: 9 alpha: 5 pcMeasCh: 1 
arfcn: 86 rxLev: -92
$GPGGA,021521.519,,,,,0,00,,,M,0.0,M,,0000*5E
$GPGSA,M,1,,,,,,,,,,,,,,,*12
$GPRMC,021521.519,V,,,,,,,060218,,,N*48
$GPGGA,021522.519,,,,,0,04,2.9,,M,0.0,M,,0000*7C
$GPGSA,M,1,,,,,,,,,,,,,,,*12
$GPRMC,021522.519,V,,,,,,,060218,,,N*4B
$GPGGA,021523.519,,,,,0,05,1.9,,M,0.0,M,,0000*7F
$GPGSA,M,1,,,,,,,,,,,,,,,*12
$GPRMC,021523.519,V,,,,,,,060218,,,N*4A
$GPGGA,021524.519,,,,,0,04,2.9,,M,0.0,M,,0000*7A
$GPGSA,M,1,,,,,,,,,,,,,,,*12
$GPRMC,021524.519,V,,,,,,,060218,,,N*4D
$GPGGA,021525.519,,,,,0,04,2.9,,M,0.0,M,,0000*7B
$GPGSA,M,1,,,,,,,,,,,,,,,*12
$GPGSV,3,1,12,08,86,209,08,27,46,130,22,10,41,056,24,32,22,105,13*7E
$GPGSV,3,2,12,03,05,209,06,33,33,198,,11,44,282,,01,36,266,*7E
$GPGSV,3,3,12,22,25,206,,28,21,318,,14,12,125,,18,11,046,*71
$GPRMC,021525.519,V,,,,,,,060218,,,N*4C
$GPGGA,021526.519,,,,,0,04,2.9,,M,0.0,M,,0000*78
$GPGSA,M,1,,,,,,,,,,,,,,,*12
$GPRMC,021526.519,V,,,,,,,060218,,,N*4F
arfcn: 123 bsic: 1 rxLev: -93 ber: 4.09 mcc: 208 mnc: 10 lac: 49415 cellId: 41634 cellStatus: CELL_FORBIDDEN numArfcn: 2 arfcn: 87 123 numChannels: 18 array: 76 77 78 79 80 83 84 85 86 113 114 116 117 118 119 121 123 124 pbcch: 0 nom: 2 rac: 31 spgc: 0 pat: 6 nco: 0 t3168: 1000 t3192: 500 drxmax: 4 ctrlAck: 1 bsCVmax: 9 alpha: 10 pcMeasCh: 0 
$GPGGA,021527.519,4806.8485,N,00139.3973,W,1,05,1.9,7.7,M,48.3,M,,0000*4C
$GPGSA,M,3,08,27,10,32,03,,,,,,,,2.7,1.9,1.9*35
$GPRMC,021527.519,A,4806.8485,N,00139.3973,W,3.04,85.69,060218,,,A*44
$GPGGA,021528.519,,,,,0,04,2.2,,M,0.0,M,,0000*7D
$GPGSA,M,1,,,,,,,,,,,,,,,*12
$GPRMC,021528.519,V,,,,,,,060218,,,N*41
$GPGGA,021529.519,4806.8577,N,00139.3971,W,1,05,1.9,-7.8,M,48.3,M,,0000*6E
$GPGSA,M,3,08,27,10,32,03,,,,,,,,2.7,1.9,1.9*35
$GPRMC,021529.519,A,4806.8577,N,00139.3971,W,5.69,46.42,060218,,,A*4F
$GPGGA,021530.519,,,,,0,04,3.8,,M,0.0,M,,0000*7F
$GPGSA,M,1,,,,,,,,,,,,,,,*12
arfcn: 513 bsic: 27 rxLev: -93 ber: 1.06 mcc: 208 mnc: 01 lac: 10300 cellId: 27587 cellStatus: CELL_FORBIDDEN numArfcn: 16 arfcn: 519 520 521 522 523 524 525 526 596 597 598 599 600 601 602 603 numChannels: 14 array: 1 4 8 12 512 513 515 516 517 518 605 606 607 609 pbcch: 0 nom: 2 rac: 1 spgc: 0 pat: 6 nco: 0 t3168: 1000 t3192: 500 drxmax: 2 ctrlAck: 0 bsCVmax: 9 alpha: 5 pcMeasCh: 1 
$GPGSV,3,1,12,08,85,192,08,27,45,131,22,32,23,104,17,03,06,210,11*7D
$GPGSV,3,2,12,33,33,198,,11,45,283,,10,40,055,,01,37,267,*70
$GPGSV,3,3,12,22,26,206,,28,22,317,,14,13,125,,18,10,045,*7D
$GPRMC,021530.519,V,,,,,,,060218,,,N*48
$GPGGA,021531.519,,,,,0,04,3.8,,M,0.0,M,,0000*7E
$GPGSA,M,1,,,,,,,,,,,,,,,*12
$GPRMC,021531.519,V,,,,,,,060218,,,N*49
$GPGGA,021532.519,4806.8506,N,00139.3897,W,1,05,1.9,1.1,M,48.3,M,,0000*49
$GPGSA,M,3,08,27,10,32,03,,,,,,,,2.7,1.9,1.9*35
$GPRMC,021532.519,A,4806.8506,N,00139.3897,W,4.66,80.83,060218,,,A*43
arfcn: 1016 bsic: 41 rxLev: -93 ber: 0.00 mcc: 208 mnc: 20 lac: 418 cellId: 23623 cellStatus: CELL_SUITABLE numArfcn: 1 arfcn: 1016 numChannels: 28 array: 787 788 791 792 793 794 795 879 880 883 884 975 977 978 979 981 982 983 986 987 1011 1012 1017 1018 1019 1020 1021 1022 pbcch: 0 nom: 2 rac: 6 spgc: 0 pat: 6 nco: 0 t3168: 1500 t3192: 500 drxmax: 4 ctrlAck: 1 bsCVmax: 8 alpha: 6 pcMeasCh: 1 
arfcn: 609 rxLev: -93
arfcn: 52 rxLev: -93
$GPGGA,021533.519,4806.8493,N,00139.3870,W,1,05,1.9,17.8,M,48.3,M,,0000*72
arfcn: 6 rxLev: -93
$GPGSA,M,3,08,27,10,32,03,,,,,,,,2.7,1.9,1.9*35
arfcn: 7 rxLev: -94
arfcn: 47 rxLev: -94
$GPRMC,021533.519,A,4806.8493,N,00139.3870,W,5.28,54.58,060218,,,A*42
arfcn: 71 rxLev: -94
arfcn: 84 rxLev: -94
$GPGGA,021534.519,4806.8546,N,00139.3887,W,1,05,1.9,6.0,M,48.3,M,,0000*4C
$GPGSA,M,3,08,27,10,32,03,,,,,,,,2.7,1.9,1.9*35
$GPRMC,021534.519,A,4806.8546,N,00139.3887,W,3.69,355.01,060218,,,A*79
$GPGGA,021535.519,4806.8621,N,00139.3950,W,1,05,1.9,-0.4,M,48.3,M,,0000*6B
$GPGSA,M,3,08,27,10,32,03,,,,,,,,2.7,1.9,1.9*35
$GPGSV,3,1,12,08,85,192,09,27,45,131,22,10,40,055,24,32,23,104,16*78
$GPGSV,3,2,12,03,06,210,11,33,33,198,,11,45,283,,01,37,267,*73
$GPGSV,3,3,12,22,26,206,,28,22,317,,14,13,125,,18,10,045,*7D
$GPRMC,021535.519,A,4806.8621,N,00139.3950,W,3.21,335.04,060218,,,A*7E
arfcn: 82 bsic: 63 rxLev: -94 ber: 0.02 mcc: 208 mnc: 10 lac: 49415 cellId: 53517 cellStatus: CELL_FORBIDDEN numArfcn: 2 arfcn: 82 84 numChannels: 17 array: 76 77 78 79 80 82 85 86 114 115 118 119 120 121 122 123 124 pbcch: 0 nom: 2 rac: 31 spgc: 0 pat: 6 nco: 0 t3168: 1000 t3192: 500 drxmax: 4 ctrlAck: 1 bsCVmax: 9 alpha: 10 pcMeasCh: 0 
arfcn: 77 rxLev: -94
$GPGGA,021536.519,4806.8534,N,00139.3842,W,1,05,1.9,10.0,M,48.3,M,,0000*75
$GPGSA,M,3,08,27,10,32,03,,,,,,,,2.7,1.9,1.9*35
arfcn: 72 rxLev: -94
arfcn: 90 rxLev: -94
$GPRMC,021536.519,A,4806.8534,N,00139.3842,W,3.56,117.87,060218,,,A*71
arfcn: 978 rxLev: -95
arfcn: 120 rxLev: -95
arfcn: 110 rxLev: -95
$GPGGA,021537.518,,,,,0,04,2.9,,M,0.0,M,,0000*79
$GPGSA,M,1,,,,,,,,,,,,,,,*12
$GPRMC,021537.518,V,,,,,,,060218,,,N*4E
$GPGGA,021538.518,,,,,0,04,2.9,,M,0.0,M,,0000*76
$GPGSA,M,1,,,,,,,,,,,,,,,*12
$GPRMC,021538.518,V,,,,,,,060218,,,N*41
arfcn: 1020 bsic: 39 rxLev: -95 ber: 0.00 mcc: 208 mnc: 20 lac: 418 cellId: 38980 cellStatus: CELL_SUITABLE numArfcn: 1 arfcn: 1020 numChannels: 26 array: 787 788 790 791 793 795 796 879 884 885 978 979 981 982 983 985 986 987 1011 1012 1013 1014 1015 1017 1019 1022 pbcch: 0 nom: 2 rac: 6 spgc: 0 pat: 6 nco: 0 t3168: 1500 t3192: 500 drxmax: 0 ctrlAck: 0 bsCVmax: 8 alpha: 6 pcMeasCh: 1 
$GPGGA,021539.518,,,,,0,04,2.9,,M,0.0,M,,0000*77
$GPGSA,M,1,,,,,,,,,,,,,,,*12
$GPRMC,021539.518,V,,,,,,,060218,,,N*40
$GPGGA,021540.519,4806.8565,N,00139.3917,W,1,05,1.7,11.1,M,48.3,M,,0000*7F
$GPGSA,M,3,08,27,10,01,32,,,,,,,,3.0,1.7,2.4*31
$GPGSV,3,1,12,08,85,192,09,27,45,131,22,10,40,055,24,01,37,267,12*7F
$GPGSV,3,2,12,32,23,104,15,03,06,210,04,33,33,198,,11,45,283,*70
$GPGSV,3,3,12,22,26,206,,28,22,317,,14,13,125,,18,10,045,*7D
$GPRMC,021540.519,A,4806.8565,N,00139.3917,W,4.47,143.52,060218,,,A*7B
$GPGGA,021541.519,4806.8561,N,00139.3985,W,1,05,1.7,-9.2,M,48.3,M,,0000*66
$GPGSA,M,3,08,27,10,01,32,,,,,,,,3.0,1.7,2.4*31
$GPRMC,021541.519,A,4806.8561,N,00139.3985,W,5.83,126.29,060218,,,A*73
arfcn: 516 bsic: 38 rxLev: -95 ber: 0.00 mcc: 208 mnc: 01 lac: 10300 cellId: 27540 cellStatus: CELL_FORBIDDEN numArfcn: 16 arfcn: 519 520 521 522 523 524 525 526 596 597 598 599 600 601 602 603 numChannels: 19 array: 1 2 6 7 9 10 11 15 512 513 514 515 517 604 605 606 607 609 610 pbcch: 0 nom: 2 rac: 1 spgc: 0 pat: 6 nco: 0 t3168: 1000 t3192: 500 drxmax: 2 ctrlAck: 0 bsCVmax: 9 alpha: 5 pcMeasCh: 1 
$GPGGA,021542.519,4806.8588,N,00139.3950,W,1,05,1.7,24.3,M,48.3,M,,0000*79
$GPGSA,M,3,08,27,10,01,32,,,,,,,,3.0,1.7,2.4*31
$GPRMC,021542.519,A,4806.8588,N,00139.3950,W,2.32,76.53,060218,,,A*4B
$GPGGA,021543.519,4806.8570,N,00139.3890,W,1,05,1.7,51.8,M,48.3,M,,0000*7B
$GPGSA,M,3,08,27,10,01,32,,,,,,,,3.0,1.7,2.4*31
$GPRMC,021543.519,A,4806.8570,N,00139.3890,W,2.72,146.48,060218,,,A*7C
$GPGGA,021544.519,4806.8533,N,00139.3870,W,1,05,1.7,83.1,M,48.3,M,,0000*73
$GPGSA,M,3,08,27,10,01,32,,,,,,,,3.0,1.7,2.4*31
$GPRMC,021544.519,A,4806.8533,N,00139.3870,W,1.95,173.59,060218,,,A*7E
$GPGGA,021545.519,4806.8604,N,00139.3881,W,1,05,1.7,80.1,M,48.3,M,,0000*78
$GPGSA,M,3,08,27,10,01,32,,,,,,,,3.0,1.7,2.4*31
arfcn: 1021 bsic: 35 rxLev: -96 ber: 2.01 mcc: 208 mnc: 20 lac: 418 cellId: 20102 cellStatus: CELL_SUITABLE numArfcn: 3 arfcn: 975 982 1021 numChannels: 21 array: 788 790 880 885 975 976 977 978 980 981 982 986 987 1011 1012 1015 1017 1019 1020 1021 1022 pbcch: 0 nom: 2 rac: 7 spgc: 0 pat: 6 nco: 0 t3168: 1500 t3192: 500 drxmax: 4 ctrlAck: 1 bsCVmax: 8 alpha: 6 pcMeasCh: 1 
$GPGSV,3,1,12,08,85,192,11,27,45,131,22,10,40,055,23,01,37,267,11*72
$GPGSV,3,2,12,32,23,104,16,03,06,210,05,33,33,198,,11,45,283,*72
$GPGSV,3,3,12,22,26,206,,28,22,317,,14,13,125,,18,10,045,*7D
$GPRMC,021545.519,A,4806.8604,N,00139.3881,W,2.65,22.03,060218,,,A*40
$GPGGA,021546.519,4806.8575,N,00139.3946,W,1,05,1.7,107.2,M,48.3,M,,0000*49
$GPGSA,M,3,08,27,10,01,32,,,,,,,,3.0,1.7,2.4*31
$GPRMC,021546.519,A,4806.8575,N,00139.3946,W,2.08,217.56,060218,,,A*73
$GPGGA,021547.519,4806.8576,N,00139.4032,W,1,05,1.7,89.0,M,48.3,M,,0000*73
$GPGSA,M,3,08,27,10,01,32,,,,,,,,3.0,1.7,2.4*31
$GPRMC,021547.519,A,4806.8576,N,00139.4032,W,2.24,319.53,060218,,,A*78
$GPGGA,021548.519,4806.8568,N,00139.4021,W,1,05,1.7,94.4,M,48.3,M,,0000*79
$GPGSA,M,3,08,27,10,01,32,,,,,,,,3.0,1.7,2.4*31
$GPRMC,021548.519,A,4806.8568,N,00139.4021,W,1.87,236.28,060218,,,A*70
$GPGGA,021549.519,4806.8591,N,00139.3960,W,1,05,1.7,83.7,M,48.3,M,,0000*70
$GPGSA,M,3,08,27,10,01,32,,,,,,,,3.0,1.7,2.4*31
$GPRMC,021549.519,A,4806.8591,N,00139.3960,W,4.21,227.43,060218,,,A*78
$GPGGA,021550.519,4806.8581,N,00139.3965,W,1,05,1.7,112.8,M,48.3,M,,0000*4A
$GPGSA,M,3,08,27,10,01,32,,,,,,,,3.0,1.7,2.4*31
$GPGSV,3,1,12,08,85,192,13,27,45,131,22,10,40,055,23,01,37,267,12*73
$GPGSV,3,2,12,32,23,104,16,03,06,210,05,33,33,198,,11,45,283,*72
$GPGSV,3,3,12,22,26,206,,28,22,317,,14,13,125,,18,10,045,*7D
$GPRMC,021550.519,A,4806.8581,N,00139.3965,W,2.47,247.60,060218,,,A*75
arfcn: 1019 bsic: 48 rxLev: -97 ber: 2.05 mcc: 208 mnc: 20 lac: 418 cellId: 20015 cellStatus: CELL_SUITABLE numArfcn: 2 arfcn: 1010 1019 numChannels: 20 array: 787 789 794 882 976 979 981 982 983 985 986 987 1012 1013 1015 1016 1017 1020 1021 1022 pbcch: 0 nom: 2 rac: 6 spgc: 0 pat: 6 nco: 0 t3168: 1500 t3192: 500 drxmax: 0 ctrlAck: 0 bsCVmax: 8 alpha: 4 pcMeasCh: 1 
$GPGGA,021551.519,4806.8641,N,00139.4062,W,1,05,1.7,105.2,M,48.3,M,,0000*41
$GPGSA,M,3,08,27,10,01,32,,,,,,,,3.0,1.7,2.4*31
$GPRMC,021551.519,A,4806.8641,N,00139.4062,W,5.27,237.37,060218,,,A*76
$GPGGA,021552.519,4806.8454,N,00139.4145,W,1,06,1.5,53.3,M,48.3,M,,0000*72
$GPGSA,M,3,08,27,10,01,32,03,,,,,,,2.4,1.5,1.8*3A
$GPRMC,021552.519,A,4806.8454,N,00139.4145,W,1.49,237.57,060218,,,A*7D
$GPGGA,021553.519,4806.8409,N,00139.4192,W,1,06,1.5,30.2,M,48.3,M,,0000*75
$GPGSA,M,3,08,27,10,01,32,03,,,,,,,2.4,1.5,1.8*3A
$GPRMC,021553.519,A,4806.8409,N,00139.4192,W,5.30,240.58,060218,,,A*7B
$GPGGA,021554.000,4806.8391,N,00139.4218,W,1,06,1.5,25.4,M,48.3,M,,0000*7A
$GPGSA,M,3,08,27,10,01,32,03,,,,,,,2.4,1.5,1.8*3A
$GPRMC,021554.000,A,4806.8391,N,00139.4218,W,6.38,251.89,060218,,,A*71
arfcn: 1015 bsic: 59 rxLev: -97 ber: 2.04 mcc: 208 mnc: 20 lac: 418 cellId: 22494 cellStatus: CELL_SUITABLE numArfcn: 1 arfcn: 1015 numChannels: 24 array: 788 789 790 792 794 880 883 884 885 976 978 979 980 981 982 986 987 1013 1014 1017 1018 1019 1020 1021 pbcch: 0 nom: 2 rac: 7 spgc: 0 pat: 6 nco: 0 t3168: 1500 t3192: 500 drxmax: 0 ctrlAck: 0 bsCVmax: 8 alpha: 6 pcMeasCh: 1 
arfcn: 729 rxLev: -97
arfcn: 758 rxLev: -97
$GPGGA,021555.000,4806.8381,N,00139.4247,W,1,06,1.5,23.6,M,48.3,M,,0000*74
arfcn: 761 rxLev: -97
$GPGSA,M,3,08,27,10,01,32,03,,,,,,,2.4,1.5,1.8*3A
arfcn: 759 rxLev: -97
arfcn: 760 rxLev: -97
$GPGSV,3,1,12,08,85,192,17,27,45,131,21,10,40,055,23,01,37,267,09*7E
arfcn: 778 rxLev: -97
$GPGSV,3,2,12,32,23,104,15,03,06,210,11,37,27,150,,11,45,283,*71
$GPGSV,3,3,12,22,26,206,,28,22,317,,14,13,125,,18,10,045,*7D
$GPRMC,021555.000,A,4806.8381,N,00139.4247,W,7.05,258.69,060218,,,A*73
$GPGGA,021556.000,4806.8364,N,00139.4272,W,1,06,1.5,22.5,M,48.3,M,,0000*78
$GPGSA,M,3,08,27,10,01,32,03,,,,,,,2.4,1.5,1.8*3A
$GPRMC,021556.000,A,4806.8364,N,00139.4272,W,7.06,262.55,060218,,,A*78
arfcn: 118 bsic: 3 rxLev: -97 ber: 3.05 mcc: 208 mnc: 10 lac: 49415 cellId: 45270 cellStatus: CELL_FORBIDDEN numArfcn: 2 arfcn: 86 118 numChannels: 22 array: 76 77 78 79 80 81 82 83 84 85 86 114 115 116 117 118 119 120 121 122 123 124 pbcch: 0 nom: 2 rac: 31 spgc: 0 pat: 6 nco: 0 t3168: 1000 t3192: 500 drxmax: 4 ctrlAck: 1 bsCVmax: 9 alpha: 10 pcMeasCh: 0 
$GPGGA,021557.000,4806.8364,N,00139.4302,W,1,05,1.7,28.0,M,48.3,M,,0000*71
arfcn: 15 rxLev: -97
$GPGSA,M,3,08,27,10,01,32,,,,,,,,2.6,1.7,1.9*38
arfcn: 25 rxLev: -98
$GPRMC,021557.000,A,4806.8364,N,00139.4302,W,6.88,266.00,060218,,,A*7C
arfcn: 987 rxLev: -98
$GPGGA,021558.000,4806.8385,N,00139.4335,W,1,05,1.7,28.6,M,48.3,M,,0000*73
$GPGSA,M,3,08,27,10,01,32,,,,,,,,2.6,1.7,1.9*38
$GPRMC,021558.000,A,4806.8385,N,00139.4335,W,8.03,268.94,060218,,,A*76
$GPGGA,021559.000,4806.8405,N,00139.4370,W,1,05,1.7,28.9,M,48.3,M,,0000*73
arfcn: 517 bsic: 57 rxLev: -98 ber: 10.07 mcc: FFF mnc: FF lac: 65535 cellId: 0 cellStatus: CELL_OTHER numArfcn: 0 arfcn: numChannels: 0 array:
$GPGSA,M,3,08,27,10,01,32,,,,,,,,2.6,1.7,1.9*38
arfcn: 771 rxLev: -98
arfcn: 772 rxLev: -98
$GPRMC,021559.000,A,4806.8405,N,00139.4370,W,8.68,266.39,060218,,,A*7D
arfcn: 768 rxLev: -98
arfcn: 770 rxLev: -98
arfcn: 769 rxLev: -98
arfcn: 767 rxLev: -98
arfcn: 765 rxLev: -98
arfcn: 766 rxLev: -98
arfcn: 773 rxLev: -98
$GPGGA,021600.000,4806.8416,N,00139.4397,W,1,04,2.9,29.5,M,48.3,M,,0000*76
arfcn: 779 rxLev: -98
$GPGSA,M,3,08,27,10,32,,,,,,,,,4.2,2.9,3.1*3C
arfcn: 762 rxLev: -98
arfcn: 750 rxLev: -98
$GPGSV,3,1,12,08,85,192,17,27,45,131,21,10,40,055,22,32,23,104,15*71
arfcn: 751 rxLev: -98
arfcn: 718 rxLev: -98
$GPGSV,3,2,12,01,37,267,07,03,06,210,07,37,27,150,,11,45,283,*76
arfcn: 73 rxLev: -98
arfcn: 75 rxLev: -99
$GPGSV,3,3,12,22,26,206,,28,22,317,,14,13,125,,18,10,045,*7D
arfcn: 977 rxLev: -99
arfcn: 116 rxLev: -99
$GPRMC,021600.000,A,4806.8416,N,00139.4397,W,8.60,266.65,060218,,,A*78
arfcn: 659 rxLev: -99
arfcn: 661 rxLev: -99
arfcn: 670 rxLev: -99
$GPGGA,021601.000,4806.8429,N,00139.4430,W,1,04,2.9,30.4,M,48.3,M,,0000*78
arfcn: 720 rxLev: -99
$GPGSA,M,3,08,27,10,32,,,,,,,,,4.2,2.9,3.1*3C
arfcn: 730 rxLev: -99
arfcn: 725 rxLev: -99
$GPRMC,021601.000,A,4806.8429,N,00139.4430,W,9.37,268.20,060218,,,A*73
arfcn: 757 rxLev: -99
arfcn: 746 rxLev: -99
arfcn: 777 rxLev: -99
arfcn: 763 rxLev: -99
arfcn: 764 rxLev: -99
arfcn: 742 rxLev: -99
arfcn: 736 rxLev: -99
arfcn: 738 rxLev: -99
$GPGGA,021602.000,4806.8436,N,00139.4467,W,1,04,2.9,31.1,M,48.3,M,,0000*73
arfcn: 747 rxLev: -99
$GPGSA,M,3,08,27,10,32,,,,,,,,,4.2,2.9,3.1*3C
arfcn: 723 rxLev: -99
arfcn: 724 rxLev: -99
$GPRMC,021602.000,A,4806.8436,N,00139.4467,W,9.56,268.12,060218,,,A*7A
arfcn: 728 rxLev: -99
arfcn: 722 rxLev: -99
arfcn: 716 rxLev: -99
arfcn: 660 rxLev: -99
arfcn: 617 rxLev: -99
arfcn: 121 rxLev: -99
arfcn: 51 rxLev: -100
arfcn: 607 rxLev: -100
$GPGGA,021603.000,4806.8441,N,00139.4501,W,1,04,2.9,31.8,M,48.3,M,,0000*7A
$GPGSA,M,3,08,27,10,32,,,,,,,,,4.2,2.9,3.1*3C
$GPRMC,021603.000,A,4806.8441,N,00139.4501,W,8.38,269.89,060218,,,A*70
$GPGGA,021604.000,4806.8449,N,00139.4524,W,1,04,2.9,32.2,M,48.3,M,,0000*7B
$GPGSA,M,3,08,27,10,32,,,,,,,,,4.2,2.9,3.1*3C
$GPRMC,021604.000,A,4806.8449,N,00139.4524,W,6.62,273.74,060218,,,A*70
$GPGGA,021605.000,4806.8465,N,00139.4560,W,1,05,1.7,32.4,M,48.3,M,,0000*7E
$GPGSA,M,3,08,27,10,01,32,,,,,,,,2.6,1.7,1.9*38
$GPGSV,3,1,12,08,85,192,16,27,45,131,21,10,40,055,22,01,37,267,09*7E
$GPGSV,3,2,12,32,23,104,15,03,06,210,08,37,27,150,,11,45,283,*79
$GPGSV,3,3,12,22,26,206,,28,22,317,,14,13,125,,18,10,045,*7D
$GPRMC,021605.000,A,4806.8465,N,00139.4560,W,7.96,281.96,060218,,,A*74
$GPGGA,021606.000,4806.8471,N,00139.4586,W,1,04,2.9,32.7,M,48.3,M,,0000*7F
$GPGSA,M,3,08,27,10,32,,,,,,,,,4.2,2.9,3.1*3C
$GPRMC,021606.000,A,4806.8471,N,00139.4586,W,6.85,280.74,060218,,,A*74
$GPGGA,021607.000,4806.8472,N,00139.4611,W,1,04,2.9,33.1,M,48.3,M,,0000*77
$GPGSA,M,3,08,27,10,32,,,,,,,,,4.2,2.9,3.1*3C
$GPRMC,021607.000,A,4806.8472,N,00139.4611,W,5.82,278.21,060218,,,A*78
$GPGGA,021608.000,4806.8479,N,00139.4637,W,1,04,2.9,33.7,M,48.3,M,,0000*71
$GPGSA,M,3,08,27,10,32,,,,,,,,,4.2,2.9,3.1*3C
arfcn: 1012 bsic: 19 rxLev: -100 ber: 1.06 mcc: 208 mnc: 20 lac: 418 cellId: 20011 cellStatus: CELL_OTHER numArfcn: 2 arfcn: 988 1012 numChannels: 24 array: 787 789 794 882 976 977 978 979 980 981 982 983 985 986 987 1011 1013 1014 1015 1016 1017 1019 1020 1021 pbcch: 0 nom: 2 rac: 6 spgc: 0 pat: 6 nco: 0 t3168: 1500 t3192: 500 drxmax: 0 ctrlAck: 0 bsCVmax: 8 alpha: 4 pcMeasCh: 1 
arfcn: 663 rxLev: -100
$GPRMC,021608.000,A,4806.8479,N,00139.4637,W,6.12,280.10,060218,,,A*77
arfcn: 669 rxLev: -100
arfcn: 631 rxLev: -100
arfcn: 638 rxLev: -100
arfcn: 734 rxLev: -100
arfcn: 740 rxLev: -100
arfcn: 743 rxLev: -100
arfcn: 774 rxLev: -100
$GPGGA,021609.000,4806.8490,N,00139.4655,W,1,04,2.9,33.9,M,48.3,M,,0000*7D
arfcn: 780 rxLev: -100
arfcn: 781 rxLev: -100
$GPGSA,M,3,08,27,10,32,,,,,,,,,4.2,2.9,3.1*3C
arfcn: 782 rxLev: -100
arfcn: 744 rxLev: -100
$GPRMC,021609.000,A,4806.8490,N,00139.4655,W,5.19,284.01,060218,,,A*79
arfcn: 733 rxLev: -100
arfcn: 732 rxLev: -100
arfcn: 737 rxLev: -100
arfcn: 735 rxLev: -100
arfcn: 748 rxLev: -100
arfcn: 752 rxLev: -100
arfcn: 756 rxLev: -100
arfcn: 721 rxLev: -100
$GPGGA,021610.000,4806.8497,N,00139.4675,W,1,04,2.9,34.2,M,48.3,M,,0000*7C
arfcn: 727 rxLev: -100
arfcn: 726 rxLev: -100
$GPGSA,M,3,08,27,10,32,,,,,,,,,4.2,2.9,3.1*3C
arfcn: 632 rxLev: -100
arfcn: 651 rxLev: -100
$GPGSV,3,1,12,08,85,192,15,27,45,131,21,10,40,055,22,32,23,104,16*70
arfcn: 664 rxLev: -100
$GPGSV,3,2,12,01,37,267,04,03,06,210,07,37,27,150,,11,45,283,*75
arfcn: 662 rxLev: -100
$GPGSV,3,3,12,22,26,206,,28,22,317,,14,13,125,,18,10,045,*7D
arfcn: 682 rxLev: -100
arfcn: 618 rxLev: -100
$GPRMC,021610.000,A,4806.8497,N,00139.4675,W,4.67,283.82,060218,,,A*70
arfcn: 619 rxLev: -100
arfcn: 620 rxLev: -100
arfcn: 624 rxLev: -100
$GPGGA,021611.000,4806.8494,N,00139.4660,W,1,05,1.7,34.9,M,48.3,M,,0000*7D
arfcn: 603 rxLev: -100
$GPGSA,M,3,08,27,10,01,32,,,,,,,,2.6,1.7,1.9*38
arfcn: 111 rxLev: -100
arfcn: 976 rxLev: -100
$GPRMC,021611.000,A,4806.8494,N,00139.4660,W,3.58,279.97,060218,,,A*7C
arfcn: 975 rxLev: -100
arfcn: 83 rxLev: -100
arfcn: 89 rxLev: -101
arfcn: 625 rxLev: -101
arfcn: 626 rxLev: -101
arfcn: 621 rxLev: -101
arfcn: 610 rxLev: -101
arfcn: 681 rxLev: -101
$GPGGA,021612.000,4806.8484,N,00139.4630,W,1,05,1.7,35.5,M,48.3,M,,0000*77
arfcn: 679 rxLev: -101
$GPGSA,M,3,08,27,10,01,32,,,,,,,,2.6,1.7,1.9*38
arfcn: 680 rxLev: -101
arfcn: 677 rxLev: -101
$GPRMC,021612.000,A,4806.8484,N,00139.4630,W,1.87,277.56,060218,,,A*78
arfcn: 665 rxLev: -101
arfcn: 666 rxLev: -101
arfcn: 667 rxLev: -101
arfcn: 671 rxLev: -101
arfcn: 673 rxLev: -101
arfcn: 653 rxLev: -101
arfcn: 658 rxLev: -101
arfcn: 647 rxLev: -101
$GPGGA,021613.000,4806.8477,N,00139.4591,W,1,05,1.7,36.1,M,48.3,M,,0000*75
arfcn: 649 rxLev: -101
$GPGSA,M,3,08,27,10,01,32,,,,,,,,2.6,1.7,1.9*38
arfcn: 650 rxLev: -101
arfcn: 633 rxLev: -101
$GPRMC,021613.000,A,4806.8477,N,00139.4591,W,1.90,267.09,060218,,,A*70
arfcn: 628 rxLev: -101
arfcn: 630 rxLev: -101
arfcn: 636 rxLev: -101
arfcn: 639 rxLev: -101
arfcn: 719 rxLev: -101
arfcn: 717 rxLev: -101
arfcn: 696 rxLev: -101
arfcn: 704 rxLev: -101
arfcn: 754 rxLev: -101
$GPGGA,021614.000,4806.8469,N,00139.4566,W,1,05,1.7,36.5,M,48.3,M,,0000*71
arfcn: 749 rxLev: -101
$GPGSA,M,3,08,27,10,01,32,,,,,,,,2.6,1.7,1.9*38
arfcn: 731 rxLev: -101
arfcn: 745 rxLev: -101
$GPRMC,021614.000,A,4806.8469,N,00139.4566,W,1.96,256.38,060218,,,A*76
arfcn: 775 rxLev: -101
arfcn: 776 rxLev: -101
arfcn: 788 rxLev: -101
arfcn: 739 rxLev: -101
arfcn: 706 rxLev: -101
arfcn: 692 rxLev: -101
arfcn: 694 rxLev: -101
$GPGGA,021615.000,4806.8465,N,00139.4542,W,1,05,1.7,36.9,M,48.3,M,,0000*76
arfcn: 715 rxLev: -101
$GPGSA,M,3,08,27,10,01,32,,,,,,,,2.6,1.7,1.9*38
arfcn: 640 rxLev: -101
arfcn: 642 rxLev: -101
$GPGSV,3,1,12,08,85,192,16,27,45,131,20,10,40,055,22,01,37,267,17*70
arfcn: 635 rxLev: -101
arfcn: 634 rxLev: -101
$GPGSV,3,2,12,32,23,104,16,03,06,210,04,37,27,150,,11,45,283,*76
arfcn: 648 rxLev: -101
arfcn: 657 rxLev: -101
$GPGSV,3,3,12,22,26,206,,28,22,317,,14,13,125,,18,10,045,*7D
arfcn: 655 rxLev: -101
arfcn: 652 rxLev: -101
$GPRMC,021615.000,A,4806.8465,N,00139.4542,W,0.45,256.38,060218,,,A*72
