$GPGSA,M,1,,,,,,,,,,,,,,,*12
$GPGSV,3,1,12,27,69,108,20,10,55,083,17,32,06,122,18,21,06,069,19*78
$GPGSV,3,2,12,33,33,198,,08,66,303,,18,29,052,,16,27,177,*75
$GPGSV,3,3,12,11,23,270,,01,16,250,,30,10,302,,07,09,278,*7F
$GPRMC,012106.690,V,,,,,,,060218,,,N*4B
Survey start at #CCLK: "18/02/06,02:21:08+04"
at#csurv
Network survey started ...
Survey end at #CCLK: "18/02/06,02:21:08+04"
Survey duration: 0 seconds, 0 bases detected over 0 freqs scanned.
$GPGGA,012107.686,,,,,0,05,2.2,,M,0.0,M,,0000*70
$GPGSA,M,1,,,,,,,,,,,,,,,*12
$GPRMC,012107.686,V,,,,,,,060218,,,N*4D
$GPGGA,012108.690,,,,,0,05,2.1,,M,0.0,M,,0000*7B
$GPGSA,M,1,,,,,,,,,,,,,,,*12
$GPRMC,012108.690,V,,,,,,,060218,,,N*45
Survey start at #CCLK: "18/02/06,02:21:10+04"
at#csurv
Network survey started ...
$GPGGA,012109.690,4806.8796,N,00139.3995,W,1,05,2.1,38.9,M,48.3,M,,0000*76
$GPGSA,M,3,27,08,10,32,21,,,,,,,,2.7,2.1,1.6*31
$GPRMC,012109.690,A,4806.8796,N,00139.3995,W,3.60,279.21,060218,,,A*78
$GPGGA,012110.000,4806.8795,N,00139.4006,W,1,05,2.1,38.3,M,48.3,M,,0000*7C
$GPGSA,M,3,27,08,10,32,21,,,,,,,,2.7,2.1,1.6*31
$GPRMC,012110.000,A,4806.8795,N,00139.4006,W,2.37,279.06,060218,,,A*7E
$GPGGA,012111.000,4806.8794,N,00139.4020,W,1,05,2.1,36.8,M,48.3,M,,0000*7D
$GPGSA,M,3,27,08,10,32,21,,,,,,,,2.7,2.1,1.6*31
$GPGSV,3,1,12,27,69,108,20,08,66,303,17,10,55,083,17,32,06,122,18*74
$GPGSV,3,2,12,21,06,069,19,01,16,250,11,07,09,278,14,33,33,198,*7E
$GPGSV,3,3,12,18,29,052,,16,27,177,,11,23,270,,30,10,302,*7B
$GPRMC,012111.000,A,4806.8794,N,00139.4020,W,0.70,279.06,060218,,,A*7B
$GPGGA,012112.000,4806.8813,N,00139.4009,W,1,05,2.1,36.5,M,48.3,M,,0000*78
$GPGSA,M,3,27,08,10,32,21,,,,,,,,2.7,2.1,1.6*31
$GPRMC,012112.000,A,4806.8813,N,00139.4009,W,0.61,279.06,060218,,,A*73
$GPGGA,012113.000,4806.8822,N,00139.4004,W,1,05,2.1,35.7,M,48.3,M,,0000*77
$GPGSA,M,3,27,08,10,32,21,,,,,,,,2.7,2.1,1.6*31
$GPRMC,012113.000,A,4806.8822,N,00139.4004,W,2.52,273.28,060218,,,A*79
$GPGGA,012114.000,4806.8832,N,00139.3999,W,1,05,2.1,35.8,M,48.3,M,,0000*74
$GPGSA,M,3,27,08,10,32,21,,,,,,,,2.7,2.1,1.6*31
$GPRMC,012114.000,A,4806.8832,N,00139.3999,W,0.65,273.28,060218,,,A*73
arfcn: 981 bsic: 46 rxLev: -51 ber: 0.00 mcc: 208 mnc: 20 lac: 418 cellId: 21807 cellStatus: CELL_SUITABLE numArfcn: 1 arfcn: 981 numChannels: 16 array: 979 982 983 985 1012 1014 1017 1019 1020 787 790 791 793 796 882 884 pbcch: 0 nom: 2 rac: 6 spgc: 0 pat: 6 nco: 0 t3168: 1500 t3192: 500 drxmax: 0 ctrlAck: 0 bsCVmax: 8 alpha: 6 pcMeasCh: 1 
$GPGGA,012115.000,4806.8839,N,00139.4023,W,1,06,1.6,32.8,M,48.3,M,,0000*71
$GPGSA,M,3,27,08,10,01,32,21,,,,,,,2.0,1.6,1.2*37
$GPRMC,012115.000,A,4806.8839,N,00139.4023,W,0.81,273.28,060218,,,A*7C
$GPGGA,012116.000,4806.8850,N,00139.4034,W,1,06,1.6,32.4,M,48.3,M,,0000*77
$GPGSA,M,3,27,08,10,01,32,21,,,,,,,2.0,1.6,1.2*37
$GPGSV,3,1,12,27,69,108,20,08,66,303,17,10,55,083,17,01,16,250,12*79
$GPGSV,3,2,12,32,06,122,17,21,06,069,18,07,09,278,06,33,33,198,*7D
$GPGSV,3,3,12,18,29,052,,16,27,177,,11,23,270,,30,10,302,*7B
$GPRMC,012116.000,A,4806.8850,N,00139.4034,W,1.63,281.68,060218,,,A*72
$GPGGA,012117.000,4806.8842,N,00139.4058,W,1,06,1.6,31.0,M,48.3,M,,0000*78
$GPGSA,M,3,27,08,10,01,32,21,,,,,,,2.0,1.6,1.2*37
$GPRMC,012117.000,A,4806.8842,N,00139.4058,W,0.33,281.68,060218,,,A*7E
$GPGGA,012118.000,4806.8844,N,00139.4074,W,1,06,1.6,28.9,M,48.3,M,,0000*7E
$GPGSA,M,3,27,08,10,01,32,21,,,,,,,2.0,1.6,1.2*37
$GPRMC,012118.000,A,4806.8844,N,00139.4074,W,0.60,281.68,060218,,,A*7F
$GPGGA,012119.000,4806.8850,N,00139.4092,W,1,06,1.6,26.3,M,48.3,M,,0000*76
$GPGSA,M,3,27,08,10,01,32,21,,,,,,,2.0,1.6,1.2*37
$GPRMC,012119.000,A,4806.8850,N,00139.4092,W,1.46,299.31,060218,,,A*73
$GPGGA,012120.000,4806.8858,N,00139.4103,W,1,06,1.6,24.2,M,48.3,M,,0000*7E
$GPGSA,M,3,27,08,10,01,32,21,,,,,,,2.0,1.6,1.2*37
$GPRMC,012120.000,A,4806.8858,N,00139.4103,W,2.40,340.68,060218,,,A*74
$GPGGA,012121.000,4806.8866,N,00139.4110,W,1,06,1.6,23.3,M,48.3,M,,0000*76
$GPGSA,M,3,27,08,10,01,32,21,,,,,,,2.0,1.6,1.2*37
$GPGSV,3,1,12,27,69,108,20,08,66,303,18,10,55,083,17,01,16,250,13*77
Survey end at #CCLK: "18/02/06,02:21:22+04"
Survey duration: 11 seconds, 1 bases detected over 1 freqs scanned.
$GPGSV,3,2,12,32,06,122,18,21,06,069,18,07,09,278,04,37,27,150,*75
$GPGSV,3,3,12,18,29,052,,16,27,177,,11,23,270,,30,10,302,*7B
$GPRMC,012121.000,A,4806.8866,N,00139.4110,W,2.61,357.91,060218,,,A*79
$GPGGA,012122.000,4806.8871,N,00139.4115,W,1,06,1.6,22.7,M,48.3,M,,0000*73
$GPGSA,M,3,27,08,10,01,32,21,,,,,,,2.0,1.6,1.2*37
$GPRMC,012122.000,A,4806.8871,N,00139.4115,W,2.72,9.81,060218,,,A*72
$GPGGA,012123.000,4806.8877,N,00139.4116,W,1,06,1.6,22.2,M,48.3,M,,0000*72
Survey start at #CCLK: "18/02/06,02:21:23+04"
at#csurv
Network survey started ...
Survey end at #CCLK: "18/02/06,02:21:23+04"
Survey duration: 0 seconds, 0 bases detected over 0 freqs scanned.
$GPGSA,M,3,27,08,10,01,32,21,,,,,,,2.0,1.6,1.2*37
$GPRMC,012123.000,A,4806.8877,N,00139.4116,W,2.94,17.07,060218,,,A*4F
$GPGGA,012124.000,4806.8879,N,00139.4119,W,1,06,1.6,21.5,M,48.3,M,,0000*70
$GPGSA,M,3,27,08,10,01,32,21,,,,,,,2.0,1.6,1.2*37
$GPRMC,012124.000,A,4806.8879,N,00139.4119,W,2.61,21.87,060218,,,A*4E
$GPGGA,012125.000,4806.8887,N,00139.4128,W,1,06,1.6,20.5,M,48.3,M,,0000*73
$GPGSA,M,3,27,08,10,01,32,21,,,,,,,2.0,1.6,1.2*37
Survey start at #CCLK: "18/02/06,02:21:26+04"
$GPRMC,012125.000,A,4806.8887,N,00139.4128,W,2.57,19.54,060218,,,A*4C
at#csurv
Network survey started ...
Survey end at #CCLK: "18/02/06,02:21:26+04"
Survey duration: 0 seconds, 0 bases detected over 0 freqs scanned.
$GPGGA,012126.000,4806.8888,N,00139.4135,W,1,06,1.6,19.7,M,48.3,M,,0000*7B
$GPGSA,M,3,27,08,10,01,32,21,,,,,,,2.0,1.6,1.2*37
$GPGSV,3,1,12,27,69,108,20,08,66,303,18,10,55,083,17,01,16,250,13*77
$GPGSV,3,2,12,32,06,122,18,21,06,069,18,07,09,278,04,37,27,150,*75
$GPGSV,3,3,12,18,29,052,,16,27,177,,11,23,270,,30,10,302,*7B
$GPRMC,012126.000,A,4806.8888,N,00139.4135,W,2.42,20.56,060218,,,A*40
$GPGGA,012127.000,4806.8891,N,00139.4139,W,1,06,1.6,19.1,M,48.3,M,,0000*78
$GPGSA,M,3,27,08,10,01,32,21,,,,,,,2.0,1.6,1.2*37
$GPRMC,012127.000,A,4806.8891,N,00139.4139,W,2.14,20.40,060218,,,A*41
Survey start at #CCLK: "18/02/06,02:21:28+04"
at#csurv
Network survey started ...
$GPGGA,012128.000,4806.8892,N,00139.4146,W,1,06,1.6,18.9,M,48.3,M,,0000*75
$GPGSA,M,3,27,08,10,01,32,21,,,,,,,2.0,1.6,1.2*37
$GPRMC,012128.000,A,4806.8892,N,00139.4146,W,1.75,18.71,060218,,,A*48
$GPGGA,012129.000,4806.8894,N,00139.4149,W,1,06,1.6,18.9,M,48.3,M,,0000*7D
$GPGSA,M,3,27,08,10,01,32,21,,,,,,,2.0,1.6,1.2*37
$GPRMC,012129.000,A,4806.8894,N,00139.4149,W,1.50,17.00,060218,,,A*4E
$GPGGA,012130.000,4806.8897,N,00139.4150,W,1,06,1.6,19.0,M,48.3,M,,0000*76
$GPGSA,M,3,27,08,10,01,32,21,,,,,,,2.0,1.6,1.2*37
$GPRMC,012130.000,A,4806.8897,N,00139.4150,W,1.32,15.20,060218,,,A*49
$GPGGA,012131.000,4806.8902,N,00139.4152,W,1,06,1.6,19.1,M,48.3,M,,0000*79
$GPGSA,M,3,27,08,10,01,32,21,,,,,,,2.0,1.6,1.2*37
$GPGSV,3,1,12,27,69,108,19,08,66,303,19,10,55,083,17,01,16,250,13*7C
$GPGSV,3,2,12,32,06,122,17,21,06,069,17,37,27,150,,18,29,052,*77
$GPGSV,3,3,12,16,27,177,,11,23,270,,30,10,302,,07,09,278,*7D
$GPRMC,012131.000,A,4806.8902,N,00139.4152,W,1.72,11.86,060218,,,A*4B
$GPGGA,012132.000,4806.8904,N,00139.4156,W,1,06,1.6,18.9,M,48.3,M,,0000*71
$GPGSA,M,3,27,08,10,01,32,21,,,,,,,2.0,1.6,1.2*37
$GPRMC,012132.000,A,4806.8904,N,00139.4156,W,1.35,9.48,060218,,,A*72
$GPGGA,012133.000,4806.8902,N,00139.4159,W,1,06,1.6,18.8,M,48.3,M,,0000*78
$GPGSA,M,3,27,08,10,01,32,21,,,,,,,2.0,1.6,1.2*37
$GPRMC,012133.000,A,4806.8902,N,00139.4159,W,0.69,9.48,060218,,,A*72
arfcn: 981 bsic: 46 rxLev: -51 ber: 0.00 mcc: 208 mnc: 20 lac: 418 cellId: 21807 cellStatus: CELL_SUITABLE numArfcn: 1 arfcn: 981 numChannels: 16 array: 979 982 983 985 1012 1014 1017 1019 1020 787 790 791 793 796 882 884 pbcch: 0 nom: 2 rac: 6 spgc: 0 pat: 6 nco: 0 t3168: 1500 t3192: 500 drxmax: 0 ctrlAck: 0 bsCVmax: 8 alpha: 6 pcMeasCh: 1 
$GPGGA,012134.000,4806.8900,N,00139.4163,W,1,06,1.6,18.7,M,48.3,M,,0000*7B
$GPGSA,M,3,27,08,10,01,32,21,,,,,,,2.0,1.6,1.2*37
$GPRMC,012134.000,A,4806.8900,N,00139.4163,W,0.79,9.48,060218,,,A*7F
$GPGGA,012135.000,4806.8901,N,00139.4168,W,1,06,1.6,19.0,M,48.3,M,,0000*76
$GPGSA,M,3,27,08,10,01,32,21,,,,,,,2.0,1.6,1.2*37
$GPRMC,012135.000,A,4806.8901,N,00139.4168,W,1.25,3.32,060218,,,A*7B
$GPGGA,012136.000,4806.8902,N,00139.4171,W,1,06,1.6,19.3,M,48.3,M,,0000*7D
$GPGSA,M,3,27,08,10,01,32,21,,,,,,,2.0,1.6,1.2*37
$GPGSV,3,1,12,27,69,108,18,08,66,303,19,10,55,083,17,01,16,250,12*7C
$GPGSV,3,2,12,32,06,122,18,21,06,069,17,16,27,177,08,37,27,150,*76
$GPGSV,3,3,12,18,29,052,,11,23,270,,30,10,302,,07,09,278,*7B
$GPRMC,012136.000,A,4806.8902,N,00139.4171,W,1.11,3.32,060218,,,A*74
$GPGGA,012137.000,4806.8903,N,00139.4176,W,1,06,1.6,19.6,M,48.3,M,,0000*7F
$GPGSA,M,3,27,08,10,01,32,21,,,,,,,2.0,1.6,1.2*37
$GPRMC,012137.000,A,4806.8903,N,00139.4176,W,1.27,359.33,060218,,,A*7B
$GPGGA,012138.000,4806.8905,N,00139.4178,W,1,06,1.6,20.2,M,48.3,M,,0000*76
$GPGSA,M,3,27,08,10,01,32,21,,,,,,,2.0,1.6,1.2*37
$GPRMC,012138.000,A,4806.8905,N,00139.4178,W,1.34,354.19,060218,,,A*7B
$GPGGA,012139.000,4806.8905,N,00139.4181,W,1,06,1.6,20.5,M,48.3,M,,0000*76
$GPGSA,M,3,27,08,10,01,32,21,,,,,,,2.0,1.6,1.2*37
$GPRMC,012139.000,A,4806.8905,N,00139.4181,W,1.09,354.19,060218,,,A*72
$GPGGA,012140.000,4806.8907,N,00139.4182,W,1,06,1.6,20.8,M,48.3,M,,0000*74
$GPGSA,M,3,27,08,10,01,32,21,,,,,,,2.0,1.6,1.2*37
Survey end at #CCLK: "18/02/06,02:21:40+04"
Survey duration: 12 seconds, 1 bases detected over 1 freqs scanned.
$GPRMC,012140.000,A,4806.8907,N,00139.4182,W,1.15,354.19,060218,,,A*70
$GPGGA,012141.000,4806.8909,N,00139.4180,W,1,06,1.6,20.9,M,48.3,M,,0000*78
$GPGSA,M,3,27,08,10,01,32,21,,,,,,,2.0,1.6,1.2*37
$GPGSV,3,1,12,27,69,108,18,08,66,303,20,10,55,083,17,01,16,250,13*77
$GPGSV,3,2,12,32,06,122,18,21,06,069,17,37,27,150,,18,29,052,*78
$GPGSV,3,3,12,16,27,177,,11,23,270,,30,10,302,,07,09,278,*7D
$GPRMC,012141.000,A,4806.8909,N,00139.4180,W,1.13,354.19,060218,,,A*7B
Survey start at #CCLK: "18/02/06,02:21:42+04"
at#csurv
Network survey started ...
Survey end at #CCLK: "18/02/06,02:21:42+04"
Survey duration: 0 seconds, 0 bases detected over 0 freqs scanned.
$GPGGA,012142.000,4806.8912,N,00139.4178,W,1,06,1.6,21.1,M,48.3,M,,0000*7F
$GPGSA,M,3,27,08,10,01,32,21,,,,,,,2.0,1.6,1.2*37
$GPRMC,012142.000,A,4806.8912,N,00139.4178,W,1.20,354.80,060218,,,A*75
$GPGGA,012143.000,4806.8916,N,00139.4176,W,1,06,1.6,21.2,M,48.3,M,,0000*77
$GPGSA,M,3,27,08,10,01,32,21,,,,,,,2.0,1.6,1.2*37
$GPRMC,012143.000,A,4806.8916,N,00139.4176,W,1.45,356.11,060218,,,A*77
Survey start at #CCLK: "18/02/06,02:21:44+04"
at#csurv
Network survey started ...
Survey end at #CCLK: "18/02/06,02:21:44+04"
Survey duration: 0 seconds, 0 bases detected over 0 freqs scanned.
$GPGGA,012144.000,4806.8911,N,00139.4179,W,1,06,1.6,21.1,M,48.3,M,,0000*7B
$GPGSA,M,3,27,08,10,01,32,21,,,,,,,2.0,1.6,1.2*37
$GPRMC,012144.000,A,4806.8911,N,00139.4179,W,0.83,356.11,060218,,,A*73
$GPGGA,012145.000,4806.8913,N,00139.4184,W,1,06,1.6,21.1,M,48.3,M,,0000*7A
$GPGSA,M,3,27,08,10,01,32,21,,,,,,,2.0,1.6,1.2*37
$GPRMC,012145.000,A,4806.8913,N,00139.4184,W,1.42,351.01,060218,,,A*78
$GPGGA,012146.000,4806.8915,N,00139.4192,W,1,06,1.6,20.9,M,48.3,M,,0000*71
$GPGSA,M,3,27,08,10,01,32,21,,,,,,,2.0,1.6,1.2*37
Survey start at #CCLK: "18/02/06,02:21:46+04"
at#csurv
Network survey started ...
$GPGSV,3,1,12,27,69,108,17,08,66,303,20,10,55,083,17,01,16,250,13*78
$GPGSV,3,2,12,32,06,122,18,21,06,069,17,37,27,150,,18,29,052,*78
$GPGSV,3,3,12,16,27,177,,11,23,270,,30,10,302,,07,09,278,*7D
$GPRMC,012146.000,A,4806.8915,N,00139.4192,W,1.83,344.73,060218,,,A*76
$GPGGA,012147.000,4806.8913,N,00139.4205,W,1,06,1.6,20.5,M,48.3,M,,0000*77
$GPGSA,M,3,27,08,10,01,32,21,,,,,,,2.0,1.6,1.2*37
$GPRMC,012147.000,A,4806.8913,N,00139.4205,W,2.03,337.67,060218,,,A*76
$GPGGA,012148.000,4806.8915,N,00139.4218,W,1,06,1.6,20.3,M,48.3,M,,0000*74
$GPGSA,M,3,27,08,10,01,32,21,,,,,,,2.0,1.6,1.2*37
$GPRMC,012148.000,A,4806.8915,N,00139.4218,W,2.31,329.22,060218,,,A*7C
$GPGGA,012149.000,4806.8912,N,00139.4232,W,1,06,1.6,20.0,M,48.3,M,,0000*79
$GPGSA,M,3,27,08,10,01,32,21,,,,,,,2.0,1.6,1.2*37
$GPRMC,012149.000,A,4806.8912,N,00139.4232,W,2.23,321.71,060218,,,A*7F
$GPGGA,012150.000,4806.8906,N,00139.4242,W,1,06,1.6,19.9,M,48.3,M,,0000*70
$GPGSA,M,3,27,08,10,01,32,21,,,,,,,2.0,1.6,1.2*37
$GPRMC,012150.000,A,4806.8906,N,00139.4242,W,1.82,315.17,060218,,,A*7A
$GPGGA,012151.000,4806.8903,N,00139.4253,W,1,06,1.6,19.7,M,48.3,M,,0000*7A
$GPGSA,M,3,27,08,10,01,32,21,,,,,,,2.0,1.6,1.2*37
$GPGSV,3,1,12,27,69,108,16,08,66,303,20,10,55,083,17,01,16,250,10*7A
$GPGSV,3,2,12,32,06,122,17,21,06,069,16,07,09,278,14,39,31,144,*79
$GPGSV,3,3,12,18,29,052,,16,27,177,,11,23,270,,30,10,302,*7B
$GPRMC,012151.000,A,4806.8903,N,00139.4253,W,1.78,310.58,060218,,,A*75
$GPGGA,012152.000,4806.8900,N,00139.4268,W,1,06,1.6,19.4,M,48.3,M,,0000*71
$GPGSA,M,3,27,08,10,01,32,21,,,,,,,2.0,1.6,1.2*37
$GPRMC,012152.000,A,4806.8900,N,00139.4268,W,1.86,306.77,060218,,,A*76
arfcn: 981 bsic: 46 rxLev: -51 ber: 50.00 mcc: 208 mnc: 20 lac: 418 cellId: 21807 cellStatus: CELL_SUITABLE numArfcn: 1 arfcn: 981 numChannels: 16 array: 979 982 983 985 1012 1014 1017 1019 1020 787 790 791 793 796 882 884 pbcch: 0 nom: 2 rac: 6 spgc: 0 pat: 6 nco: 0 t3168: 1500 t3192: 500 drxmax: 0 ctrlAck: 0 bsCVmax: 8 alpha: 6 pcMeasCh: 1 
$GPGGA,012153.000,4806.8896,N,00139.4278,W,1,06,1.6,18.9,M,48.3,M,,0000*73
$GPGSA,M,3,27,08,10,01,32,21,,,,,,,2.0,1.6,1.2*37
$GPRMC,012153.000,A,4806.8896,N,00139.4278,W,1.49,303.99,060218,,,A*7E
$GPGGA,012154.000,4806.8894,N,00139.4294,W,1,07,1.4,17.9,M,48.3,M,,0000*78
$GPGSA,M,3,27,08,10,01,07,32,21,,,,,,1.8,1.4,1.1*3A
$GPRMC,012154.000,A,4806.8894,N,00139.4294,W,1.25,301.83,060218,,,A*7A
$GPGGA,012155.000,4806.8894,N,00139.4307,W,1,07,1.4,16.7,M,48.3,M,,0000*7D
$GPGSA,M,3,27,08,10,01,07,32,21,,,,,,1.8,1.4,1.1*3A
$GPRMC,012155.000,A,4806.8894,N,00139.4307,W,0.73,301.83,060218,,,A*72
$GPGGA,012156.000,4806.8889,N,00139.4315,W,1,06,1.6,16.3,M,48.3,M,,0000*76
$GPGSA,M,3,27,08,10,01,32,21,,,,,,,2.0,1.6,1.2*37
$GPGSV,3,1,12,27,69,108,16,08,66,303,19,10,55,083,17,01,16,250,09*78
$GPGSV,3,2,12,32,06,122,17,21,06,069,16,39,31,144,,18,29,052,*7A
$GPGSV,3,3,12,16,27,177,,11,23,270,,30,10,302,,07,09,278,*7D
$GPRMC,012156.000,A,4806.8889,N,00139.4315,W,0.81,301.83,060218,,,A*73
$GPGGA,012157.000,4806.8886,N,00139.4325,W,1,06,1.6,15.9,M,48.3,M,,0000*72
$GPGSA,M,3,27,08,10,01,32,21,,,,,,,2.0,1.6,1.2*37
$GPRMC,012157.000,A,4806.8886,N,00139.4325,W,1.04,301.83,060218,,,A*72
$GPGGA,012158.000,4806.8883,N,00139.4336,W,1,06,1.6,15.6,M,48.3,M,,0000*75
$GPGSA,M,3,27,08,10,01,32,21,,,,,,,2.0,1.6,1.2*37
$GPRMC,012158.000,A,4806.8883,N,00139.4336,W,1.44,297.20,060218,,,A*79
$GPGGA,012159.000,4806.8879,N,00139.4347,W,1,06,1.6,15.4,M,48.3,M,,0000*75
Survey end at #CCLK: "18/02/06,02:21:59+04"
Survey duration: 12 seconds, 1 bases detected over 1 freqs scanned.
$GPGSA,M,3,27,08,10,01,32,21,,,,,,,2.0,1.6,1.2*37
$GPRMC,012159.000,A,4806.8879,N,00139.4347,W,1.59,292.70,060218,,,A*77
$GPGGA,012200.000,4806.8877,N,00139.4360,W,1,06,1.6,15.1,M,48.3,M,,0000*74
$GPGSA,M,3,27,08,10,01,32,21,,,,,,,2.0,1.6,1.2*37
$GPRMC,012200.000,A,4806.8877,N,00139.4360,W,1.98,288.70,060218,,,A*75
Survey start at #CCLK: "18/02/06,02:22:01+04"
at#csurv
Network survey started ...
Survey end at #CCLK: "18/02/06,02:22:01+04"
Survey duration: 0 seconds, 0 bases detected over 0 freqs scanned.
$GPGGA,012201.000,4806.8876,N,00139.4369,W,1,06,1.6,14.7,M,48.3,M,,0000*7A
$GPGSA,M,3,27,08,10,01,32,21,,,,,,,2.0,1.6,1.2*37
$GPGSV,3,1,12,27,69,108,15,08,66,303,19,10,55,083,17,01,16,250,08*7A
$GPGSV,3,2,12,32,06,122,17,21,06,069,16,39,31,144,,18,29,052,*7A
$GPGSV,3,3,12,16,27,177,,11,23,270,,30,10,302,,07,09,278,*7D
$GPRMC,012201.000,A,4806.8876,N,00139.4369,W,1.77,287.51,060218,,,A*71
$GPGGA,012202.000,4806.8873,N,00139.4382,W,1,06,1.6,14.2,M,48.3,M,,0000*7C
$GPGSA,M,3,27,08,10,01,32,21,,,,,,,2.0,1.6,1.2*37
$GPRMC,012202.000,A,4806.8873,N,00139.4382,W,1.78,285.86,060218,,,A*75
Survey start at #CCLK: "18/02/06,02:22:03+04"
at#csurv
Network survey started ...
Survey end at #CCLK: "18/02/06,02:22:03+04"
Survey duration: 0 seconds, 0 bases detected over 0 freqs scanned.
$GPGGA,012203.000,4806.8870,N,00139.4384,W,1,05,2.1,16.2,M,48.3,M,,0000*7D
$GPGSA,M,3,27,08,10,32,21,,,,,,,,2.7,2.1,1.6*31
$GPRMC,012203.000,A,4806.8870,N,00139.4384,W,1.97,284.32,060218,,,A*7E
$GPGGA,012204.000,4806.8867,N,00139.4390,W,1,05,2.1,17.0,M,48.3,M,,0000*7A
$GPGSA,M,3,27,08,10,32,21,,,,,,,,2.7,2.1,1.6*31
$GPRMC,012204.000,A,4806.8867,N,00139.4390,W,2.01,282.48,060218,,,A*7D
Survey start at #CCLK: "18/02/06,02:22:05+04"
at#csurv
Network survey started ...
$GPGGA,012205.000,4806.8864,N,00139.4394,W,1,05,2.1,17.4,M,48.3,M,,0000*78
$GPGSA,M,3,27,08,10,32,21,,,,,,,,2.7,2.1,1.6*31
$GPRMC,012205.000,A,4806.8864,N,00139.4394,W,2.01,280.89,060218,,,A*74
$GPGGA,012206.000,4806.8859,N,00139.4397,W,1,05,2.1,17.6,M,48.3,M,,0000*74
$GPGSA,M,3,27,08,10,32,21,,,,,,,,2.7,2.1,1.6*31
$GPGSV,3,1,12,27,69,108,15,08,66,303,19,10,55,083,17,32,06,122,17*73
$GPGSV,3,2,12,21,06,069,16,01,16,250,07,39,31,144,,18,29,052,*7C
$GPGSV,3,3,12,16,27,177,,11,23,270,,30,10,302,,07,09,278,*7D
$GPRMC,012206.000,A,4806.8859,N,00139.4397,W,1.63,279.18,060218,,,A*73
$GPGGA,012207.000,4806.8847,N,00139.4398,W,1,05,2.1,17.8,M,48.3,M,,0000*7B
$GPGSA,M,3,27,08,10,32,21,,,,,,,,2.7,2.1,1.6*31
$GPRMC,012207.000,A,4806.8847,N,00139.4398,W,1.52,273.35,060218,,,A*75
$GPGGA,012208.000,4806.8849,N,00139.4400,W,1,05,2.1,18.0,M,48.3,M,,0000*7B
$GPGSA,M,3,27,08,10,32,21,,,,,,,,2.7,2.1,1.6*31
$GPRMC,012208.000,A,4806.8849,N,00139.4400,W,1.13,273.35,060218,,,A*77
$GPGGA,012209.000,4806.8853,N,00139.4396,W,1,05,2.1,18.2,M,48.3,M,,0000*7B
$GPGSA,M,3,27,08,10,32,21,,,,,,,,2.7,2.1,1.6*31
$GPRMC,012209.000,A,4806.8853,N,00139.4396,W,0.54,273.35,060218,,,A*77
$GPGGA,012210.000,4806.8868,N,00139.4385,W,1,05,2.1,18.3,M,48.3,M,,0000*78
$GPGSA,M,3,27,08,10,32,21,,,,,,,,2.7,2.1,1.6*31
$GPRMC,012210.000,A,4806.8868,N,00139.4385,W,1.45,293.32,060218,,,A*7D
$GPGGA,012211.000,4806.8864,N,00139.4387,W,1,05,2.1,18.4,M,48.3,M,,0000*70
$GPGSA,M,3,27,08,10,32,21,,,,,,,,2.7,2.1,1.6*31
$GPGSV,3,1,12,27,69,108,16,08,66,303,20,10,55,083,18,32,06,122,18*7A
$GPGSV,3,2,12,21,06,069,16,01,16,250,07,39,31,144,,18,29,052,*7C
$GPGSV,3,3,12,16,27,177,,11,23,270,,30,10,302,,07,09,278,*7D
arfcn: 981 bsic: 46 rxLev: -51 ber: 0.00 mcc: 208 mnc: 20 lac: 418 cellId: 21807 cellStatus: CELL_SUITABLE numArfcn: 1 arfcn: 981 numChannels: 16 array: 979 982 983 985 1012 1014 1017 1019 1020 787 790 791 793 796 882 884 pbcch: 0 nom: 2 rac: 6 spgc: 0 pat: 6 nco: 0 t3168: 1500 t3192: 500 drxmax: 0 ctrlAck: 0 bsCVmax: 8 alpha: 6 pcMeasCh: 1 
$GPRMC,012211.000,A,4806.8864,N,00139.4387,W,1.02,293.32,060218,,,A*71
$GPGGA,012212.000,4806.8862,N,00139.4387,W,1,05,2.1,18.5,M,48.3,M,,0000*74
$GPGSA,M,3,27,08,10,32,21,,,,,,,,2.7,2.1,1.6*31
$GPRMC,012212.000,A,4806.8862,N,00139.4387,W,0.87,293.32,060218,,,A*78
$GPGGA,012213.000,4806.8856,N,00139.4391,W,1,05,2.1,18.6,M,48.3,M,,0000*76
$GPGSA,M,3,27,08,10,32,21,,,,,,,,2.7,2.1,1.6*31
$GPRMC,012213.000,A,4806.8856,N,00139.4391,W,0.66,293.32,060218,,,A*76
$GPGGA,012214.000,4806.8850,N,00139.4394,W,1,05,2.1,18.6,M,48.3,M,,0000*72
$GPGSA,M,3,27,08,10,32,21,,,,,,,,2.7,2.1,1.6*31
$GPRMC,012214.000,A,4806.8850,N,00139.4394,W,0.39,293.32,060218,,,A*78
$GPGGA,012215.000,4806.8852,N,00139.4394,W,1,05,2.1,18.7,M,48.3,M,,0000*70
$GPGSA,M,3,27,08,10,32,21,,,,,,,,2.7,2.1,1.6*31
$GPRMC,012215.000,A,4806.8852,N,00139.4394,W,0.36,293.32,060218,,,A*74
$GPGGA,012216.000,4806.8857,N,00139.4395,W,1,05,2.1,18.7,M,48.3,M,,0000*77
$GPGSA,M,3,27,08,10,32,21,,,,,,,,2.7,2.1,1.6*31
$GPGSV,3,1,12,27,69,108,16,08,66,303,20,10,55,083,18,32,06,122,18*7A
$GPGSV,3,2,12,21,06,069,16,01,16,250,06,39,31,144,,18,29,052,*7D
$GPGSV,3,3,12,16,27,177,,11,23,270,,30,10,302,,07,09,278,*7D
$GPRMC,012216.000,A,4806.8857,N,00139.4395,W,1.22,301.67,060218,,,A*7D
$GPGGA,012217.000,4806.8863,N,00139.4397,W,1,05,2.1,18.8,M,48.3,M,,0000*7C
$GPGSA,M,3,27,08,10,32,21,,,,,,,,2.7,2.1,1.6*31
$GPRMC,012217.000,A,4806.8863,N,00139.4397,W,1.79,313.43,060218,,,A*72
Survey end at #CCLK: "18/02/06,02:22:18+04"
Survey duration: 13 seconds, 1 bases detected over 1 freqs scanned.
$GPGGA,012218.000,4806.8868,N,00139.4397,W,1,05,2.1,18.8,M,48.3,M,,0000*78
$GPGSA,M,3,27,08,10,32,21,,,,,,,,2.7,2.1,1.6*31
$GPRMC,012218.000,A,4806.8868,N,00139.4397,W,1.91,320.17,060218,,,A*71
$GPGGA,012219.000,4806.8876,N,00139.4396,W,1,05,2.1,18.9,M,48.3,M,,0000*76
$GPGSA,M,3,27,08,10,32,21,,,,,,,,2.7,2.1,1.6*31
$GPRMC,012219.000,A,4806.8876,N,00139.4396,W,2.37,327.90,060218,,,A*79
Survey start at #CCLK: "18/02/06,02:22:20+04"
at#csurv
Network survey started ...
Survey end at #CCLK: "18/02/06,02:22:20+04"
Survey duration: 0 seconds, 0 bases detected over 0 freqs scanned.
$GPGGA,012220.000,4806.8879,N,00139.4397,W,1,05,2.1,18.9,M,48.3,M,,0000*72
$GPGSA,M,3,27,08,10,32,21,,,,,,,,2.7,2.1,1.6*31
$GPRMC,012220.000,A,4806.8879,N,00139.4397,W,2.20,332.13,060218,,,A*74
$GPGGA,012221.000,4806.8883,N,00139.4392,W,1,05,2.1,18.9,M,48.3,M,,0000*73
$GPGSA,M,3,27,08,10,32,21,,,,,,,,2.7,2.1,1.6*31
$GPGSV,3,1,12,27,69,108,16,08,66,303,19,10,55,083,18,32,06,122,18*70
$GPGSV,3,2,12,21,06,069,15,01,16,250,04,33,33,198,,18,29,052,*75
$GPGSV,3,3,12,16,27,177,,11,23,270,,30,10,302,,07,09,278,*7D
$GPRMC,012221.000,A,4806.8883,N,00139.4392,W,1.93,338.33,060218,,,A*76
Survey start at #CCLK: "18/02/06,02:22:22+04"
at#csurv
Network survey started ...
Survey end at #CCLK: "18/02/06,02:22:22+04"
Survey duration: 0 seconds, 0 bases detected over 0 freqs scanned.
$GPGGA,012222.000,4806.8885,N,00139.4390,W,1,05,2.1,19.0,M,48.3,M,,0000*7C
$GPGSA,M,3,27,08,10,32,21,,,,,,,,2.7,2.1,1.6*31
$GPRMC,012222.000,A,4806.8885,N,00139.4390,W,1.52,342.31,060218,,,A*73
$GPGGA,012223.000,4806.8889,N,00139.4395,W,1,05,2.1,19.0,M,48.3,M,,0000*74
$GPGSA,M,3,27,08,10,32,21,,,,,,,,2.7,2.1,1.6*31
$GPRMC,012223.000,A,4806.8889,N,00139.4395,W,1.90,343.13,060218,,,A*74
$GPGGA,012224.000,4806.8890,N,00139.4399,W,1,05,2.1,19.0,M,48.3,M,,0000*77
$GPGSA,M,3,27,08,10,32,21,,,,,,,,2.7,2.1,1.6*31
Survey start at #CCLK: "18/02/06,02:22:24+04"
at#csurv
Network survey started ...
$GPRMC,012224.000,A,4806.8890,N,00139.4399,W,1.75,343.02,060218,,,A*7C
Survey end at #CCLK: "18/02/06,02:22:25+04"
Survey duration: 0 seconds, 0 bases detected over 0 freqs scanned.
$GPGGA,012225.000,4806.8890,N,00139.4407,W,1,05,2.1,18.9,M,48.3,M,,0000*7E
$GPGSA,M,3,27,08,10,32,21,,,,,,,,2.7,2.1,1.6*31
$GPRMC,012225.000,A,4806.8890,N,00139.4407,W,1.87,340.49,060218,,,A*7C
$GPGGA,012226.000,4806.8883,N,00139.4417,W,1,05,2.1,19.0,M,48.3,M,,0000*76
$GPGSA,M,3,27,08,10,32,21,,,,,,,,2.7,2.1,1.6*31
$GPGSV,3,1,12,27,69,108,17,08,66,303,19,10,55,083,18,32,06,122,18*71
Survey start at #CCLK: "18/02/06,02:22:27+04"
$GPGSV,3,2,12,21,06,069,15,01,16,250,04,07,09,278,05,33,33,198,*76
at#csurv
Network survey started ...
$GPGSV,3,3,12,18,29,052,,16,27,177,,11,23,270,,30,10,302,*7B
$GPRMC,012226.000,A,4806.8883,N,00139.4417,W,1.62,335.34,060218,,,A*7F
$GPGGA,012227.000,4806.8882,N,00139.4424,W,1,06,1.6,19.0,M,48.3,M,,0000*71
$GPGSA,M,3,27,08,10,01,32,21,,,,,,,2.0,1.6,1.2*37
$GPRMC,012227.000,A,4806.8882,N,00139.4424,W,2.17,326.92,060218,,,A*70
$GPGGA,012228.000,4806.8884,N,00139.4426,W,1,06,1.6,19.2,M,48.3,M,,0000*78
$GPGSA,M,3,27,08,10,01,32,21,,,,,,,2.0,1.6,1.2*37
$GPRMC,012228.000,A,4806.8884,N,00139.4426,W,1.95,320.69,060218,,,A*70
$GPGGA,012229.000,4806.8884,N,00139.4429,W,1,06,1.6,19.2,M,48.3,M,,0000*76
$GPGSA,M,3,27,08,10,01,32,21,,,,,,,2.0,1.6,1.2*37
$GPRMC,012229.000,A,4806.8884,N,00139.4429,W,1.57,317.51,060218,,,A*7F
$GPGGA,012230.000,4806.8882,N,00139.4431,W,1,06,1.6,19.3,M,48.3,M,,0000*70
$GPGSA,M,3,27,08,10,01,32,21,,,,,,,2.0,1.6,1.2*37
$GPRMC,012230.000,A,4806.8882,N,00139.4431,W,1.20,315.77,060218,,,A*7E
$GPGGA,012231.000,4806.8880,N,00139.4433,W,1,07,1.4,19.3,M,48.3,M,,0000*72
$GPGSA,M,3,27,08,10,01,07,32,21,,,,,,1.8,1.4,1.1*3A
$GPGSV,3,1,12,27,69,108,17,08,66,303,18,10,55,083,18,01,16,250,11*7E
$GPGSV,3,2,12,07,09,278,12,32,06,122,18,21,06,069,15,33,33,198,*7A
$GPGSV,3,3,12,18,29,052,,16,27,177,,11,23,270,,30,10,302,*7B
$GPRMC,012231.000,A,4806.8880,N,00139.4433,W,0.84,315.77,060218,,,A*70
$GPGGA,012232.000,4806.8878,N,00139.4435,W,1,07,1.4,19.3,M,48.3,M,,0000*70
$GPGSA,M,3,27,08,10,01,07,32,21,,,,,,1.8,1.4,1.1*3A
$GPRMC,012232.000,A,4806.8878,N,00139.4435,W,0.63,315.77,060218,,,A*7B
arfcn: 981 bsic: 46 rxLev: -51 ber: 50.00 mcc: 208 mnc: 20 lac: 418 cellId: 21807 cellStatus: CELL_SUITABLE numArfcn: 1 arfcn: 981 numChannels: 16 array: 979 982 983 985 1012 1014 1017 1019 1020 787 790 791 793 796 882 884 pbcch: 0 nom: 2 rac: 6 spgc: 0 pat: 6 nco: 0 t3168: 1500 t3192: 500 drxmax: 0 ctrlAck: 0 bsCVmax: 8 alpha: 6 pcMeasCh: 1 
$GPGGA,012233.000,4806.8878,N,00139.4433,W,1,07,1.4,19.3,M,48.3,M,,0000*77
$GPGSA,M,3,27,08,10,01,07,32,21,,,,,,1.8,1.4,1.1*3A
$GPRMC,012233.000,A,4806.8878,N,00139.4433,W,0.29,315.77,060218,,,A*72
$GPGGA,012234.000,4806.8871,N,00139.4438,W,1,06,1.7,19.3,M,48.3,M,,0000*70
$GPGSA,M,3,27,08,10,07,32,21,,,,,,,2.0,1.7,1.1*33
$GPRMC,012234.000,A,4806.8871,N,00139.4438,W,0.28,315.77,060218,,,A*76
$GPGGA,012235.000,4806.8858,N,00139.4443,W,1,06,1.7,19.3,M,48.3,M,,0000*76
$GPGSA,M,3,27,08,10,07,32,21,,,,,,,2.0,1.7,1.1*33
$GPRMC,012235.000,A,4806.8858,N,00139.4443,W,1.12,315.77,060218,,,A*78
arfcn: 985 bsic: 44 rxLev: -55 ber: 0.00 mcc: 208 mnc: 20 lac: 418 cellId: 21808 cellStatus: CELL_SUITABLE numArfcn: 1 arfcn: 985 numChannels: 25 array: 787 788 790 793 795 796 879 884 975 977 978 979 980 981 982 983 1011 1012 1014 1015 1017 1019 1020 1021 1022 pbcch: 0 nom: 2 rac: 6 spgc: 0 pat: 6 nco: 0 t3168: 1500 t3192: 500 drxmax: 0 ctrlAck: 0 bsCVmax: 8 alpha: 6 pcMeasCh: 1 
arfcn: 994 rxLev: -62
arfcn: 993 rxLev: -62
arfcn: 991 rxLev: -62
$GPGGA,012236.000,4806.8846,N,00139.4449,W,1,06,1.7,19.4,M,48.3,M,,0000*77
arfcn: 992 rxLev: -62
$GPGSA,M,3,27,08,10,07,32,21,,,,,,,2.0,1.7,1.1*33
arfcn: 997 rxLev: -62
arfcn: 990 rxLev: -62
$GPGSV,3,1,12,27,69,108,18,08,66,303,18,10,55,083,18,07,09,278,12*70
arfcn: 998 rxLev: -63
arfcn: 995 rxLev: -63
$GPGSV,3,2,12,32,06,122,17,21,06,069,16,01,16,250,04,33,33,198,*73
arfcn: 999 rxLev: -63
arfcn: 1000 rxLev: -63
$GPGSV,3,3,12,18,29,052,,16,27,177,,11,23,270,,30,10,302,*7B
$GPRMC,012236.000,A,4806.8846,N,00139.4449,W,1.69,279.68,060218,,,A*77
arfcn: 1001 rxLev: -63
arfcn: 1002 rxLev: -63
arfcn: 1003 rxLev: -63
$GPGGA,012237.000,4806.8837,N,00139.4455,W,1,06,1.7,19.4,M,48.3,M,,0000*7D
arfcn: 1004 rxLev: -63
arfcn: 1005 rxLev: -63
$GPGSA,M,3,27,08,10,07,32,21,,,,,,,2.0,1.7,1.1*33
arfcn: 996 rxLev: -63
arfcn: 1006 rxLev: -64
$GPRMC,012237.000,A,4806.8837,N,00139.4455,W,1.85,263.63,060218,,,A*7F
arfcn: 1007 rxLev: -64
arfcn: 1008 rxLev: -64
arfcn: 982 rxLev: -69
arfcn: 980 rxLev: -69
$GPGGA,012238.000,4806.8830,N,00139.4458,W,1,06,1.7,19.5,M,48.3,M,,0000*79
$GPGSA,M,3,27,08,10,07,32,21,,,,,,,2.0,1.7,1.1*33
$GPRMC,012238.000,A,4806.8830,N,00139.4458,W,1.86,249.26,060218,,,A*70
$GPGGA,012239.000,4806.8821,N,00139.4460,W,1,06,1.7,19.5,M,48.3,M,,0000*73
$GPGSA,M,3,27,08,10,07,32,21,,,,,,,2.0,1.7,1.1*33
$GPRMC,012239.000,A,4806.8821,N,00139.4460,W,1.88,234.53,060218,,,A*7C
arfcn: 12 bsic: 0 rxLev: -69 ber: 0.00 mcc: 208 mnc: 01 lac: 10300 cellId: 6467 cellStatus: CELL_FORBIDDEN numArfcn: 13 arfcn: 12 17 18 19 20 21 22 23 24 25 47 48 49 numChannels: 15 array: 1 2 3 8 9 10 14 512 513 514 515 518 605 606 608 pbcch: 0 nom: 2 rac: 1 spgc: 0 pat: 6 nco: 0 t3168: 1000 t3192: 500 drxmax: 2 ctrlAck: 0 bsCVmax: 9 alpha: 5 pcMeasCh: 1 
$GPGGA,012240.000,4806.8816,N,00139.4460,W,1,06,1.7,19.6,M,48.3,M,,0000*7A
$GPGSA,M,3,27,08,10,07,32,21,,,,,,,2.0,1.7,1.1*33
$GPRMC,012240.000,A,4806.8816,N,00139.4460,W,1.59,229.20,060218,,,A*72
$GPGGA,012241.000,4806.8807,N,00139.4463,W,1,05,2.2,19.5,M,48.3,M,,0000*7E
$GPGSA,M,3,27,08,10,32,21,,,,,,,,2.7,2.2,1.6*32
$GPGSV,3,1,12,27,69,108,18,08,66,303,17,10,55,083,19,32,06,122,17*7E
$GPGSV,3,2,12,21,06,069,15,07,09,278,11,33,33,198,,18,29,052,*73
$GPGSV,3,3,12,16,27,177,,11,23,270,,01,16,250,,30,10,302,*7F
arfcn: 80 bsic: 47 rxLev: -71 ber: 0.00 mcc: 208 mnc: 10 lac: 49415 cellId: 23568 cellStatus: CELL_FORBIDDEN numArfcn: 2 arfcn: 80 89 numChannels: 19 array: 76 77 78 80 82 83 84 85 113 114 115 116 117 118 119 120 122 123 124 pbcch: 0 nom: 2 rac: 31 spgc: 0 pat: 6 nco: 0 t3168: 1000 t3192: 500 drxmax: 4 ctrlAck: 1 bsCVmax: 9 alpha: 10 pcMeasCh: 0 
arfcn: 989 rxLev: -71
arfcn: 1009 rxLev: -72
$GPRMC,012241.000,A,4806.8807,N,00139.4463,W,1.87,223.41,060218,,,A*7E
arfcn: 986 rxLev: -72
arfcn: 984 rxLev: -74
$GPGGA,012242.000,4806.8801,N,00139.4464,W,1,05,2.2,19.5,M,48.3,M,,0000*7C
$GPGSA,M,3,27,08,10,32,21,,,,,,,,2.7,2.2,1.6*32
$GPRMC,012242.000,A,4806.8801,N,00139.4464,W,1.79,219.41,060218,,,A*74
$GPGGA,012243.000,4806.8798,N,00139.4460,W,1,05,2.2,19.5,M,48.3,M,,0000*76
$GPGSA,M,3,27,08,10,32,21,,,,,,,,2.7,2.2,1.6*32
$GPRMC,012243.000,A,4806.8798,N,00139.4460,W,1.56,214.24,060218,,,A*7D
$GPGGA,012244.000,4806.8793,N,00139.4460,W,1,05,2.2,19.5,M,48.3,M,,0000*7A
arfcn: 8 bsic: 48 rxLev: -75 ber: 0.00 mcc: 208 mnc: 01 lac: 10300 cellId: 6473 cellStatus: CELL_FORBIDDEN numArfcn: 13 arfcn: 8 17 18 19 20 21 22 23 24 25 47 48 49 numChannels: 18 array: 1 2 3 4 5 10 12 13 14 15 512 513 514 515 516 517 605 610 pbcch: 0 nom: 2 rac: 1 spgc: 0 pat: 6 nco: 0 t3168: 1000 t3192: 500 drxmax: 2 ctrlAck: 0 bsCVmax: 9 alpha: 5 pcMeasCh: 1 
$GPGSA,M,3,27,08,10,32,21,,,,,,,,2.7,2.2,1.6*32
$GPRMC,012244.000,A,4806.8793,N,00139.4460,W,1.50,210.69,060218,,,A*7A
$GPGGA,012245.000,4806.8789,N,00139.4457,W,1,05,2.2,19.5,M,48.3,M,,0000*74
$GPGSA,M,3,27,08,10,32,21,,,,,,,,2.7,2.2,1.6*32
$GPRMC,012245.000,A,4806.8789,N,00139.4457,W,1.54,205.97,060218,,,A*75
arfcn: 85 bsic: 0 rxLev: -76 ber: 0.00 mcc: 208 mnc: 10 lac: 49415 cellId: 44814 cellStatus: CELL_FORBIDDEN numArfcn: 2 arfcn: 85 119 numChannels: 20 array: 76 77 78 79 80 82 83 85 86 114 115 116 117 118 119 120 121 122 123 124 pbcch: 0 nom: 2 rac: 31 spgc: 0 pat: 6 nco: 0 t3168: 1000 t3192: 500 drxmax: 4 ctrlAck: 1 bsCVmax: 9 alpha: 10 pcMeasCh: 0 
$GPGGA,012246.000,4806.8798,N,00139.4451,W,1,06,1.7,19.5,M,48.3,M,,0000*74
$GPGSA,M,3,27,08,10,07,32,21,,,,,,,2.0,1.7,1.1*33
$GPGSV,3,1,12,27,69,108,18,08,66,303,16,10,55,083,20,07,09,278,13*74
$GPGSV,3,2,12,32,06,122,17,21,06,069,15,33,33,198,,18,29,052,*70
$GPGSV,3,3,12,16,27,177,,11,23,270,,01,16,250,,30,10,302,*7F
$GPRMC,012246.000,A,4806.8798,N,00139.4451,W,0.28,205.97,060218,,,A*7A
$GPGGA,012247.000,4806.8793,N,00139.4451,W,1,06,1.7,19.4,M,48.3,M,,0000*7F
$GPGSA,M,3,27,08,10,07,32,21,,,,,,,2.0,1.7,1.1*33
$GPRMC,012247.000,A,4806.8793,N,00139.4451,W,0.49,205.97,060218,,,A*77
$GPGGA,012248.000,4806.8793,N,00139.4446,W,1,06,1.7,19.4,M,48.3,M,,0000*76
$GPGSA,M,3,27,08,10,07,32,21,,,,,,,2.0,1.7,1.1*33
$GPRMC,012248.000,A,4806.8793,N,00139.4446,W,0.53,205.97,060218,,,A*75
arfcn: 10 bsic: 45 rxLev: -76 ber: 0.02 mcc: 208 mnc: 01 lac: 10301 cellId: 6461 cellStatus: CELL_FORBIDDEN numArfcn: 13 arfcn: 10 17 18 19 20 21 22 23 24 25 47 48 49 numChannels: 17 array: 1 3 4 5 6 8 12 14 512 513 514 516 517 604 605 606 608 pbcch: 0 nom: 2 rac: 1 spgc: 0 pat: 6 nco: 0 t3168: 1000 t3192: 500 drxmax: 2 ctrlAck: 0 bsCVmax: 9 alpha: 5 pcMeasCh: 1 
arfcn: 796 rxLev: -78
$GPGGA,012249.000,4806.8795,N,00139.4439,W,1,06,1.7,19.5,M,48.3,M,,0000*78
arfcn: 838 rxLev: -78
$GPGSA,M,3,27,08,10,07,32,21,,,,,,,2.0,1.7,1.1*33
arfcn: 849 rxLev: -79
$GPRMC,012249.000,A,4806.8795,N,00139.4439,W,0.43,205.97,060218,,,A*7B
$GPGGA,012250.000,4806.8788,N,00139.4437,W,1,06,1.7,19.5,M,48.3,M,,0000*72
$GPGSA,M,3,27,08,10,07,32,21,,,,,,,2.0,1.7,1.1*33
$GPRMC,012250.000,A,4806.8788,N,00139.4437,W,0.65,205.97,060218,,,A*75
arfcn: 78 bsic: 2 rxLev: -79 ber: 0.00 mcc: 208 mnc: 10 lac: 49415 cellId: 45280 cellStatus: CELL_FORBIDDEN numArfcn: 2 arfcn: 78 116 numChannels: 20 array: 76 77 78 79 80 82 83 84 85 86 114 115 116 117 118 120 121 122 123 124 pbcch: 0 nom: 2 rac: 31 spgc: 0 pat: 6 nco: 0 t3168: 1000 t3192: 500 drxmax: 4 ctrlAck: 1 bsCVmax: 9 alpha: 10 pcMeasCh: 0 
arfcn: 835 rxLev: -79
arfcn: 798 rxLev: -79
arfcn: 813 rxLev: -79
$GPGGA,012251.000,4806.8790,N,00139.4436,W,1,06,1.7,19.5,M,48.3,M,,0000*7B
arfcn: 810 rxLev: -80
arfcn: 811 rxLev: -80
$GPGSA,M,3,27,08,10,07,32,21,,,,,,,2.0,1.7,1.1*33
arfcn: 817 rxLev: -80
arfcn: 820 rxLev: -80
$GPGSV,3,1,12,27,69,108,18,08,66,303,15,10,55,083,20,07,09,278,16*72
arfcn: 821 rxLev: -80
$GPGSV,3,2,12,32,06,122,17,21,06,069,15,37,27,150,,18,29,052,*75
arfcn: 822 rxLev: -80
$GPGSV,3,3,12,16,27,177,,11,23,270,,01,16,250,,30,10,302,*7F
arfcn: 823 rxLev: -80
arfcn: 824 rxLev: -80
$GPRMC,012251.000,A,4806.8790,N,00139.4436,W,0.93,205.97,060218,,,A*75
arfcn: 825 rxLev: -80
arfcn: 797 rxLev: -80
arfcn: 809 rxLev: -80
$GPGGA,012252.000,4806.8796,N,00139.4433,W,1,06,1.7,19.6,M,48.3,M,,0000*78
arfcn: 799 rxLev: -80
arfcn: 800 rxLev: -80
$GPGSA,M,3,27,08,10,07,32,21,,,,,,,2.0,1.7,1.1*33
arfcn: 801 rxLev: -80
arfcn: 819 rxLev: -80
$GPRMC,012252.000,A,4806.8796,N,00139.4433,W,1.01,205.97,060218,,,A*7F
arfcn: 816 rxLev: -80
arfcn: 815 rxLev: -80
arfcn: 827 rxLev: -80
$GPGGA,012253.000,4806.8800,N,00139.4430,W,1,06,1.7,19.7,M,48.3,M,,0000*7B
$GPGSA,M,3,27,08,10,07,32,21,,,,,,,2.0,1.7,1.1*33
$GPRMC,012253.000,A,4806.8800,N,00139.4430,W,1.22,226.37,060218,,,A*77
$GPGGA,012254.000,4806.8806,N,00139.4427,W,1,06,1.7,19.7,M,48.3,M,,0000*7C
$GPGSA,M,3,27,08,10,07,32,21,,,,,,,2.0,1.7,1.1*33
$GPRMC,012254.000,A,4806.8806,N,00139.4427,W,1.77,263.74,060218,,,A*76
$GPGGA,012255.000,4806.8805,N,00139.4427,W,1,06,1.7,19.6,M,48.3,M,,0000*7F
$GPGSA,M,3,27,08,10,07,32,21,,,,,,,2.0,1.7,1.1*33
$GPRMC,012255.000,A,4806.8805,N,00139.4427,W,1.73,274.09,060218,,,A*7C
$GPGGA,012256.000,4806.8807,N,00139.4425,W,1,06,1.7,19.7,M,48.3,M,,0000*7D
$GPGSA,M,3,27,08,10,07,32,21,,,,,,,2.0,1.7,1.1*33
$GPGSV,3,1,12,27,69,108,18,08,66,303,14,10,55,083,20,07,09,278,17*72
$GPGSV,3,2,12,32,06,122,16,21,06,069,14,37,27,150,,18,29,052,*75
arfcn: 983 bsic: 21 rxLev: -80 ber: 0.00 mcc: 208 mnc: 20 lac: 418 cellId: 21809 cellStatus: CELL_SUITABLE numArfcn: 1 arfcn: 983 numChannels: 24 array: 788 790 792 793 795 796 878 882 884 976 977 979 981 985 986 987 1012 1013 1014 1016 1017 1019 1020 1022 pbcch: 0 nom: 2 rac: 6 spgc: 0 pat: 6 nco: 0 t3168: 1500 t3192: 500 drxmax: 0 ctrlAck: 0 bsCVmax: 8 alpha: 6 pcMeasCh: 1 
arfcn: 837 rxLev: -81
$GPGSV,3,3,12,16,27,177,,11,23,270,,01,16,250,,30,10,302,*7F
arfcn: 841 rxLev: -81
arfcn: 848 rxLev: -81
$GPRMC,012256.000,A,4806.8807,N,00139.4425,W,1.48,281.47,060218,,,A*77
arfcn: 842 rxLev: -81
arfcn: 866 rxLev: -81
arfcn: 867 rxLev: -81
$GPGGA,012257.000,4806.8805,N,00139.4422,W,1,06,1.7,19.7,M,48.3,M,,0000*79
arfcn: 814 rxLev: -81
arfcn: 812 rxLev: -81
$GPGSA,M,3,27,08,10,07,32,21,,,,,,,2.0,1.7,1.1*33
arfcn: 818 rxLev: -81
arfcn: 794 rxLev: -81
$GPRMC,012257.000,A,4806.8805,N,00139.4422,W,1.09,281.47,060218,,,A*76
arfcn: 808 rxLev: -81
arfcn: 793 rxLev: -81
arfcn: 792 rxLev: -81
arfcn: 806 rxLev: -81
arfcn: 802 rxLev: -81
arfcn: 803 rxLev: -81
arfcn: 805 rxLev: -81
$GPGGA,012258.000,4806.8804,N,00139.4415,W,1,06,1.7,19.8,M,48.3,M,,0000*7C
arfcn: 795 rxLev: -81
$GPGSA,M,3,27,08,10,07,32,21,,,,,,,2.0,1.7,1.1*33
arfcn: 862 rxLev: -81
arfcn: 864 rxLev: -81
$GPRMC,012258.000,A,4806.8804,N,00139.4415,W,1.18,291.85,060218,,,A*73
arfcn: 843 rxLev: -81
arfcn: 844 rxLev: -81
arfcn: 845 rxLev: -81
arfcn: 850 rxLev: -81
arfcn: 852 rxLev: -81
arfcn: 840 rxLev: -81
arfcn: 839 rxLev: -81
arfcn: 836 rxLev: -81
arfcn: 826 rxLev: -81
$GPGGA,012259.000,4806.8806,N,00139.4408,W,1,06,1.7,19.9,M,48.3,M,,0000*72
arfcn: 831 rxLev: -81
$GPGSA,M,3,27,08,10,07,32,21,,,,,,,2.0,1.7,1.1*33
arfcn: 833 rxLev: -81
arfcn: 832 rxLev: -82
$GPRMC,012259.000,A,4806.8806,N,00139.4408,W,1.50,306.05,060218,,,A*77
arfcn: 830 rxLev: -82
arfcn: 828 rxLev: -82
arfcn: 853 rxLev: -82
arfcn: 854 rxLev: -82
arfcn: 856 rxLev: -82
arfcn: 857 rxLev: -82
arfcn: 846 rxLev: -82
arfcn: 859 rxLev: -82
$GPGGA,012300.000,4806.8804,N,00139.4397,W,1,05,4.1,19.8,M,48.3,M,,0000*7D
arfcn: 861 rxLev: -82
$GPGSA,M,3,27,08,10,07,32,,,,,,,,4.5,4.1,1.8*39
arfcn: 869 rxLev: -82
arfcn: 876 rxLev: -82
$GPRMC,012300.000,A,4806.8804,N,00139.4397,W,1.75,317.38,060218,,,A*70
arfcn: 877 rxLev: -82
arfcn: 804 rxLev: -82
arfcn: 807 rxLev: -82
$GPGGA,012301.000,4806.8804,N,00139.4386,W,1,05,4.1,19.8,M,48.3,M,,0000*7C
$GPGSA,M,3,27,08,10,07,32,,,,,,,,4.5,4.1,1.8*39
$GPGSV,3,1,12,27,69,108,18,08,66,303,14,10,55,083,20,07,09,278,17*72
$GPGSV,3,2,12,32,06,122,17,21,06,069,06,37,27,150,,18,29,052,*77
$GPGSV,3,3,12,16,27,177,,11,23,270,,01,16,250,,30,10,302,*7F
$GPRMC,012301.000,A,4806.8804,N,00139.4386,W,1.91,328.00,060218,,,A*7C
$GPGGA,012302.000,4806.8793,N,00139.4379,W,1,04,4.3,19.8,M,48.3,M,,0000*7D
$GPGSA,M,3,27,08,10,32,,,,,,,,,4.9,4.3,2.2*39
$GPRMC,012302.000,A,4806.8793,N,00139.4379,W,1.81,339.49,060218,,,A*72
arfcn: 604 bsic: 20 rxLev: -82 ber: 0.03 mcc: 208 mnc: 01 lac: 10300 cellId: 39915 cellStatus: CELL_FORBIDDEN numArfcn: 16 arfcn: 519 520 521 522 523 524 525 526 596 597 598 599 600 601 602 603 numChannels: 13 array: 5 6 10 15 16 512 514 516 517 518 608 609 610 pbcch: 0 nom: 2 rac: 1 spgc: 0 pat: 6 nco: 0 t3168: 1000 t3192: 500 drxmax: 2 ctrlAck: 0 bsCVmax: 9 alpha: 5 pcMeasCh: 1 
$GPGGA,012303.000,4806.8794,N,00139.4370,W,1,04,4.3,19.8,M,48.3,M,,0000*72
$GPGSA,M,3,27,08,10,32,,,,,,,,,4.9,4.3,2.2*39
$GPRMC,012303.000,A,4806.8794,N,00139.4370,W,1.98,350.09,060218,,,A*7E
$GPGGA,012304.000,4806.8791,N,00139.4362,W,1,04,4.3,19.7,M,48.3,M,,0000*7C
$GPGSA,M,3,27,08,10,32,,,,,,,,,4.9,4.3,2.2*39
$GPRMC,012304.000,A,4806.8791,N,00139.4362,W,1.89,358.53,060218,,,A*78
arfcn: 5 bsic: 1 rxLev: -82 ber: 0.00 mcc: 208 mnc: 01 lac: 10300 cellId: 40079 cellStatus: CELL_FORBIDDEN numArfcn: 13 arfcn: 5 17 18 19 20 21 22 23 24 25 47 48 49 numChannels: 20 array: 1 2 3 4 5 8 9 10 11 13 14 15 16 512 513 518 604 606 608 610 pbcch: 0 nom: 2 rac: 1 spgc: 0 pat: 6 nco: 0 t3168: 1000 t3192: 500 drxmax: 2 ctrlAck: 0 bsCVmax: 9 alpha: 5 pcMeasCh: 1 
arfcn: 874 rxLev: -82
arfcn: 875 rxLev: -82
arfcn: 868 rxLev: -82
arfcn: 870 rxLev: -82
arfcn: 871 rxLev: -82
arfcn: 872 rxLev: -82
arfcn: 873 rxLev: -82
$GPGGA,012305.000,4806.8790,N,00139.4358,W,1,04,4.3,19.8,M,48.3,M,,0000*7A
arfcn: 860 rxLev: -82
$GPGSA,M,3,27,08,10,32,,,,,,,,,4.9,4.3,2.2*39
arfcn: 863 rxLev: -82
arfcn: 851 rxLev: -82
$GPRMC,012305.000,A,4806.8790,N,00139.4358,W,1.38,4.10,060218,,,A*76
arfcn: 829 rxLev: -82
arfcn: 834 rxLev: -82
arfcn: 855 rxLev: -83
arfcn: 865 rxLev: -83
arfcn: 858 rxLev: -83
arfcn: 878 rxLev: -83
arfcn: 879 rxLev: -83
arfcn: 880 rxLev: -83
$GPGGA,012306.000,4806.8787,N,00139.4351,W,1,04,4.3,19.7,M,48.3,M,,0000*79
$GPGSA,M,3,27,08,10,32,,,,,,,,,4.9,4.3,2.2*39
$GPGSV,3,1,12,27,69,108,19,08,66,303,14,10,55,083,20,32,06,122,17*76
$GPGSV,3,2,12,37,27,150,,18,29,052,,16,27,177,,11,23,270,*7C
$GPGSV,3,3,12,01,16,250,,30,10,302,,07,09,278,,21,06,069,*71
$GPRMC,012306.000,A,4806.8787,N,00139.4351,W,1.51,11.81,060218,,,A*49
$GPGGA,012307.000,4806.8778,N,00139.4351,W,1,04,4.3,19.7,M,48.3,M,,0000*78
$GPGSA,M,3,27,08,10,32,,,,,,,,,4.9,4.3,2.2*39
$GPRMC,012307.000,A,4806.8778,N,00139.4351,W,1.19,19.08,060218,,,A*4D
$GPGGA,012308.000,4806.8778,N,00139.4345,W,1,04,4.3,19.7,M,48.3,M,,0000*72
$GPGSA,M,3,27,08,10,32,,,,,,,,,4.9,4.3,2.2*39
$GPRMC,012308.000,A,4806.8778,N,00139.4345,W,1.14,19.08,060218,,,A*4A
arfcn: 605 bsic: 33 rxLev: -83 ber: 0.05 mcc: 208 mnc: 01 lac: 10300 cellId: 27588 cellStatus: CELL_FORBIDDEN numArfcn: 22 arfcn: 525 526 527 528 529 530 531 532 533 534 535 587 588 589 590 591 592 593 594 595 596 597 numChannels: 18 array: 1 3 5 8 12 15 512 513 514 515 516 517 518 604 605 606 607 609 pbcch: 0 nom: 2 rac: 1 spgc: 0 pat: 6 nco: 0 t3168: 1000 t3192: 500 drxmax: 2 ctrlAck: 0 bsCVmax: 9 alpha: 5 pcMeasCh: 1 
$GPGGA,012309.000,4806.8775,N,00139.4344,W,1,04,4.3,19.7,M,48.3,M,,0000*7F
$GPGSA,M,3,27,08,10,32,,,,,,,,,4.9,4.3,2.2*39
$GPRMC,012309.000,A,4806.8775,N,00139.4344,W,0.84,19.08,060218,,,A*4F
arfcn: 117 bsic: 12 rxLev: -83 ber: 0.00 mcc: 208 mnc: 10 lac: 49415 cellId: 3568 cellStatus: CELL_FORBIDDEN numArfcn: 2 arfcn: 82 117 numChannels: 17 array: 76 77 78 79 80 83 84 85 87 113 114 116 117 120 122 123 124 pbcch: 0 nom: 2 rac: 31 spgc: 0 pat: 6 nco: 0 t3168: 1000 t3192: 500 drxmax: 4 ctrlAck: 1 bsCVmax: 9 alpha: 10 pcMeasCh: 0 
arfcn: 791 rxLev: -83
arfcn: 847 rxLev: -84
$GPGGA,012310.000,4806.8767,N,00139.4341,W,1,04,4.3,19.7,M,48.3,M,,0000*71
arfcn: 34 rxLev: -84
$GPGSA,M,3,27,08,10,32,,,,,,,,,4.9,4.3,2.2*39
arfcn: 33 rxLev: -85
arfcn: 31 rxLev: -85
$GPRMC,012310.000,A,4806.8767,N,00139.4341,W,1.25,29.18,060218,,,A*49
arfcn: 32 rxLev: -85
arfcn: 30 rxLev: -85
arfcn: 13 rxLev: -85
arfcn: 35 rxLev: -85
arfcn: 36 rxLev: -85
arfcn: 43 rxLev: -85
$GPGGA,012311.000,4806.8768,N,00139.4334,W,1,04,4.3,19.6,M,48.3,M,,0000*7C
$GPGSA,M,3,27,08,10,32,,,,,,,,,4.9,4.3,2.2*39
$GPGSV,3,1,12,27,69,108,19,08,66,303,14,10,55,083,21,32,06,122,17*77
$GPGSV,3,2,12,37,27,150,,18,29,052,,16,27,177,,11,23,270,*7C
$GPGSV,3,3,12,01,16,250,,30,10,302,,07,09,278,,21,06,069,*71
$GPRMC,012311.000,A,4806.8768,N,00139.4334,W,1.28,35.62,060218,,,A*48
$GPGGA,012312.000,4806.8762,N,00139.4331,W,1,04,4.3,19.7,M,48.3,M,,0000*71
$GPGSA,M,3,27,08,10,32,,,,,,,,,4.9,4.3,2.2*39
arfcn: 512 bsic: 25 rxLev: -85 ber: 0.01 mcc: 208 mnc: 01 lac: 10300 cellId: 40155 cellStatus: CELL_FORBIDDEN numArfcn: 16 arfcn: 519 520 521 522 523 524 525 526 596 597 598 599 600 601 602 603 numChannels: 16 array: 2 3 5 8 10 11 12 15 16 517 518 604 605 606 609 610 pbcch: 0 nom: 2 rac: 1 spgc: 0 pat: 6 nco: 0 t3168: 1000 t3192: 500 drxmax: 2 ctrlAck: 0 bsCVmax: 9 alpha: 5 pcMeasCh: 1 
arfcn: 44 rxLev: -85
$GPRMC,012312.000,A,4806.8762,N,00139.4331,W,1.29,42.20,060218,,,A*43
arfcn: 881 rxLev: -85
arfcn: 45 rxLev: -86
arfcn: 37 rxLev: -86
arfcn: 42 rxLev: -86
arfcn: 29 rxLev: -86
$GPGGA,012313.000,4806.8752,N,00139.4332,W,1,04,4.3,19.7,M,48.3,M,,0000*70
$GPGSA,M,3,27,08,10,32,,,,,,,,,4.9,4.3,2.2*39
$GPRMC,012313.000,A,4806.8752,N,00139.4332,W,1.46,51.63,060218,,,A*4E
$GPGGA,012314.000,4806.8750,N,00139.4323,W,1,04,4.3,19.7,M,48.3,M,,0000*75
$GPGSA,M,3,27,08,10,32,,,,,,,,,4.9,4.3,2.2*39
$GPRMC,012314.000,A,4806.8750,N,00139.4323,W,1.54,59.51,060218,,,A*41
$GPGGA,012315.000,4806.8753,N,00139.4306,W,1,04,4.3,19.7,M,48.3,M,,0000*70
$GPGSA,M,3,27,08,10,32,,,,,,,,,4.9,4.3,2.2*39
$GPRMC,012315.000,A,4806.8753,N,00139.4306,W,1.94,67.03,060218,,,A*42
arfcn: 606 bsic: 57 rxLev: -86 ber: 3.10 mcc: 208 mnc: 01 lac: 10301 cellId: 27485 cellStatus: CELL_FORBIDDEN numArfcn: 16 arfcn: 519 520 521 522 523 524 525 526 596 597 598 599 600 601 602 603 numChannels: 15 array: 3 4 6 10 12 512 513 514 515 516 517 604 605 608 609 pbcch: 0 nom: 2 rac: 1 spgc: 0 pat: 6 nco: 0 t3168: 1000 t3192: 500 drxmax: 2 ctrlAck: 0 bsCVmax: 9 alpha: 5 pcMeasCh: 1 
arfcn: 28 rxLev: -86
arfcn: 41 rxLev: -86
arfcn: 11 rxLev: -87
$GPGGA,012316.000,4806.8754,N,00139.4305,W,1,04,4.3,19.7,M,48.3,M,,0000*77
$GPGSA,M,3,27,08,10,32,,,,,,,,,4.8,4.3,2.2*38
$GPGSV,3,1,12,27,69,108,19,08,66,303,10,10,55,083,21,32,06,122,17*73
$GPGSV,3,2,12,07,09,278,04,37,27,150,,18,29,052,,16,27,177,*7F
$GPGSV,3,3,12,11,23,270,,01,16,250,,30,10,302,,21,06,069,*76
$GPRMC,012316.000,A,4806.8754,N,00139.4305,W,1.35,70.16,060218,,,A*4C
$GPGGA,012317.000,4806.8743,N,00139.4309,W,1,04,4.3,19.6,M,48.3,M,,0000*7D
$GPGSA,M,3,27,08,10,32,,,,,,,,,4.8,4.3,2.2*38
$GPRMC,012317.000,A,4806.8743,N,00139.4309,W,1.28,78.07,060218,,,A*43
$GPGGA,012318.000,4806.8744,N,00139.4306,W,1,05,4.1,19.6,M,48.3,M,,0000*79
$GPGSA,M,3,27,08,10,07,32,,,,,,,,4.5,4.1,1.8*39
$GPRMC,012318.000,A,4806.8744,N,00139.4306,W,1.03,78.07,060218,,,A*4D
$GPGGA,012319.000,4806.8742,N,00139.4303,W,1,05,4.1,19.5,M,48.3,M,,0000*78
$GPGSA,M,3,27,08,10,07,32,,,,,,,,4.5,4.1,1.8*39
$GPRMC,012319.000,A,4806.8742,N,00139.4303,W,1.14,78.07,060218,,,A*49
arfcn: 3 bsic: 0 rxLev: -87 ber: 0.01 mcc: 208 mnc: 01 lac: 10300 cellId: 2686 cellStatus: CELL_FORBIDDEN numArfcn: 13 arfcn: 3 17 18 19 20 21 22 23 24 25 47 48 49 numChannels: 13 array: 1 5 6 7 10 12 14 512 515 517 604 606 608 pbcch: 0 nom: 2 rac: 1 spgc: 0 pat: 6 nco: 0 t3168: 1000 t3192: 500 drxmax: 2 ctrlAck: 0 bsCVmax: 9 alpha: 5 pcMeasCh: 1 
arfcn: 1 rxLev: -87
arfcn: 39 rxLev: -87
arfcn: 40 rxLev: -87
arfcn: 38 rxLev: -88
arfcn: 27 rxLev: -88
$GPGGA,012320.000,4806.8736,N,00139.4309,W,1,05,4.1,19.5,M,48.3,M,,0000*7B
$GPGSA,M,3,27,08,10,07,32,,,,,,,,4.5,4.1,1.8*39
$GPRMC,012320.000,A,4806.8736,N,00139.4309,W,0.81,78.07,060218,,,A*47
$GPGGA,012321.000,4806.8730,N,00139.4314,W,1,05,4.1,19.5,M,48.3,M,,0000*70
$GPGSA,M,3,27,08,10,07,32,,,,,,,,4.5,4.1,1.8*39
$GPGSV,3,1,12,27,69,108,19,08,66,303,10,10,55,083,21,07,09,278,11*70
$GPGSV,3,2,12,32,06,122,17,39,31,144,,18,29,052,,16,27,177,*74
$GPGSV,3,3,12,11,23,270,,01,16,250,,30,10,302,,21,06,069,*76
$GPRMC,012321.000,A,4806.8730,N,00139.4314,W,0.95,78.07,060218,,,A*49
$GPGGA,012322.000,4806.8726,N,00139.4320,W,1,05,4.1,19.5,M,48.3,M,,0000*73
$GPGSA,M,3,27,08,10,07,32,,,,,,,,4.5,4.1,1.8*39
$GPRMC,012322.000,A,4806.8726,N,00139.4320,W,1.07,78.07,060218,,,A*40
$GPGGA,012323.000,4806.8722,N,00139.4329,W,1,05,4.1,19.5,M,48.3,M,,0000*7F
$GPGSA,M,3,27,08,10,07,32,,,,,,,,4.5,4.1,1.8*39
$GPRMC,012323.000,A,4806.8722,N,00139.4329,W,1.43,95.09,060218,,,A*41
arfcn: 979 bsic: 19 rxLev: -88 ber: 0.00 mcc: 208 mnc: 20 lac: 418 cellId: 20718 cellStatus: CELL_SUITABLE numArfcn: 1 arfcn: 979 numChannels: 22 array: 788 789 790 792 793 795 878 882 884 977 981 983 984 985 986 987 1012 1013 1014 1017 1019 1020 pbcch: 0 nom: 2 rac: 6 spgc: 0 pat: 6 nco: 0 t3168: 1500 t3192: 500 drxmax: 0 ctrlAck: 0 bsCVmax: 8 alpha: 6 pcMeasCh: 1 
arfcn: 79 rxLev: -88
arfcn: 81 rxLev: -88
arfcn: 46 rxLev: -88
$GPGGA,012324.000,4806.8723,N,00139.4334,W,1,05,4.1,19.5,M,48.3,M,,0000*75
$GPGSA,M,3,27,08,10,07,32,,,,,,,,4.5,4.1,1.8*39
$GPRMC,012324.000,A,4806.8723,N,00139.4334,W,1.41,106.94,060218,,,A*76
$GPGGA,012325.000,4806.8728,N,00139.4338,W,1,05,4.1,19.5,M,48.3,M,,0000*73
$GPGSA,M,3,27,08,10,07,32,,,,,,,,4.4,4.1,1.8*38
$GPRMC,012325.000,A,4806.8728,N,00139.4338,W,1.33,120.63,060218,,,A*79
$GPGGA,012326.000,4806.8714,N,00139.4350,W,1,05,4.1,19.5,M,48.3,M,,0000*71
$GPGSA,M,3,27,08,10,07,32,,,,,,,,4.4,4.1,1.8*38
arfcn: 2 bsic: 54 rxLev: -89 ber: 0.02 mcc: 208 mnc: 01 lac: 10300 cellId: 42646 cellStatus: CELL_FORBIDDEN numArfcn: 13 arfcn: 2 17 18 19 20 21 22 23 24 25 47 48 49 numChannels: 22 array: 1 5 6 7 8 10 12 13 15 16 512 514 515 516 517 518 604 606 607 608 609 610 pbcch: 0 nom: 2 rac: 1 spgc: 0 pat: 6 nco: 0 t3168: 1000 t3192: 500 drxmax: 2 ctrlAck: 0 bsCVmax: 9 alpha: 5 pcMeasCh: 1 
$GPGSV,3,1,12,27,69,108,19,08,66,303,12,10,55,083,21,07,09,278,11*72
$GPGSV,3,2,12,32,06,122,17,39,31,144,,18,29,052,,16,27,177,*74
$GPGSV,3,3,12,11,23,270,,01,16,250,,30,10,302,,21,06,069,*76
$GPRMC,012326.000,A,4806.8714,N,00139.4350,W,1.81,141.34,060218,,,A*77
$GPGGA,012327.000,4806.8699,N,00139.4362,W,1,05,4.1,19.5,M,48.3,M,,0000*75
$GPGSA,M,3,27,08,10,07,32,,,,,,,,4.4,4.1,1.8*38
$GPRMC,012327.000,A,4806.8699,N,00139.4362,W,2.37,168.23,060218,,,A*70
$GPGGA,012328.000,4806.8700,N,00139.4371,W,1,05,4.1,19.4,M,48.3,M,,0000*78
$GPGSA,M,3,27,08,10,07,32,,,,,,,,4.4,4.1,1.8*38
$GPRMC,012328.000,A,4806.8700,N,00139.4371,W,2.53,184.63,060218,,,A*78
$GPGGA,012329.000,4806.8695,N,00139.4382,W,1,05,4.1,19.4,M,48.3,M,,0000*78
$GPGSA,M,3,27,08,10,07,32,,,,,,,,4.4,4.1,1.8*38
$GPRMC,012329.000,A,4806.8695,N,00139.4382,W,2.75,196.73,060218,,,A*7E
arfcn: 122 bsic: 3 rxLev: -89 ber: 0.00 mcc: 208 mnc: 10 lac: 49415 cellId: 33517 cellStatus: CELL_FORBIDDEN numArfcn: 3 arfcn: 77 88 122 numChannels: 17 array: 77 78 79 80 82 84 85 86 114 115 117 118 119 120 122 123 124 pbcch: 0 nom: 2 rac: 31 spgc: 0 pat: 6 nco: 0 t3168: 1000 t3192: 500 drxmax: 4 ctrlAck: 1 bsCVmax: 9 alpha: 10 pcMeasCh: 0 
$GPGGA,012330.000,4806.8684,N,00139.4397,W,1,05,4.1,19.5,M,48.3,M,,0000*75
$GPGSA,M,3,27,08,10,07,32,,,,,,,,4.4,4.1,1.8*38
$GPRMC,012330.000,A,4806.8684,N,00139.4397,W,3.44,207.91,060218,,,A*76
$GPGGA,012331.000,4806.8676,N,00139.4407,W,1,05,4.1,19.5,M,48.3,M,,0000*77
$GPGSA,M,3,27,08,10,07,32,,,,,,,,4.4,4.1,1.8*38
$GPGSV,3,1,12,27,69,108,20,08,66,303,14,10,55,083,21,07,09,278,12*7D
arfcn: 124 bsic: 2 rxLev: -89 ber: 1.02 mcc: 208 mnc: 10 lac: 49415 cellId: 43517 cellStatus: CELL_FORBIDDEN numArfcn: 2 arfcn: 112 124 numChannels: 14 array: 76 77 78 80 82 85 114 115 117 118 120 121 122 124 pbcch: 0 nom: 2 rac: 31 spgc: 0 pat: 6 nco: 0 t3168: 1000 t3192: 500 drxmax: 4 ctrlAck: 1 bsCVmax: 9 alpha: 10 pcMeasCh: 0 
$GPGSV,3,2,12,32,06,122,17,39,31,144,,18,29,052,,16,27,177,*74
$GPGSV,3,3,12,11,23,270,,01,16,250,,30,10,302,,21,06,069,*76
$GPRMC,012331.000,A,4806.8676,N,00139.4407,W,3.22,213.30,060218,,,A*7A
$GPGGA,012332.000,4806.8667,N,00139.4418,W,1,04,4.3,19.5,M,48.3,M,,0000*79
$GPGSA,M,3,27,08,10,32,,,,,,,,,4.8,4.3,2.2*38
$GPRMC,012332.000,A,4806.8667,N,00139.4418,W,3.38,217.59,060218,,,A*77
$GPGGA,012333.000,4806.8657,N,00139.4427,W,1,05,4.1,19.5,M,48.3,M,,0000*74
$GPGSA,M,3,27,08,10,07,32,,,,,,,,4.4,4.1,1.8*38
$GPRMC,012333.000,A,4806.8657,N,00139.4427,W,3.35,218.64,060218,,,A*75
arfcn: 514 bsic: 1 rxLev: -89 ber: 0.00 mcc: 208 mnc: 01 lac: 10300 cellId: 39259 cellStatus: CELL_FORBIDDEN numArfcn: 17 arfcn: 514 519 520 521 522 523 524 525 526 596 597 598 599 600 601 602 603 numChannels: 14 array: 1 6 8 10 12 14 512 513 514 517 604 605 606 608 pbcch: 0 nom: 2 rac: 1 spgc: 1 pat: 6 nco: 0 t3168: 1000 t3192: 500 drxmax: 4 ctrlAck: 1 bsCVmax: 9 alpha: 7 pcMeasCh: 0 
$GPGGA,012334.000,4806.8649,N,00139.4437,W,1,05,4.1,19.5,M,48.3,M,,0000*7D
$GPGSA,M,3,27,08,10,07,32,,,,,,,,4.4,4.1,1.8*38
$GPRMC,012334.000,A,4806.8649,N,00139.4437,W,3.54,219.89,060218,,,A*79
$GPGGA,012335.000,4806.8647,N,00139.4449,W,1,05,4.1,19.5,M,48.3,M,,0000*7B
$GPGSA,M,3,27,08,10,07,32,,,,,,,,4.4,4.1,1.8*38
$GPRMC,012335.000,A,4806.8647,N,00139.4449,W,3.62,223.30,060218,,,A*71
$GPGGA,012336.000,4806.8636,N,00139.4462,W,1,05,4.1,19.5,M,48.3,M,,0000*77
$GPGSA,M,3,27,08,10,07,32,,,,,,,,4.4,4.1,1.8*38
$GPGSV,3,1,12,27,69,108,20,08,66,303,16,10,55,083,22,07,09,278,10*7E
$GPGSV,3,2,12,32,06,122,17,39,31,144,,18,29,052,,16,27,177,*74
$GPGSV,3,3,12,11,23,270,,01,16,250,,30,10,302,,21,06,069,*76
arfcn: 1014 bsic: 31 rxLev: -89 ber: 3.05 mcc: 208 mnc: 20 lac: 418 cellId: 20649 cellStatus: CELL_SUITABLE numArfcn: 1 arfcn: 1014 numChannels: 25 array: 788 789 790 791 793 795 796 879 884 977 978 979 980 981 982 983 984 985 987 1012 1013 1017 1020 1021 1022 pbcch: 0 nom: 2 rac: 6 spgc: 0 pat: 6 nco: 0 t3168: 1500 t3192: 500 drxmax: 0 ctrlAck: 0 bsCVmax: 8 alpha: 6 pcMeasCh: 1 
$GPRMC,012336.000,A,4806.8636,N,00139.4462,W,3.83,225.27,060218,,,A*72
$GPGGA,012337.000,4806.8630,N,00139.4477,W,1,05,4.1,19.5,M,48.3,M,,0000*74
$GPGSA,M,3,27,08,10,07,32,,,,,,,,4.4,4.1,1.8*38
$GPRMC,012337.000,A,4806.8630,N,00139.4477,W,3.98,227.62,060218,,,A*78
$GPGGA,012338.000,4806.8630,N,00139.4488,W,1,04,4.3,19.5,M,48.3,M,,0000*78
$GPGSA,M,3,27,08,10,32,,,,,,,,,4.8,4.3,2.2*38
$GPRMC,012338.000,A,4806.8630,N,00139.4488,W,3.71,230.28,060218,,,A*78
arfcn: 515 bsic: 34 rxLev: -89 ber: 0.00 mcc: 208 mnc: 01 lac: 10300 cellId: 27586 cellStatus: CELL_FORBIDDEN numArfcn: 16 arfcn: 519 520 521 522 523 524 525 526 596 597 598 599 600 601 602 603 numChannels: 9 array: 1 8 12 512 513 516 605 606 607 pbcch: 0 nom: 2 rac: 1 spgc: 0 pat: 6 nco: 0 t3168: 1000 t3192: 500 drxmax: 2 ctrlAck: 0 bsCVmax: 9 alpha: 5 pcMeasCh: 1 
arfcn: 56 rxLev: -89
arfcn: 57 rxLev: -89
arfcn: 55 rxLev: -90
$GPGGA,012339.000,4806.8612,N,00139.4505,W,1,04,4.3,19.5,M,48.3,M,,0000*7D
$GPGSA,M,3,27,08,10,32,,,,,,,,,4.8,4.3,2.2*38
$GPRMC,012339.000,A,4806.8612,N,00139.4505,W,4.22,230.25,060218,,,A*71
$GPGGA,012340.000,4806.8608,N,00139.4513,W,1,04,4.3,19.5,M,48.3,M,,0000*7F
$GPGSA,M,3,27,08,10,32,,,,,,,,,4.8,4.3,2.2*38
$GPRMC,012340.000,A,4806.8608,N,00139.4513,W,3.73,229.76,060218,,,A*7E
arfcn: 76 bsic: 5 rxLev: -90 ber: 0.00 mcc: 208 mnc: 10 lac: 49415 cellId: 44813 cellStatus: CELL_FORBIDDEN numArfcn: 2 arfcn: 76 121 numChannels: 16 array: 76 77 78 79 80 82 84 85 86 113 114 117 118 121 123 124 pbcch: 0 nom: 2 rac: 31 spgc: 0 pat: 6 nco: 0 t3168: 1000 t3192: 500 drxmax: 4 ctrlAck: 1 bsCVmax: 9 alpha: 10 pcMeasCh: 0 
arfcn: 94 rxLev: -90
$GPGGA,012341.000,4806.8601,N,00139.4524,W,1,04,4.3,19.5,M,48.3,M,,0000*73
arfcn: 95 rxLev: -90
arfcn: 96 rxLev: -90
$GPGSA,M,3,27,08,10,32,,,,,,,,,4.8,4.3,2.2*38
arfcn: 68 rxLev: -90
arfcn: 58 rxLev: -90
$GPGSV,3,1,12,27,69,108,21,08,66,303,16,10,55,083,22,32,06,122,17*7D
arfcn: 59 rxLev: -90
$GPGSV,3,2,12,07,09,278,04,39,31,144,,18,29,052,,16,27,177,*73
arfcn: 64 rxLev: -90
arfcn: 63 rxLev: -91
$GPGSV,3,3,12,11,23,270,,01,16,250,,30,10,302,,21,06,069,*76
arfcn: 54 rxLev: -91
arfcn: 9 rxLev: -91
$GPRMC,012341.000,A,4806.8601,N,00139.4524,W,3.64,229.41,060218,,,A*70
arfcn: 26 rxLev: -91
arfcn: 67 rxLev: -91
arfcn: 69 rxLev: -91
$GPGGA,012342.000,4806.8592,N,00139.4532,W,1,04,4.3,19.5,M,48.3,M,,0000*7E
arfcn: 92 rxLev: -91
arfcn: 93 rxLev: -91
$GPGSA,M,3,27,08,10,32,,,,,,,,,4.8,4.3,2.2*38
arfcn: 103 rxLev: -91
$GPRMC,012342.000,A,4806.8592,N,00139.4532,W,3.55,227.89,060218,,,A*75
arfcn: 105 rxLev: -91
arfcn: 106 rxLev: -91
arfcn: 107 rxLev: -91
arfcn: 104 rxLev: -91
arfcn: 102 rxLev: -91
arfcn: 100 rxLev: -91
arfcn: 97 rxLev: -91
arfcn: 91 rxLev: -91
$GPGGA,012343.000,4806.8580,N,00139.4537,W,1,04,4.3,19.5,M,48.3,M,,0000*79
arfcn: 4 rxLev: -91
$GPGSA,M,3,27,08,10,32,,,,,,,,,4.8,4.3,2.2*38
arfcn: 53 rxLev: -91
arfcn: 65 rxLev: -91
$GPRMC,012343.000,A,4806.8580,N,00139.4537,W,3.70,225.11,060218,,,A*76
arfcn: 66 rxLev: -91
arfcn: 60 rxLev: -91
arfcn: 62 rxLev: -91
arfcn: 98 rxLev: -92
arfcn: 99 rxLev: -92
arfcn: 70 rxLev: -92
arfcn: 101 rxLev: -92
arfcn: 108 rxLev: -92
$GPGGA,012344.000,4806.8574,N,00139.4533,W,1,04,4.3,19.5,M,48.3,M,,0000*71
$GPGSA,M,3,27,08,10,32,,,,,,,,,4.8,4.3,2.2*38
$GPRMC,012344.000,A,4806.8574,N,00139.4533,W,3.41,220.56,060218,,,A*7A
$GPGGA,012345.000,4806.8563,N,00139.4539,W,1,04,4.3,19.5,M,48.3,M,,0000*7C
$GPGSA,M,3,27,08,10,32,,,,,,,,,4.8,4.3,2.2*38
$GPRMC,012345.000,A,4806.8563,N,00139.4539,W,3.66,215.78,060218,,,A*78
arfcn: 115 bsic: 43 rxLev: -92 ber: 0.02 mcc: 208 mnc: 10 lac: 49415 cellId: 55710 cellStatus: CELL_FORBIDDEN numArfcn: 2 arfcn: 87 115 numChannels: 22 array: 76 77 78 79 80 82 83 84 85 86 113 114 115 116 117 118 119 120 121 122 123 124 pbcch: 0 nom: 2 rac: 31 spgc: 0 pat: 6 nco: 0 t3168: 1000 t3192: 500 drxmax: 4 ctrlAck: 1 bsCVmax: 9 alpha: 10 pcMeasCh: 0 
$GPGGA,012346.000,4806.8559,N,00139.4531,W,1,05,4.0,19.5,M,48.3,M,,0000*7C
$GPGSA,M,3,27,08,10,07,32,,,,,,,,4.4,4.0,1.8*39
$GPGSV,3,1,12,27,69,108,21,08,66,303,16,10,55,083,22,07,09,278,16*79
$GPGSV,3,2,12,32,06,122,17,39,31,144,,18,29,052,,16,27,177,*74
$GPGSV,3,3,12,11,23,270,,01,16,250,,30,10,302,,21,06,069,*76
$GPRMC,012346.000,A,4806.8559,N,00139.4531,W,3.32,210.15,060218,,,A*75
$GPGGA,012347.000,4806.8552,N,00139.4526,W,1,05,4.0,19.5,M,48.3,M,,0000*70
$GPGSA,M,3,27,08,10,07,32,,,,,,,,4.4,4.0,1.8*39
$GPRMC,012347.000,A,4806.8552,N,00139.4526,W,3.30,203.78,060218,,,A*72
$GPGGA,012348.000,4806.8554,N,00139.4512,W,1,05,4.0,19.6,M,48.3,M,,0000*7D
arfcn: 1016 bsic: 41 rxLev: -92 ber: 0.00 mcc: 208 mnc: 20 lac: 418 cellId: 23623 cellStatus: CELL_SUITABLE numArfcn: 1 arfcn: 1016 numChannels: 28 array: 787 788 791 792 793 794 795 879 880 883 884 975 977 978 979 981 982 983 986 987 1011 1012 1017 1018 1019 1020 1021 1022 pbcch: 0 nom: 2 rac: 6 spgc: 0 pat: 6 nco: 0 t3168: 1500 t3192: 500 drxmax: 4 ctrlAck: 1 bsCVmax: 8 alpha: 6 pcMeasCh: 1 
$GPGSA,M,3,27,08,10,07,32,,,,,,,,4.4,4.0,1.8*39
$GPRMC,012348.000,A,4806.8554,N,00139.4512,W,2.67,197.08,060218,,,A*76
$GPGGA,012349.000,4806.8554,N,00139.4506,W,1,05,4.0,19.6,M,48.3,M,,0000*79
$GPGSA,M,3,27,08,10,07,32,,,,,,,,4.4,4.0,1.8*39
$GPRMC,012349.000,A,4806.8554,N,00139.4506,W,2.09,192.46,060218,,,A*75
$GPGGA,012350.000,4806.8553,N,00139.4501,W,1,05,4.0,19.6,M,48.3,M,,0000*71
$GPGSA,M,3,27,08,10,07,32,,,,,,,,4.4,4.0,1.8*39
$GPRMC,012350.000,A,4806.8553,N,00139.4501,W,1.76,190.64,060218,,,A*74
$GPGGA,012351.000,4806.8549,N,00139.4495,W,1,05,4.0,19.6,M,48.3,M,,0000*77
arfcn: 1017 bsic: 33 rxLev: -92 ber: 0.06 mcc: 208 mnc: 20 lac: 418 cellId: 20104 cellStatus: CELL_SUITABLE numArfcn: 3 arfcn: 986 987 1017 numChannels: 20 array: 788 790 885 975 976 978 979 980 981 982 986 987 1011 1012 1015 1017 1019 1020 1021 1022 pbcch: 0 nom: 2 rac: 7 spgc: 0 pat: 6 nco: 0 t3168: 1500 t3192: 500 drxmax: 4 ctrlAck: 1 bsCVmax: 8 alpha: 6 pcMeasCh: 1 
$GPGSA,M,3,27,08,10,07,32,,,,,,,,4.4,4.0,1.8*39
$GPGSV,3,1,12,27,68,110,21,08,67,303,16,10,54,081,22,07,09,277,16*7C
$GPGSV,3,2,12,32,07,121,17,33,33,198,,18,28,051,,16,26,177,*7C
$GPGSV,3,3,12,11,24,271,,01,17,251,,30,10,301,,28,05,327,*70
$GPRMC,012351.000,A,4806.8549,N,00139.4495,W,1.76,188.42,060218,,,A*7F
$GPGGA,012352.000,4806.8545,N,00139.4486,W,1,05,4.0,19.6,M,48.3,M,,0000*7A
$GPGSA,M,3,27,08,10,07,32,,,,,,,,4.4,4.0,1.8*39
$GPRMC,012352.000,A,4806.8545,N,00139.4486,W,2.02,182.80,060218,,,A*76
arfcn: 608 bsic: 46 rxLev: -92 ber: 0.00 mcc: 208 mnc: 01 lac: 10300 cellId: 36733 cellStatus: CELL_FORBIDDEN numArfcn: 16 arfcn: 519 520 521 522 523 524 525 526 596 597 598 599 600 601 602 603 numChannels: 15 array: 1 3 6 7 10 12 14 512 513 514 515 517 604 605 606 pbcch: 0 nom: 2 rac: 1 spgc: 0 pat: 6 nco: 0 t3168: 1000 t3192: 500 drxmax: 2 ctrlAck: 0 bsCVmax: 9 alpha: 5 pcMeasCh: 1 
$GPGGA,012353.000,4806.8530,N,00139.4486,W,1,05,4.0,19.6,M,48.3,M,,0000*79
$GPGSA,M,3,27,08,10,07,32,,,,,,,,4.4,4.0,1.8*39
$GPRMC,012353.000,A,4806.8530,N,00139.4486,W,2.49,178.94,060218,,,A*7A
$GPGGA,012354.000,4806.8519,N,00139.4484,W,1,05,4.0,19.7,M,48.3,M,,0000*76
$GPGSA,M,3,27,08,10,07,32,,,,,,,,4.4,4.0,1.8*39
arfcn: 114 bsic: 6 rxLev: -92 ber: 2.03 mcc: 208 mnc: 10 lac: 49415 cellId: 44202 cellStatus: CELL_FORBIDDEN numArfcn: 2 arfcn: 80 114 numChannels: 20 array: 76 77 78 79 80 84 85 86 113 114 115 116 117 118 119 120 121 122 123 124 pbcch: 0 nom: 2 rac: 31 spgc: 0 pat: 6 nco: 0 t3168: 1000 t3192: 500 drxmax: 4 ctrlAck: 1 bsCVmax: 9 alpha: 10 pcMeasCh: 0 
arfcn: 86 rxLev: -92
arfcn: 61 rxLev: -92
$GPRMC,012354.000,A,4806.8519,N,00139.4484,W,2.68,178.30,060218,,,A*79
arfcn: 6 rxLev: -92
arfcn: 7 rxLev: -93
arfcn: 109 rxLev: -93
$GPGGA,012355.000,4806.8521,N,00139.4480,W,1,05,4.0,19.6,M,48.3,M,,0000*79
$GPGSA,M,3,27,08,10,07,32,,,,,,,,4.4,4.0,1.8*39
$GPRMC,012355.000,A,4806.8521,N,00139.4480,W,1.96,178.63,060218,,,A*73
$GPGGA,012356.000,4806.8522,N,00139.4475,W,1,05,4.0,19.6,M,48.3,M,,0000*73
$GPGSA,M,3,27,08,10,07,32,,,,,,,,4.4,4.0,1.8*39
$GPGSV,3,1,12,27,68,110,21,08,67,303,16,10,54,081,21,07,09,277,17*7E
$GPGSV,3,2,12,32,07,121,16,33,33,198,,18,28,051,,16,26,177,*7D
$GPGSV,3,3,12,11,24,271,,01,17,251,,30,10,301,,28,05,327,*70
$GPRMC,012356.000,A,4806.8522,N,00139.4475,W,1.52,178.58,060218,,,A*79
$GPGGA,012357.000,4806.8524,N,00139.4470,W,1,05,4.0,19.6,M,48.3,M,,0000*71
$GPGSA,M,3,27,08,10,07,32,,,,,,,,4.4,4.0,1.8*39
$GPRMC,012357.000,A,4806.8524,N,00139.4470,W,1.18,178.15,060218,,,A*7C
$GPGGA,012358.000,4806.8525,N,00139.4466,W,1,05,4.0,19.6,M,48.3,M,,0000*78
$GPGSA,M,3,27,08,10,07,32,,,,,,,,4.4,4.0,1.8*39
arfcn: 14 bsic: 35 rxLev: -93 ber: 0.00 mcc: 208 mnc: 01 lac: 10300 cellId: 39250 cellStatus: CELL_FORBIDDEN numArfcn: 13 arfcn: 14 17 18 19 20 21 22 23 24 25 47 48 49 numChannels: 14 array: 1 3 4 6 8 10 12 14 512 513 514 517 604 608 pbcch: 0 nom: 2 rac: 1 spgc: 1 pat: 6 nco: 0 t3168: 1000 t3192: 500 drxmax: 4 ctrlAck: 1 bsCVmax: 9 alpha: 7 pcMeasCh: 0 
arfcn: 84 rxLev: -94
$GPRMC,012358.000,A,4806.8525,N,00139.4466,W,1.06,178.15,060218,,,A*7A
arfcn: 71 rxLev: -94
arfcn: 52 rxLev: -94
arfcn: 47 rxLev: -94
arfcn: 120 rxLev: -95
arfcn: 123 rxLev: -95
arfcn: 72 rxLev: -95
arfcn: 77 rxLev: -95
arfcn: 90 rxLev: -96
$GPGGA,012359.000,4806.8527,N,00139.4462,W,1,05,4.0,19.6,M,48.3,M,,0000*7F
arfcn: 978 rxLev: -96
$GPGSA,M,3,27,08,10,07,32,,,,,,,,4.4,4.0,1.8*39
$GPRMC,012359.000,A,4806.8527,N,00139.4462,W,0.85,178.15,060218,,,A*77
$GPGGA,012400.000,4806.8521,N,00139.4462,W,1,05,4.0,19.6,M,48.3,M,,0000*72
$GPGSA,M,3,27,08,10,07,32,,,,,,,,4.4,4.0,1.8*39
$GPRMC,012400.000,A,4806.8521,N,00139.4462,W,1.26,179.88,060218,,,A*77
