$GPGSA,M,1,,,,,,,,,,,,,,,*12
$GPRMC,233538.166,V,,,,,,,050218,,,N*4E
Survey start at #CCLK: "18/02/06,00:35:39+04"
at#csurv
Network survey started ...
Survey end at #CCLK: "18/02/06,00:35:39+04"
Survey duration: 0 seconds, 0 bases detected over 0 freqs scanned.
$GPGGA,233539.166,,,,,0,00,,,M,0.0,M,,0000*5A
$GPGSA,M,1,,,,,,,,,,,,,,,*12
$GPRMC,233539.166,V,,,,,,,050218,,,N*4F
$GPGGA,233540.166,,,,,0,00,,,M,0.0,M,,0000*54
$GPGSA,M,1,,,,,,,,,,,,,,,*12
$GPGSV,3,1,10,10,29,144,12,16,77,208,13,21,45,058,22,33,33,198,*72
$GPGSV,3,2,10,27,61,295,,26,49,163,,18,40,103,,08,22,281,*74
$GPGSV,3,3,10,20,18,044,,07,13,322,*75
$GPRMC,233540.166,V,,,,,,,050218,,,N*41
Survey start at #CCLK: "18/02/06,00:35:41+04"
at#csurv
Network survey started ...
$GPGGA,233541.166,,,,,0,00,,,M,0.0,M,,0000*55
$GPGSA,M,1,,,,,,,,,,,,,,,*12
$GPRMC,233541.166,V,,,,,,,050218,,,N*40
$GPGGA,233542.166,,,,,0,00,,,M,0.0,M,,0000*56
$GPGSA,M,1,,,,,,,,,,,,,,,*12
$GPRMC,233542.166,V,,,,,,,050218,,,N*43
$GPGGA,233543.166,,,,,0,00,,,M,0.0,M,,0000*57
$GPGSA,M,1,,,,,,,,,,,,,,,*12
$GPRMC,233543.166,V,,,,,,,050218,,,N*42
$GPGGA,233544.166,,,,,0,00,,,M,0.0,M,,0000*50
$GPGSA,M,1,,,,,,,,,,,,,,,*12
$GPRMC,233544.166,V,,,,,,,050218,,,N*45
$GPGGA,233545.166,,,,,0,00,,,M,0.0,M,,0000*51
$GPGSA,M,1,,,,,,,,,,,,,,,*12
$GPGSV,3,1,10,10,29,144,12,16,77,208,13,21,45,058,22,33,33,198,*72
$GPGSV,3,2,10,27,61,295,,26,49,163,,18,40,103,,08,22,281,*74
$GPGSV,3,3,10,20,18,044,,07,13,322,*75
$GPRMC,233545.166,V,,,,,,,050218,,,N*44
$GPGGA,233546.166,,,,,0,00,,,M,0.0,M,,0000*52
$GPGSA,M,1,,,,,,,,,,,,,,,*12
$GPRMC,233546.166,V,,,,,,,050218,,,N*47
$GPGGA,233547.166,,,,,0,00,,,M,0.0,M,,0000*53
$GPGSA,M,1,,,,,,,,,,,,,,,*12
$GPRMC,233547.166,V,,,,,,,050218,,,N*46
$GPGGA,233548.166,,,,,0,00,,,M,0.0,M,,0000*5C
$GPGSA,M,1,,,,,,,,,,,,,,,*12
$GPRMC,233548.166,V,,,,,,,050218,,,N*49
$GPGGA,233549.166,,,,,0,00,,,M,0.0,M,,0000*5D
$GPGSA,M,1,,,,,,,,,,,,,,,*12
$GPRMC,233549.166,V,,,,,,,050218,,,N*48
$GPGGA,233550.166,,,,,0,00,,,M,0.0,M,,0000*55
$GPGSA,M,1,,,,,,,,,,,,,,,*12
$GPGSV,3,1,10,10,29,144,06,16,77,208,10,21,45,058,22,33,33,198,*74
$GPGSV,3,2,10,27,61,295,,26,49,163,,18,40,103,,08,22,281,*74
$GPGSV,3,3,10,20,18,044,,07,13,322,*75
$GPRMC,233550.166,V,,,,,,,050218,,,N*40
$GPGGA,233551.166,,,,,0,00,,,M,0.0,M,,0000*54
$GPGSA,M,1,,,,,,,,,,,,,,,*12
$GPRMC,233551.166,V,,,,,,,050218,,,N*41
$GPGGA,233552.166,,,,,0,00,,,M,0.0,M,,0000*57
$GPGSA,M,1,,,,,,,,,,,,,,,*12
$GPRMC,233552.166,V,,,,,,,050218,,,N*42
$GPGGA,233553.166,,,,,0,00,,,M,0.0,M,,0000*56
$GPGSA,M,1,,,,,,,,,,,,,,,*12
$GPRMC,233553.166,V,,,,,,,050218,,,N*43
$GPGGA,233554.166,,,,,0,00,,,M,0.0,M,,0000*51
$GPGSA,M,1,,,,,,,,,,,,,,,*12
$GPRMC,233554.166,V,,,,,,,050218,,,N*44
$GPGGA,233555.166,,,,,0,00,,,M,0.0,M,,0000*50
$GPGSA,M,1,,,,,,,,,,,,,,,*12
$GPGSV,3,1,10,10,29,144,06,16,77,208,11,21,45,058,21,26,49,163,15*7F
$GPGSV,3,2,10,33,33,198,,27,61,295,,18,40,103,,08,22,281,*79
$GPGSV,3,3,10,20,18,044,,07,13,322,*75
$GPRMC,233555.166,V,,,,,,,050218,,,N*45
$GPGGA,233556.170,,,,,0,04,3.0,,M,0.0,M,,0000*7D
$GPGSA,M,1,,,,,,,,,,,,,,,*12
$GPRMC,233556.170,V,,,,,,,050218,,,N*41
$GPGGA,233557.170,,,,,0,04,3.0,,M,0.0,M,,0000*7C
$GPGSA,M,1,,,,,,,,,,,,,,,*12
$GPRMC,233557.170,V,,,,,,,050218,,,N*40
$GPGGA,233558.166,,,,,0,00,,,M,0.0,M,,0000*5D
$GPGSA,M,1,,,,,,,,,,,,,,,*12
$GPRMC,233558.166,V,,,,,,,050218,,,N*48
$GPGGA,233559.166,,,,,0,00,,,M,0.0,M,,0000*5C
$GPGSA,M,1,,,,,,,,,,,,,,,*12
$GPRMC,233559.166,V,,,,,,,050218,,,N*49
arfcn: 981 bsic: 46 rxLev: -47 ber: 0.00 mcc: 208 mnc: 20 lac: 418 cellId: 21807 cellStatus: CELL_SUITABLE numArfcn: 1 arfcn: 981 numChannels: 9 array: 979 982 983 985 1012 1014 1017 1019 1020 pbcch: 0 nom: 2 rac: 6 spgc: 0 pat: 6 nco: 0 t3168: 1500 t3192: 500 drxmax: 0 ctrlAck: 0 bsCVmax: 8 alpha: 6 pcMeasCh: 1 
arfcn: 985 bsic: 44 rxLev: -51 ber: 0.00 mcc: 208 mnc: 20 lac: 418 cellId: 21808 cellStatus: CELL_SUITABLE numArfcn: 1 arfcn: 985 numChannels: 25 array: 975 977 978 979 980 981 982 983 1011 1012 1014 1015 1017 1019 1020 1021 1022 787 788 790 793 795 796 879 884 pbcch: 0 nom: 2 rac: 6 spgc: 0 pat: 6 nco: 0 t3168: 1500 t3192: 500 drxmax: 0 ctrlAck: 0 bsCVmax: 8 alpha: 6 pcMeasCh: 1 
arfcn: 990 rxLev: -61
arfcn: 994 rxLev: -61
$GPGGA,233600.166,,,,,0,04,2.0,,M,0.0,M,,0000*7B
$GPGSA,M,1,,,,,,,,,,,,,,,*12
arfcn: 996 rxLev: -61
$GPGSV,3,1,10,16,77,208,11,27,61,295,15,26,49,163,15,21,45,058,20*7B
arfcn: 997 rxLev: -61
arfcn: 998 rxLev: -62
$GPGSV,3,2,10,10,29,144,04,33,33,198,,18,40,103,,08,22,281,*7A
arfcn: 995 rxLev: -62
$GPGSV,3,3,10,20,18,044,,07,13,322,*75
arfcn: 999 rxLev: -62
$GPRMC,233600.166,V,,,,,,,050218,,,N*46
arfcn: 1000 rxLev: -62
arfcn: 993 rxLev: -62
arfcn: 991 rxLev: -62
arfcn: 992 rxLev: -62
arfcn: 1001 rxLev: -62
$GPGGA,233601.166,,,,,0,04,2.0,,M,0.0,M,,0000*7A
arfcn: 1003 rxLev: -62
$GPGSA,M,1,,,,,,,,,,,,,,,*12
arfcn: 1004 rxLev: -62
$GPRMC,233601.166,V,,,,,,,050218,,,N*47
arfcn: 1007 rxLev: -62
arfcn: 1008 rxLev: -63
arfcn: 1006 rxLev: -63
arfcn: 1005 rxLev: -63
arfcn: 1002 rxLev: -63
$GPGGA,233602.166,,,,,0,04,2.0,,M,0.0,M,,0000*79
$GPGSA,M,1,,,,,,,,,,,,,,,*12
$GPRMC,233602.166,V,,,,,,,050218,,,N*44
$GPGGA,233603.166,,,,,0,04,2.0,,M,0.0,M,,0000*78
$GPGSA,M,1,,,,,,,,,,,,,,,*12
$GPRMC,233603.166,V,,,,,,,050218,,,N*45
arfcn: 12 bsic: 0 rxLev: -64 ber: 0.00 mcc: 208 mnc: 01 lac: 10300 cellId: 6467 cellStatus: CELL_FORBIDDEN numArfcn: 13 arfcn: 12 17 18 19 20 21 22 23 24 25 47 48 49 numChannels: 15 array: 1 2 3 8 9 10 14 512 513 514 515 518 605 606 608 pbcch: 0 nom: 2 rac: 1 spgc: 0 pat: 6 nco: 0 t3168: 1000 t3192: 500 drxmax: 2 ctrlAck: 0 bsCVmax: 9 alpha: 5 pcMeasCh: 1 
arfcn: 982 rxLev: -65
arfcn: 980 rxLev: -68
arfcn: 986 rxLev: -68
arfcn: 984 rxLev: -69
$GPGGA,233604.166,,,,,0,04,2.0,,M,0.0,M,,0000*7F
arfcn: 989 rxLev: -70
$GPGSA,M,1,,,,,,,,,,,,,,,*12
arfcn: 1009 rxLev: -71
$GPRMC,233604.166,V,,,,,,,050218,,,N*42
$GPGGA,233605.166,4806.8800,N,00139.3957,W,1,04,2.0,26.7,M,48.3,M,,0000*7D
$GPGSA,M,3,16,27,26,21,,,,,,,,,3.5,2.0,2.9*34
$GPGSV,3,1,10,16,77,208,11,27,61,295,16,26,49,163,16,21,45,058,20*7B
$GPGSV,3,2,10,10,29,144,04,33,33,198,,18,40,103,,08,22,281,*7A
arfcn: 80 bsic: 47 rxLev: -72 ber: 0.00 mcc: 208 mnc: 10 lac: 49415 cellId: 23568 cellStatus: CELL_FORBIDDEN numArfcn: 2 arfcn: 80 89 numChannels: 19 array: 76 77 78 80 82 83 84 85 113 114 115 116 117 118 119 120 122 123 124 pbcch: 0 nom: 2 rac: 31 spgc: 0 pat: 6 nco: 0 t3168: 1000 t3192: 500 drxmax: 4 ctrlAck: 1 bsCVmax: 9 alpha: 10 pcMeasCh: 0 
$GPGSV,3,3,10,20,18,044,,07,13,322,*75
$GPRMC,233605.166,A,4806.8800,N,00139.3957,W,2.17,155.17,050218,,,A*78
$GPGGA,233606.171,4806.8796,N,00139.4019,W,1,04,2.0,26.9,M,48.3,M,,0000*72
$GPGSA,M,3,16,27,26,21,,,,,,,,,3.5,2.0,2.9*34
$GPRMC,233606.171,A,4806.8796,N,00139.4019,W,5.05,308.99,050218,,,A*71
$GPGGA,233607.171,4806.8762,N,00139.4104,W,1,04,2.0,27.0,M,48.3,M,,0000*7D
$GPGSA,M,3,16,27,26,21,,,,,,,,,3.5,2.0,2.9*34
$GPRMC,233607.171,A,4806.8762,N,00139.4104,W,6.32,311.21,050218,,,A*7A
$GPGGA,233608.170,4806.8795,N,00139.4105,W,1,04,2.0,27.0,M,48.3,M,,0000*7A
$GPGSA,M,3,16,27,26,21,,,,,,,,,3.5,2.0,2.9*34
$GPRMC,233608.170,A,4806.8795,N,00139.4105,W,2.29,296.64,050218,,,A*7C
arfcn: 983 bsic: 21 rxLev: -75 ber: 0.00 mcc: 208 mnc: 20 lac: 418 cellId: 21809 cellStatus: CELL_SUITABLE numArfcn: 1 arfcn: 983 numChannels: 24 array: 788 790 792 793 795 796 878 882 884 976 977 979 981 985 986 987 1012 1013 1014 1016 1017 1019 1020 1022 pbcch: 0 nom: 2 rac: 6 spgc: 0 pat: 6 nco: 0 t3168: 1500 t3192: 500 drxmax: 0 ctrlAck: 0 bsCVmax: 8 alpha: 6 pcMeasCh: 1 
$GPGGA,233609.171,4806.8745,N,00139.4085,W,1,04,2.0,27.4,M,48.3,M,,0000*7A
$GPGSA,M,3,16,27,26,21,,,,,,,,,3.5,2.0,2.9*34
$GPRMC,233609.171,A,4806.8745,N,00139.4085,W,2.33,263.65,050218,,,A*78
$GPGGA,233610.166,4806.8766,N,00139.3965,W,1,04,2.0,27.2,M,48.3,M,,0000*73
$GPGSA,M,3,16,27,26,21,,,,,,,,,3.5,2.0,2.9*34
$GPGSV,3,1,10,16,77,208,11,27,61,295,15,26,49,163,15,21,45,058,19*71
$GPGSV,3,2,10,33,33,198,,18,40,103,,10,29,144,,08,22,281,*7E
$GPGSV,3,3,10,20,18,044,,07,13,322,*75
$GPRMC,233610.166,A,4806.8766,N,00139.3965,W,6.07,306.86,050218,,,A*7B
$GPGGA,233611.171,4806.8712,N,00139.4025,W,1,04,2.0,27.4,M,48.3,M,,0000*7B
$GPGSA,M,3,16,27,26,21,,,,,,,,,3.5,2.0,2.9*34
$GPRMC,233611.171,A,4806.8712,N,00139.4025,W,8.01,343.47,050218,,,A*71
$GPGGA,233612.171,4806.8810,N,00139.3999,W,1,04,2.0,26.3,M,48.3,M,,0000*7A
$GPGSA,M,3,16,27,26,21,,,,,,,,,3.5,2.0,2.9*34
$GPRMC,233612.171,A,4806.8810,N,00139.3999,W,6.81,356.20,050218,,,A*75
$GPGGA,233613.171,4806.8880,N,00139.4051,W,1,04,2.0,26.1,M,48.3,M,,0000*7A
$GPGSA,M,3,16,27,26,21,,,,,,,,,3.5,2.0,2.9*34
$GPRMC,233613.171,A,4806.8880,N,00139.4051,W,4.36,337.07,050218,,,A*7B
$GPGGA,233614.171,4806.8876,N,00139.3956,W,1,04,2.0,26.5,M,48.3,M,,0000*79
$GPGSA,M,3,16,27,26,21,,,,,,,,,3.5,2.0,2.9*34
$GPRMC,233614.171,A,4806.8876,N,00139.3956,W,3.63,215.14,050218,,,A*78
arfcn: 605 bsic: 33 rxLev: -76 ber: 0.00 mcc: 208 mnc: 01 lac: 10300 cellId: 27588 cellStatus: CELL_FORBIDDEN numArfcn: 22 arfcn: 525 526 527 528 529 530 531 532 533 534 535 587 588 589 590 591 592 593 594 595 596 597 numChannels: 18 array: 1 3 5 8 12 15 512 513 514 515 516 517 518 604 605 606 607 609 pbcch: 0 nom: 2 rac: 1 spgc: 0 pat: 6 nco: 0 t3168: 1000 t3192: 500 drxmax: 2 ctrlAck: 0 bsCVmax: 9 alpha: 5 pcMeasCh: 1 
arfcn: 43 rxLev: -77
arfcn: 42 rxLev: -78
$GPGGA,233615.171,4806.8830,N,00139.3928,W,1,04,2.0,26.4,M,48.3,M,,0000*72
$GPGSA,M,3,16,27,26,21,,,,,,,,,3.5,2.0,2.9*34
$GPGSV,3,1,10,16,77,208,10,27,61,295,15,26,49,163,15,21,45,058,18*71
$GPGSV,3,2,10,33,33,198,,18,40,103,,10,29,144,,08,22,281,*7E
$GPGSV,3,3,10,20,18,044,,07,13,322,*75
$GPRMC,233615.171,A,4806.8830,N,00139.3928,W,2.93,161.00,050218,,,A*79
$GPGGA,233616.171,4806.8865,N,00139.3922,W,1,04,2.0,27.2,M,48.3,M,,0000*7C
$GPGSA,M,3,16,27,26,21,,,,,,,,,3.5,2.0,2.9*34
$GPRMC,233616.171,A,4806.8865,N,00139.3922,W,5.53,163.63,050218,,,A*7C
$GPGGA,233617.171,4806.8948,N,00139.4041,W,1,04,2.0,27.5,M,48.3,M,,0000*7F
$GPGSA,M,3,16,27,26,21,,,,,,,,,3.5,2.0,2.9*34
$GPRMC,233617.171,A,4806.8948,N,00139.4041,W,3.82,186.21,050218,,,A*7F
arfcn: 515 bsic: 34 rxLev: -78 ber: 0.00 mcc: 208 mnc: 01 lac: 10300 cellId: 27586 cellStatus: CELL_FORBIDDEN numArfcn: 16 arfcn: 519 520 521 522 523 524 525 526 596 597 598 599 600 601 602 603 numChannels: 9 array: 1 8 12 512 513 516 605 606 607 pbcch: 0 nom: 2 rac: 1 spgc: 0 pat: 6 nco: 0 t3168: 1000 t3192: 500 drxmax: 2 ctrlAck: 0 bsCVmax: 9 alpha: 5 pcMeasCh: 1 
arfcn: 44 rxLev: -79
arfcn: 40 rxLev: -79
arfcn: 8 rxLev: -79
arfcn: 30 rxLev: -79
arfcn: 31 rxLev: -79
arfcn: 41 rxLev: -79
$GPGGA,233618.171,4806.8938,N,00139.3980,W,1,04,2.0,28.0,M,48.3,M,,0000*7E
$GPGSA,M,3,16,27,26,21,,,,,,,,,3.5,2.0,2.9*34
$GPRMC,233618.171,A,4806.8938,N,00139.3980,W,5.69,105.55,050218,,,A*7F
$GPGGA,233619.171,,,,,0,00,,,M,0.0,M,,0000*5D
$GPGSA,M,1,,,,,,,,,,,,,,,*12
$GPRMC,233619.171,V,,,,,,,050218,,,N*48
arfcn: 85 bsic: 0 rxLev: -79 ber: 0.00 mcc: 208 mnc: 10 lac: 49415 cellId: 44814 cellStatus: CELL_FORBIDDEN numArfcn: 2 arfcn: 85 119 numChannels: 20 array: 76 77 78 79 80 82 83 85 86 114 115 116 117 118 119 120 121 122 123 124 pbcch: 0 nom: 2 rac: 31 spgc: 0 pat: 6 nco: 0 t3168: 1000 t3192: 500 drxmax: 4 ctrlAck: 1 bsCVmax: 9 alpha: 10 pcMeasCh: 0 
arfcn: 45 rxLev: -80
arfcn: 28 rxLev: -80
arfcn: 29 rxLev: -80
$GPGGA,233620.166,,,,,0,00,,,M,0.0,M,,0000*51
arfcn: 13 rxLev: -80
$GPGSA,M,1,,,,,,,,,,,,,,,*12
$GPGSV,3,1,10,16,77,208,08,21,45,058,18,26,49,163,15,27,61,295,16*7B
$GPGSV,3,2,10,33,33,198,,18,40,103,,10,29,144,,08,22,281,*7E
$GPGSV,3,3,10,20,18,044,,07,13,322,*75
$GPRMC,233620.166,V,,,,,,,050218,,,N*44
$GPGGA,233621.171,,,,,0,00,,,M,0.0,M,,0000*56
$GPGSA,M,1,,,,,,,,,,,,,,,*12
$GPRMC,233621.171,V,,,,,,,050218,,,N*43
$GPGGA,233622.166,,,,,0,00,,,M,0.0,M,,0000*53
$GPGSA,M,1,,,,,,,,,,,,,,,*12
arfcn: 3 bsic: 0 rxLev: -80 ber: 0.01 mcc: 208 mnc: 01 lac: 10300 cellId: 2686 cellStatus: CELL_FORBIDDEN numArfcn: 13 arfcn: 3 17 18 19 20 21 22 23 24 25 47 48 49 numChannels: 13 array: 1 5 6 7 10 12 14 512 515 517 604 606 608 pbcch: 0 nom: 2 rac: 1 spgc: 0 pat: 6 nco: 0 t3168: 1000 t3192: 500 drxmax: 2 ctrlAck: 0 bsCVmax: 9 alpha: 5 pcMeasCh: 1 
$GPRMC,233622.166,V,,,,,,,050218,,,N*46
$GPGGA,233623.166,,,,,0,00,,,M,0.0,M,,0000*52
$GPGSA,M,1,,,,,,,,,,,,,,,*12
$GPRMC,233623.166,V,,,,,,,050218,,,N*47
$GPGGA,233624.171,,,,,0,00,,,M,0.0,M,,0000*53
$GPGSA,M,1,,,,,,,,,,,,,,,*12
arfcn: 5 bsic: 1 rxLev: -80 ber: 0.00 mcc: 208 mnc: 01 lac: 10300 cellId: 40079 cellStatus: CELL_FORBIDDEN numArfcn: 13 arfcn: 5 17 18 19 20 21 22 23 24 25 47 48 49 numChannels: 20 array: 1 2 3 4 5 8 9 10 11 13 14 15 16 512 513 518 604 606 608 610 pbcch: 0 nom: 2 rac: 1 spgc: 0 pat: 6 nco: 0 t3168: 1000 t3192: 500 drxmax: 2 ctrlAck: 0 bsCVmax: 9 alpha: 5 pcMeasCh: 1 
arfcn: 39 rxLev: -80
$GPRMC,233624.171,V,,,,,,,050218,,,N*46
arfcn: 33 rxLev: -81
arfcn: 34 rxLev: -81
$GPGGA,233625.166,,,,,0,00,,,M,0.0,M,,0000*54
$GPGSA,M,1,,,,,,,,,,,,,,,*12
$GPGSV,3,1,10,16,77,208,07,21,45,058,18,26,49,163,16,27,61,295,15*74
$GPGSV,3,2,10,33,33,198,,18,40,103,,10,29,144,,08,22,281,*7E
$GPGSV,3,3,10,20,18,044,,07,13,322,*75
$GPRMC,233625.166,V,,,,,,,050218,,,N*41
$GPGGA,233626.166,,,,,0,00,,,M,0.0,M,,0000*57
$GPGSA,M,1,,,,,,,,,,,,,,,*12
$GPRMC,233626.166,V,,,,,,,050218,,,N*42
arfcn: 10 bsic: 45 rxLev: -81 ber: 2.04 mcc: 208 mnc: 01 lac: 10301 cellId: 6461 cellStatus: CELL_FORBIDDEN numArfcn: 13 arfcn: 10 17 18 19 20 21 22 23 24 25 47 48 49 numChannels: 17 array: 1 3 4 5 6 8 12 14 512 513 514 516 517 604 605 606 608 pbcch: 0 nom: 2 rac: 1 spgc: 0 pat: 6 nco: 0 t3168: 1000 t3192: 500 drxmax: 2 ctrlAck: 0 bsCVmax: 9 alpha: 5 pcMeasCh: 1 
arfcn: 32 rxLev: -81
arfcn: 27 rxLev: -81
arfcn: 37 rxLev: -81
arfcn: 46 rxLev: -81
$GPGGA,233627.171,,,,,0,00,,,M,0.0,M,,0000*50
$GPGSA,M,1,,,,,,,,,,,,,,,*12
$GPRMC,233627.171,V,,,,,,,050218,,,N*45
$GPGGA,233628.166,,,,,0,00,,,M,0.0,M,,0000*59
$GPGSA,M,1,,,,,,,,,,,,,,,*12
$GPRMC,233628.166,V,,,,,,,050218,,,N*4C
$GPGGA,233629.166,,,,,0,00,,,M,0.0,M,,0000*58
$GPGSA,M,1,,,,,,,,,,,,,,,*12
$GPRMC,233629.166,V,,,,,,,050218,,,N*4D
$GPGGA,233630.166,,,,,0,00,,,M,0.0,M,,0000*50
arfcn: 1020 bsic: 39 rxLev: -81 ber: 0.00 mcc: 208 mnc: 20 lac: 418 cellId: 38980 cellStatus: CELL_SUITABLE numArfcn: 1 arfcn: 1020 numChannels: 26 array: 787 788 790 791 793 795 796 879 884 885 978 979 981 982 983 985 986 987 1011 1012 1013 1014 1015 1017 1019 1022 pbcch: 0 nom: 2 rac: 6 spgc: 0 pat: 6 nco: 0 t3168: 1500 t3192: 500 drxmax: 0 ctrlAck: 0 bsCVmax: 8 alpha: 6 pcMeasCh: 1 
arfcn: 38 rxLev: -82
$GPGSA,M,1,,,,,,,,,,,,,,,*12
arfcn: 36 rxLev: -82
$GPGSV,3,1,10,16,77,208,06,21,45,058,19,26,49,163,16,27,61,295,14*75
$GPGSV,3,2,10,33,33,198,,18,40,103,,10,29,144,,08,22,281,*7E
$GPGSV,3,3,10,20,18,044,,07,13,322,*75
$GPRMC,233630.166,V,,,,,,,050218,,,N*45
$GPGGA,233631.166,,,,,0,00,,,M,0.0,M,,0000*51
$GPGSA,M,1,,,,,,,,,,,,,,,*12
$GPRMC,233631.166,V,,,,,,,050218,,,N*44
$GPGGA,233632.166,,,,,0,00,,,M,0.0,M,,0000*52
arfcn: 78 bsic: 2 rxLev: -83 ber: 0.00 mcc: 208 mnc: 10 lac: 49415 cellId: 45280 cellStatus: CELL_FORBIDDEN numArfcn: 2 arfcn: 78 116 numChannels: 20 array: 76 77 78 79 80 82 83 84 85 86 114 115 116 117 118 120 121 122 123 124 pbcch: 0 nom: 2 rac: 31 spgc: 0 pat: 6 nco: 0 t3168: 1000 t3192: 500 drxmax: 4 ctrlAck: 1 bsCVmax: 9 alpha: 10 pcMeasCh: 0 
arfcn: 68 rxLev: -83
$GPGSA,M,1,,,,,,,,,,,,,,,*12
$GPRMC,233632.166,V,,,,,,,050218,,,N*47
$GPGGA,233633.166,,,,,0,00,,,M,0.0,M,,0000*53
$GPGSA,M,1,,,,,,,,,,,,,,,*12
$GPRMC,233633.166,V,,,,,,,050218,,,N*46
$GPGGA,233634.166,,,,,0,00,,,M,0.0,M,,0000*54
$GPGSA,M,1,,,,,,,,,,,,,,,*12
$GPRMC,233634.166,V,,,,,,,050218,,,N*41
arfcn: 978 bsic: 19 rxLev: -83 ber: 0.00 mcc: 208 mnc: 20 lac: 418 cellId: 18480 cellStatus: CELL_SUITABLE numArfcn: 2 arfcn: 978 1023 numChannels: 24 array: 788 790 794 880 883 975 976 977 979 980 981 982 983 985 986 1011 1012 1014 1016 1017 1018 1019 1020 1021 pbcch: 0 nom: 2 rac: 6 spgc: 0 pat: 6 nco: 0 t3168: 1500 t3192: 500 drxmax: 4 ctrlAck: 1 bsCVmax: 8 alpha: 6 pcMeasCh: 1 
arfcn: 35 rxLev: -83
arfcn: 56 rxLev: -83
arfcn: 11 rxLev: -83
$GPGGA,233635.166,,,,,0,00,,,M,0.0,M,,0000*55
arfcn: 795 rxLev: -83
$GPGSA,M,1,,,,,,,,,,,,,,,*12
arfcn: 62 rxLev: -84
arfcn: 63 rxLev: -84
$GPGSV,3,1,10,16,77,208,04,21,45,058,19,26,49,163,16,27,61,295,04*76
arfcn: 64 rxLev: -84
arfcn: 57 rxLev: -84
$GPGSV,3,2,10,33,33,198,,18,40,103,,10,29,144,,08,22,281,*7E
$GPGSV,3,3,10,20,18,044,,07,13,322,*75
$GPRMC,233635.166,V,,,,,,,050218,,,N*40
$GPGGA,233636.166,,,,,0,00,,,M,0.0,M,,0000*56
$GPGSA,M,1,,,,,,,,,,,,,,,*12
$GPRMC,233636.166,V,,,,,,,050218,,,N*43
$GPGGA,233637.166,,,,,0,00,,,M,0.0,M,,0000*57
$GPGSA,M,1,,,,,,,,,,,,,,,*12
$GPRMC,233637.166,V,,,,,,,050218,,,N*42
$GPGGA,233638.166,,,,,0,00,,,M,0.0,M,,0000*58
$GPGSA,M,1,,,,,,,,,,,,,,,*12
$GPRMC,233638.166,V,,,,,,,050218,,,N*4D
$GPGGA,233639.166,,,,,0,00,,,M,0.0,M,,0000*59
$GPGSA,M,1,,,,,,,,,,,,,,,*12
$GPRMC,233639.166,V,,,,,,,050218,,,N*4C
arfcn: 1 bsic: 44 rxLev: -84 ber: 3.09 mcc: 208 mnc: 01 lac: 10300 cellId: 6468 cellStatus: CELL_FORBIDDEN numArfcn: 13 arfcn: 1 17 18 19 20 21 22 23 24 25 47 48 49 numChannels: 24 array: 2 4 5 6 7 8 9 10 11 12 15 512 513 514 515 516 517 518 605 606 607 608 609 610 pbcch: 0 nom: 2 rac: 1 spgc: 0 pat: 6 nco: 0 t3168: 1000 t3192: 500 drxmax: 2 ctrlAck: 0 bsCVmax: 9 alpha: 5 pcMeasCh: 1 
$GPGGA,233640.166,,,,,0,00,,,M,0.0,M,,0000*57
$GPGSA,M,1,,,,,,,,,,,,,,,*12
$GPGSV,3,1,10,16,77,208,07,21,45,058,19,26,49,163,05,27,61,295,12*70
$GPGSV,3,2,10,33,33,198,,18,40,103,,10,29,144,,08,22,281,*7E
$GPGSV,3,3,10,20,18,044,,07,13,322,*75
$GPRMC,233640.166,V,,,,,,,050218,,,N*42
$GPGGA,233641.166,,,,,0,00,,,M,0.0,M,,0000*56
$GPGSA,M,1,,,,,,,,,,,,,,,*12
$GPRMC,233641.166,V,,,,,,,050218,,,N*43
$GPGGA,233642.166,,,,,0,00,,,M,0.0,M,,0000*55
$GPGSA,M,1,,,,,,,,,,,,,,,*12
$GPRMC,233642.166,V,,,,,,,050218,,,N*40
arfcn: 124 bsic: 2 rxLev: -84 ber: 5.01 mcc: 208 mnc: 10 lac: 49415 cellId: 43517 cellStatus: CELL_FORBIDDEN numArfcn: 2 arfcn: 112 124 numChannels: 14 array: 76 77 78 80 82 85 114 115 117 118 120 121 122 124 pbcch: 0 nom: 2 rac: 31 spgc: 0 pat: 6 nco: 0 t3168: 1000 t3192: 500 drxmax: 4 ctrlAck: 1 bsCVmax: 9 alpha: 10 pcMeasCh: 0 
arfcn: 793 rxLev: -84
arfcn: 67 rxLev: -85
arfcn: 58 rxLev: -85
arfcn: 55 rxLev: -85
arfcn: 69 rxLev: -85
$GPGGA,233643.166,,,,,0,00,,,M,0.0,M,,0000*54
$GPGSA,M,1,,,,,,,,,,,,,,,*12
$GPRMC,233643.166,V,,,,,,,050218,,,N*41
$GPGGA,233644.166,,,,,0,00,,,M,0.0,M,,0000*53
$GPGSA,M,1,,,,,,,,,,,,,,,*12
$GPRMC,233644.166,V,,,,,,,050218,,,N*46
arfcn: 76 bsic: 5 rxLev: -85 ber: 0.00 mcc: 208 mnc: 10 lac: 49415 cellId: 44813 cellStatus: CELL_FORBIDDEN numArfcn: 2 arfcn: 76 121 numChannels: 16 array: 76 77 78 79 80 82 84 85 86 113 114 117 118 121 123 124 pbcch: 0 nom: 2 rac: 31 spgc: 0 pat: 6 nco: 0 t3168: 1000 t3192: 500 drxmax: 4 ctrlAck: 1 bsCVmax: 9 alpha: 10 pcMeasCh: 0 
$GPGGA,233645.166,,,,,0,00,,,M,0.0,M,,0000*52
$GPGSA,M,1,,,,,,,,,,,,,,,*12
$GPGSV,3,1,10,16,77,208,08,21,45,058,19,26,49,163,07,27,61,295,04*7A
$GPGSV,3,2,10,33,33,198,,18,40,103,,10,29,144,,08,22,281,*7E
$GPGSV,3,3,10,20,18,044,,07,13,322,*75
$GPRMC,233645.166,V,,,,,,,050218,,,N*47
$GPGGA,233646.166,,,,,0,00,,,M,0.0,M,,0000*51
$GPGSA,M,1,,,,,,,,,,,,,,,*12
$GPRMC,233646.166,V,,,,,,,050218,,,N*44
$GPGGA,233647.166,,,,,0,00,,,M,0.0,M,,0000*50
$GPGSA,M,1,,,,,,,,,,,,,,,*12
$GPRMC,233647.166,V,,,,,,,050218,,,N*45
$GPGGA,233648.166,,,,,0,00,,,M,0.0,M,,0000*5F
$GPGSA,M,1,,,,,,,,,,,,,,,*12
$GPRMC,233648.166,V,,,,,,,050218,,,N*4A
arfcn: 606 bsic: 57 rxLev: -85 ber: 1.05 mcc: 208 mnc: 01 lac: 10301 cellId: 27485 cellStatus: CELL_FORBIDDEN numArfcn: 16 arfcn: 519 520 521 522 523 524 525 526 596 597 598 599 600 601 602 603 numChannels: 15 array: 3 4 6 10 12 512 513 514 515 516 517 604 605 608 609 pbcch: 0 nom: 2 rac: 1 spgc: 0 pat: 6 nco: 0 t3168: 1000 t3192: 500 drxmax: 2 ctrlAck: 0 bsCVmax: 9 alpha: 5 pcMeasCh: 1 
arfcn: 794 rxLev: -85
arfcn: 796 rxLev: -85
arfcn: 809 rxLev: -85
arfcn: 805 rxLev: -86
arfcn: 798 rxLev: -86
arfcn: 61 rxLev: -86
$GPGGA,233649.166,,,,,0,00,,,M,0.0,M,,0000*5E
$GPGSA,M,1,,,,,,,,,,,,,,,*12
$GPRMC,233649.166,V,,,,,,,050218,,,N*4B
$GPGGA,233650.166,,,,,0,00,,,M,0.0,M,,0000*56
$GPGSA,M,1,,,,,,,,,,,,,,,*12
$GPGSV,3,1,10,16,77,208,08,21,45,058,20,26,49,163,04,33,33,198,*7B
$GPGSV,3,2,10,27,61,295,,18,40,103,,10,29,144,,08,22,281,*72
$GPGSV,3,3,10,20,18,044,,07,13,322,*75
$GPRMC,233650.166,V,,,,,,,050218,,,N*43
arfcn: 117 bsic: 12 rxLev: -86 ber: 0.00 mcc: 208 mnc: 10 lac: 49415 cellId: 3568 cellStatus: CELL_FORBIDDEN numArfcn: 2 arfcn: 82 117 numChannels: 17 array: 76 77 78 79 80 83 84 85 87 113 114 116 117 120 122 123 124 pbcch: 0 nom: 2 rac: 31 spgc: 0 pat: 6 nco: 0 t3168: 1000 t3192: 500 drxmax: 4 ctrlAck: 1 bsCVmax: 9 alpha: 10 pcMeasCh: 0 
$GPGGA,233651.166,,,,,0,00,,,M,0.0,M,,0000*57
$GPGSA,M,1,,,,,,,,,,,,,,,*12
$GPRMC,233651.166,V,,,,,,,050218,,,N*42
$GPGGA,233652.166,,,,,0,00,,,M,0.0,M,,0000*54
$GPGSA,M,1,,,,,,,,,,,,,,,*12
$GPRMC,233652.166,V,,,,,,,050218,,,N*41
arfcn: 604 bsic: 20 rxLev: -86 ber: 0.09 mcc: 208 mnc: 01 lac: 10300 cellId: 39915 cellStatus: CELL_FORBIDDEN numArfcn: 16 arfcn: 519 520 521 522 523 524 525 526 596 597 598 599 600 601 602 603 numChannels: 13 array: 5 6 10 15 16 512 514 516 517 518 608 609 610 pbcch: 0 nom: 2 rac: 1 spgc: 0 pat: 6 nco: 0 t3168: 1000 t3192: 500 drxmax: 2 ctrlAck: 0 bsCVmax: 9 alpha: 5 pcMeasCh: 1 
$GPGGA,233653.166,,,,,0,00,,,M,0.0,M,,0000*55
$GPGSA,M,1,,,,,,,,,,,,,,,*12
$GPRMC,233653.166,V,,,,,,,050218,,,N*40
$GPGGA,233654.166,,,,,0,00,,,M,0.0,M,,0000*52
$GPGSA,M,1,,,,,,,,,,,,,,,*12
$GPRMC,233654.166,V,,,,,,,050218,,,N*47
$GPGGA,233655.166,,,,,0,00,,,M,0.0,M,,0000*53
$GPGSA,M,1,,,,,,,,,,,,,,,*12
$GPGSV,3,1,10,16,77,208,09,21,45,058,20,26,49,163,04,33,33,198,*7A
$GPGSV,3,2,10,27,61,295,,18,40,103,,10,29,144,,08,22,281,*72
$GPGSV,3,3,10,20,18,044,,07,13,322,*75
arfcn: 1017 bsic: 33 rxLev: -86 ber: 0.02 mcc: 208 mnc: 20 lac: 418 cellId: 20104 cellStatus: CELL_SUITABLE numArfcn: 3 arfcn: 986 987 1017 numChannels: 20 array: 788 790 885 975 976 978 979 980 981 982 986 987 1011 1012 1015 1017 1019 1020 1021 1022 pbcch: 0 nom: 2 rac: 7 spgc: 0 pat: 6 nco: 0 t3168: 1500 t3192: 500 drxmax: 4 ctrlAck: 1 bsCVmax: 8 alpha: 6 pcMeasCh: 1 
arfcn: 797 rxLev: -86
arfcn: 803 rxLev: -86
$GPRMC,233655.166,V,,,,,,,050218,,,N*46
arfcn: 799 rxLev: -86
arfcn: 807 rxLev: -86
arfcn: 811 rxLev: -86
arfcn: 813 rxLev: -86
arfcn: 834 rxLev: -86
$GPGGA,233656.166,,,,,0,00,,,M,0.0,M,,0000*50
arfcn: 836 rxLev: -86
$GPGSA,M,1,,,,,,,,,,,,,,,*12
arfcn: 838 rxLev: -87
$GPRMC,233656.166,V,,,,,,,050218,,,N*45
arfcn: 817 rxLev: -87
arfcn: 819 rxLev: -87
arfcn: 823 rxLev: -87
arfcn: 800 rxLev: -87
arfcn: 801 rxLev: -87
$GPGGA,233657.166,,,,,0,00,,,M,0.0,M,,0000*51
$GPGSA,M,1,,,,,,,,,,,,,,,*12
$GPRMC,233657.166,V,,,,,,,050218,,,N*44
$GPGGA,233658.166,,,,,0,00,,,M,0.0,M,,0000*5E
$GPGSA,M,1,,,,,,,,,,,,,,,*12
$GPRMC,233658.166,V,,,,,,,050218,,,N*4B
$GPGGA,233659.166,,,,,0,00,,,M,0.0,M,,0000*5F
$GPGSA,M,1,,,,,,,,,,,,,,,*12
$GPRMC,233659.166,V,,,,,,,050218,,,N*4A
arfcn: 4 bsic: 54 rxLev: -87 ber: 2.01 mcc: 208 mnc: 01 lac: 10300 cellId: 43768 cellStatus: CELL_FORBIDDEN numArfcn: 13 arfcn: 4 17 18 19 20 21 22 23 24 25 47 48 49 numChannels: 20 array: 1 3 5 6 7 8 12 13 14 513 514 515 517 518 601 605 606 608 609 610 pbcch: 0 nom: 2 rac: 1 spgc: 0 pat: 6 nco: 0 t3168: 1000 t3192: 500 drxmax: 2 ctrlAck: 0 bsCVmax: 9 alpha: 5 pcMeasCh: 1 
arfcn: 26 rxLev: -87
arfcn: 60 rxLev: -87
arfcn: 54 rxLev: -87
arfcn: 792 rxLev: -87
arfcn: 820 rxLev: -87
arfcn: 821 rxLev: -87
$GPGGA,233700.166,,,,,0,00,,,M,0.0,M,,0000*52
arfcn: 815 rxLev: -87
$GPGSA,M,1,,,,,,,,,,,,,,,*12
arfcn: 825 rxLev: -88
arfcn: 831 rxLev: -88
$GPGSV,3,1,10,16,77,208,08,21,45,058,20,26,49,163,04,27,61,295,12*74
arfcn: 812 rxLev: -88
arfcn: 808 rxLev: -88
$GPGSV,3,2,10,33,33,198,,18,40,103,,10,29,144,,08,22,281,*7E
arfcn: 53 rxLev: -88
$GPGSV,3,3,10,20,18,044,,07,13,322,*75
arfcn: 59 rxLev: -88
$GPRMC,233700.166,V,,,,,,,050218,,,N*47
$GPGGA,233701.166,,,,,0,00,,,M,0.0,M,,0000*53
$GPGSA,M,1,,,,,,,,,,,,,,,*12
$GPRMC,233701.166,V,,,,,,,050218,,,N*46
$GPGGA,233702.166,,,,,0,00,,,M,0.0,M,,0000*50
$GPGSA,M,1,,,,,,,,,,,,,,,*12
$GPRMC,233702.166,V,,,,,,,050218,,,N*45
$GPGGA,233703.166,,,,,0,00,,,M,0.0,M,,0000*51
$GPGSA,M,1,,,,,,,,,,,,,,,*12
$GPRMC,233703.166,V,,,,,,,050218,,,N*44
$GPGGA,233704.166,,,,,0,00,,,M,0.0,M,,0000*56
$GPGSA,M,1,,,,,,,,,,,,,,,*12
$GPRMC,233704.166,V,,,,,,,050218,,,N*43
arfcn: 14 bsic: 35 rxLev: -88 ber: 0.00 mcc: 208 mnc: 01 lac: 10300 cellId: 39250 cellStatus: CELL_FORBIDDEN numArfcn: 13 arfcn: 14 17 18 19 20 21 22 23 24 25 47 48 49 numChannels: 14 array: 1 3 4 6 8 10 12 14 512 513 514 517 604 608 pbcch: 0 nom: 2 rac: 1 spgc: 1 pat: 6 nco: 0 t3168: 1000 t3192: 500 drxmax: 4 ctrlAck: 1 bsCVmax: 9 alpha: 7 pcMeasCh: 0 
arfcn: 65 rxLev: -88
arfcn: 66 rxLev: -88
$GPGGA,233705.166,,,,,0,00,,,M,0.0,M,,0000*57
$GPGSA,M,1,,,,,,,,,,,,,,,*12
$GPGSV,3,1,10,10,29,144,13,16,77,208,07,21,45,058,20,26,49,163,05*7C
$GPGSV,3,2,10,27,61,295,11,33,33,198,,18,40,103,,08,22,281,*79
$GPGSV,3,3,10,20,18,044,,07,13,322,*75
$GPRMC,233705.166,V,,,,,,,050218,,,N*42
$GPGGA,233706.171,,,,,0,00,,,M,0.0,M,,0000*52
$GPGSA,M,1,,,,,,,,,,,,,,,*12
arfcn: 114 bsic: 6 rxLev: -88 ber: 0.00 mcc: 208 mnc: 10 lac: 49415 cellId: 44202 cellStatus: CELL_FORBIDDEN numArfcn: 2 arfcn: 80 114 numChannels: 20 array: 76 77 78 79 80 84 85 86 113 114 115 116 117 118 119 120 121 122 123 124 pbcch: 0 nom: 2 rac: 31 spgc: 0 pat: 6 nco: 0 t3168: 1000 t3192: 500 drxmax: 4 ctrlAck: 1 bsCVmax: 9 alpha: 10 pcMeasCh: 0 
arfcn: 52 rxLev: -88
$GPRMC,233706.171,V,,,,,,,050218,,,N*47
arfcn: 810 rxLev: -88
arfcn: 802 rxLev: -88
arfcn: 804 rxLev: -88
arfcn: 806 rxLev: -88
arfcn: 832 rxLev: -88
arfcn: 846 rxLev: -88
arfcn: 826 rxLev: -88
arfcn: 824 rxLev: -88
arfcn: 827 rxLev: -88
$GPGGA,233707.171,,,,,0,00,,,M,0.0,M,,0000*53
$GPGSA,M,1,,,,,,,,,,,,,,,*12
arfcn: 829 rxLev: -88
$GPRMC,233707.171,V,,,,,,,050218,,,N*46
arfcn: 830 rxLev: -88
arfcn: 822 rxLev: -88
arfcn: 816 rxLev: -89
arfcn: 818 rxLev: -89
arfcn: 828 rxLev: -89
arfcn: 844 rxLev: -89
arfcn: 842 rxLev: -89
arfcn: 833 rxLev: -89
arfcn: 850 rxLev: -89
$GPGGA,233708.166,,,,,0,00,,,M,0.0,M,,0000*5A
arfcn: 852 rxLev: -89
$GPGSA,M,1,,,,,,,,,,,,,,,*12
arfcn: 873 rxLev: -89
$GPRMC,233708.166,V,,,,,,,050218,,,N*4F
arfcn: 791 rxLev: -89
arfcn: 47 rxLev: -89
arfcn: 70 rxLev: -89
arfcn: 81 rxLev: -89
$GPGGA,233709.166,,,,,0,00,,,M,0.0,M,,0000*5B
$GPGSA,M,1,,,,,,,,,,,,,,,*12
$GPRMC,233709.166,V,,,,,,,050218,,,N*4E
$GPGGA,233710.171,,,,,0,00,,,M,0.0,M,,0000*55
$GPGSA,M,1,,,,,,,,,,,,,,,*12
$GPGSV,3,1,10,10,29,144,14,16,77,208,05,21,45,058,21,26,49,163,07*7A
$GPGSV,3,2,10,27,61,295,11,33,33,198,,18,40,103,,08,22,281,*79
$GPGSV,3,3,10,20,18,044,,07,13,322,*75
$GPRMC,233710.171,V,,,,,,,050218,,,N*40
$GPGGA,233711.166,,,,,0,00,,,M,0.0,M,,0000*52
$GPGSA,M,1,,,,,,,,,,,,,,,*12
$GPRMC,233711.166,V,,,,,,,050218,,,N*47
$GPGGA,233712.166,,,,,0,00,,,M,0.0,M,,0000*51
$GPGSA,M,1,,,,,,,,,,,,,,,*12
$GPRMC,233712.166,V,,,,,,,050218,,,N*44
$GPGGA,233713.166,,,,,0,00,,,M,0.0,M,,0000*50
$GPGSA,M,1,,,,,,,,,,,,,,,*12
$GPRMC,233713.166,V,,,,,,,050218,,,N*45
$GPGGA,233714.166,,,,,0,00,,,M,0.0,M,,0000*57
$GPGSA,M,1,,,,,,,,,,,,,,,*12
$GPRMC,233714.166,V,,,,,,,050218,,,N*42
$GPGGA,233715.166,,,,,0,04,1.8,,M,0.0,M,,0000*75
$GPGSA,M,1,,,,,,,,,,,,,,,*12
$GPGSV,3,1,10,27,61,295,11,26,49,163,09,21,45,058,21,10,29,144,15*71
$GPGSV,3,2,10,16,77,208,04,33,33,198,,18,40,103,,08,22,281,*7C
$GPGSV,3,3,10,20,18,044,,07,13,322,*75
$GPRMC,233715.166,V,,,,,,,050218,,,N*43
$GPGGA,233716.166,4806.8963,N,00139.4424,W,1,05,1.8,23.2,M,48.3,M,,0000*7E
$GPGSA,M,3,16,27,26,21,10,,,,,,,,3.2,1.8,2.6*36
$GPRMC,233716.166,A,4806.8963,N,00139.4424,W,4.21,310.01,050218,,,A*76
arfcn: 1014 bsic: 31 rxLev: -89 ber: 4.11 mcc: 208 mnc: 20 lac: 418 cellId: 20649 cellStatus: CELL_SUITABLE numArfcn: 1 arfcn: 1014 numChannels: 25 array: 788 789 790 791 793 795 796 879 884 977 978 979 980 981 982 983 984 985 987 1012 1013 1017 1020 1021 1022 pbcch: 0 nom: 2 rac: 6 spgc: 0 pat: 6 nco: 0 t3168: 1500 t3192: 500 drxmax: 0 ctrlAck: 0 bsCVmax: 8 alpha: 6 pcMeasCh: 1 
$GPGGA,233717.166,4806.8935,N,00139.4359,W,1,05,1.8,23.5,M,48.3,M,,0000*76
$GPGSA,M,3,16,27,26,21,10,,,,,,,,3.2,1.8,2.6*36
$GPRMC,233717.166,A,4806.8935,N,00139.4359,W,0.75,282.26,050218,,,A*73
$GPGGA,233718.166,,,,,0,04,1.8,,M,0.0,M,,0000*78
$GPGSA,M,1,,,,,,,,,,,,,,,*12
$GPRMC,233718.166,V,,,,,,,050218,,,N*4E
arfcn: 979 bsic: 19 rxLev: -89 ber: 4.10 mcc: FFF mnc: FF lac: 65535 cellId: 0 cellStatus: CELL_OTHER numArfcn: 0 arfcn: numChannels: 0 array:
$GPGGA,233719.166,,,,,0,04,1.8,,M,0.0,M,,0000*79
$GPGSA,M,1,,,,,,,,,,,,,,,*12
$GPRMC,233719.166,V,,,,,,,050218,,,N*4F
$GPGGA,233720.166,4806.8955,N,00139.4252,W,1,04,1.8,23.4,M,48.3,M,,0000*7E
$GPGSA,M,3,27,26,21,10,,,,,,,,,3.5,1.8,2.9*39
$GPGSV,3,1,10,27,61,295,13,26,49,163,10,21,45,058,21,10,29,144,14*7A
$GPGSV,3,2,10,16,77,208,04,33,33,198,,18,40,103,,08,22,281,*7C
$GPGSV,3,3,10,20,18,044,,07,13,322,*75
$GPRMC,233720.166,A,4806.8955,N,00139.4252,W,1.02,249.27,050218,,,A*7C
$GPGGA,233721.166,4806.8756,N,00139.4062,W,1,04,1.8,18.2,M,48.3,M,,0000*7D
$GPGSA,M,3,27,26,21,10,,,,,,,,,3.5,1.8,2.9*39
arfcn: 2 bsic: 54 rxLev: -89 ber: 1.03 mcc: 208 mnc: 01 lac: 10300 cellId: 42646 cellStatus: CELL_FORBIDDEN numArfcn: 13 arfcn: 2 17 18 19 20 21 22 23 24 25 47 48 49 numChannels: 22 array: 1 5 6 7 8 10 12 13 15 16 512 514 515 516 517 518 604 606 607 608 609 610 pbcch: 0 nom: 2 rac: 1 spgc: 0 pat: 6 nco: 0 t3168: 1000 t3192: 500 drxmax: 2 ctrlAck: 0 bsCVmax: 9 alpha: 5 pcMeasCh: 1 
arfcn: 814 rxLev: -89
$GPRMC,233721.166,A,4806.8756,N,00139.4062,W,0.00,249.27,050218,,,A*72
arfcn: 851 rxLev: -89
arfcn: 848 rxLev: -89
arfcn: 856 rxLev: -89
arfcn: 860 rxLev: -89
arfcn: 837 rxLev: -89
arfcn: 835 rxLev: -89
arfcn: 839 rxLev: -90
arfcn: 840 rxLev: -90
$GPGGA,233722.166,4806.8742,N,00139.4149,W,1,04,1.8,17.5,M,48.3,M,,0000*7B
arfcn: 845 rxLev: -90
arfcn: 859 rxLev: -90
$GPGSA,M,3,27,26,21,10,,,,,,,,,3.5,1.8,2.9*39
arfcn: 858 rxLev: -90
$GPRMC,233722.166,A,4806.8742,N,00139.4149,W,0.00,249.27,050218,,,A*7C
arfcn: 854 rxLev: -90
arfcn: 874 rxLev: -90
arfcn: 872 rxLev: -90
arfcn: 875 rxLev: -90
arfcn: 877 rxLev: -90
arfcn: 79 rxLev: -90
$GPGGA,233723.166,,,,,0,00,,,M,0.0,M,,0000*53
$GPGSA,M,1,,,,,,,,,,,,,,,*12
$GPRMC,233723.166,V,,,,,,,050218,,,N*46
$GPGGA,233724.166,,,,,0,00,,,M,0.0,M,,0000*54
$GPGSA,M,1,,,,,,,,,,,,,,,*12
$GPRMC,233724.166,V,,,,,,,050218,,,N*41
$GPGGA,233725.166,,,,,0,00,,,M,0.0,M,,0000*55
$GPGSA,M,1,,,,,,,,,,,,,,,*12
$GPGSV,3,1,10,10,29,144,07,16,77,208,07,21,45,058,22,26,49,163,09*77
$GPGSV,3,2,10,27,61,295,15,33,33,198,,18,40,103,,08,22,281,*7D
$GPGSV,3,3,10,20,18,044,,07,13,322,*75
$GPRMC,233725.166,V,,,,,,,050218,,,N*40
$GPGGA,233726.166,,,,,0,00,,,M,0.0,M,,0000*56
$GPGSA,M,1,,,,,,,,,,,,,,,*12
$GPRMC,233726.166,V,,,,,,,050218,,,N*43
arfcn: 1016 bsic: 41 rxLev: -90 ber: 0.00 mcc: 208 mnc: 20 lac: 418 cellId: 23623 cellStatus: CELL_SUITABLE numArfcn: 1 arfcn: 1016 numChannels: 28 array: 787 788 791 792 793 794 795 879 880 883 884 975 977 978 979 981 982 983 986 987 1011 1012 1017 1018 1019 1020 1021 1022 pbcch: 0 nom: 2 rac: 6 spgc: 0 pat: 6 nco: 0 t3168: 1500 t3192: 500 drxmax: 4 ctrlAck: 1 bsCVmax: 8 alpha: 6 pcMeasCh: 1 
arfcn: 71 rxLev: -90
$GPGGA,233727.166,,,,,0,00,,,M,0.0,M,,0000*57
$GPGSA,M,1,,,,,,,,,,,,,,,*12
$GPRMC,233727.166,V,,,,,,,050218,,,N*42
$GPGGA,233728.166,,,,,0,00,,,M,0.0,M,,0000*58
$GPGSA,M,1,,,,,,,,,,,,,,,*12
$GPRMC,233728.166,V,,,,,,,050218,,,N*4D
arfcn: 122 bsic: 3 rxLev: -90 ber: 0.00 mcc: 208 mnc: 10 lac: 49415 cellId: 33517 cellStatus: CELL_FORBIDDEN numArfcn: 3 arfcn: 77 88 122 numChannels: 17 array: 77 78 79 80 82 84 85 86 114 115 117 118 119 120 122 123 124 pbcch: 0 nom: 2 rac: 31 spgc: 0 pat: 6 nco: 0 t3168: 1000 t3192: 500 drxmax: 4 ctrlAck: 1 bsCVmax: 9 alpha: 10 pcMeasCh: 0 
arfcn: 98 rxLev: -90
arfcn: 99 rxLev: -90
arfcn: 107 rxLev: -90
arfcn: 878 rxLev: -90
arfcn: 876 rxLev: -90
arfcn: 871 rxLev: -90
$GPGGA,233729.166,,,,,0,00,,,M,0.0,M,,0000*59
arfcn: 847 rxLev: -90
$GPGSA,M,1,,,,,,,,,,,,,,,*12
$GPRMC,233729.166,V,,,,,,,050218,,,N*4C
arfcn: 849 rxLev: -90
arfcn: 857 rxLev: -90
arfcn: 843 rxLev: -90
arfcn: 841 rxLev: -90
arfcn: 855 rxLev: -91
arfcn: 862 rxLev: -91
arfcn: 853 rxLev: -91
arfcn: 868 rxLev: -91
arfcn: 869 rxLev: -91
arfcn: 870 rxLev: -91
$GPGGA,233730.166,,,,,0,00,,,M,0.0,M,,0000*51
arfcn: 879 rxLev: -91
$GPGSA,M,1,,,,,,,,,,,,,,,*12
arfcn: 880 rxLev: -91
$GPGSV,3,1,10,10,29,144,04,21,45,058,22,26,49,163,04,27,61,295,16*78
arfcn: 106 rxLev: -91
arfcn: 97 rxLev: -91
$GPGSV,3,2,10,33,33,198,,16,77,208,,18,40,103,,08,22,281,*78
$GPGSV,3,3,10,20,18,044,,07,13,322,*75
$GPRMC,233730.166,V,,,,,,,050218,,,N*44
$GPGGA,233731.166,,,,,0,00,,,M,0.0,M,,0000*50
$GPGSA,M,1,,,,,,,,,,,,,,,*12
$GPRMC,233731.166,V,,,,,,,050218,,,N*45
$GPGGA,233732.166,,,,,0,00,,,M,0.0,M,,0000*53
$GPGSA,M,1,,,,,,,,,,,,,,,*12
$GPRMC,233732.166,V,,,,,,,050218,,,N*46
arfcn: 123 bsic: 1 rxLev: -91 ber: 3.10 mcc: 208 mnc: 10 lac: 49415 cellId: 41634 cellStatus: CELL_FORBIDDEN numArfcn: 2 arfcn: 87 123 numChannels: 18 array: 76 77 78 79 80 83 84 85 86 113 114 116 117 118 119 121 123 124 pbcch: 0 nom: 2 rac: 31 spgc: 0 pat: 6 nco: 0 t3168: 1000 t3192: 500 drxmax: 4 ctrlAck: 1 bsCVmax: 9 alpha: 10 pcMeasCh: 0 
arfcn: 72 rxLev: -91
arfcn: 92 rxLev: -91
arfcn: 93 rxLev: -91
arfcn: 96 rxLev: -91
arfcn: 9 rxLev: -91
arfcn: 94 rxLev: -91
$GPGGA,233733.166,,,,,0,00,,,M,0.0,M,,0000*52
$GPGSA,M,1,,,,,,,,,,,,,,,*12
$GPRMC,233733.166,V,,,,,,,050218,,,N*47
$GPGGA,233734.166,,,,,0,00,,,M,0.0,M,,0000*55
$GPGSA,M,1,,,,,,,,,,,,,,,*12
$GPRMC,233734.166,V,,,,,,,050218,,,N*40
$GPGGA,233735.166,,,,,0,00,,,M,0.0,M,,0000*54
$GPGSA,M,1,,,,,,,,,,,,,,,*12
$GPGSV,3,1,10,10,29,144,04,21,45,058,23,26,49,163,04,27,61,295,16*79
$GPGSV,3,2,10,33,33,198,,16,77,208,,18,40,103,,08,22,281,*78
$GPGSV,3,3,10,20,18,044,,07,13,322,*75
$GPRMC,233735.166,V,,,,,,,050218,,,N*41
$GPGGA,233736.166,,,,,0,04,1.8,,M,0.0,M,,0000*74
$GPGSA,M,1,,,,,,,,,,,,,,,*12
$GPRMC,233736.166,V,,,,,,,050218,,,N*42
arfcn: 1019 bsic: 48 rxLev: -91 ber: 1.01 mcc: 208 mnc: 20 lac: 418 cellId: 20015 cellStatus: CELL_SUITABLE numArfcn: 2 arfcn: 1010 1019 numChannels: 20 array: 787 789 794 882 976 979 981 982 983 985 986 987 1012 1013 1015 1016 1017 1020 1021 1022 pbcch: 0 nom: 2 rac: 6 spgc: 0 pat: 6 nco: 0 t3168: 1500 t3192: 500 drxmax: 0 ctrlAck: 0 bsCVmax: 8 alpha: 4 pcMeasCh: 1 
arfcn: 861 rxLev: -91
arfcn: 863 rxLev: -92
arfcn: 864 rxLev: -92
$GPGGA,233737.166,,,,,0,04,1.8,,M,0.0,M,,0000*75
arfcn: 866 rxLev: -92
$GPGSA,M,1,,,,,,,,,,,,,,,*12
$GPRMC,233737.166,V,,,,,,,050218,,,N*43
$GPGGA,233738.166,,,,,0,04,1.8,,M,0.0,M,,0000*7A
$GPGSA,M,1,,,,,,,,,,,,,,,*12
$GPRMC,233738.166,V,,,,,,,050218,,,N*4C
arfcn: 512 bsic: 25 rxLev: -92 ber: 3.07 mcc: 208 mnc: 01 lac: 10300 cellId: 40155 cellStatus: CELL_FORBIDDEN numArfcn: 16 arfcn: 519 520 521 522 523 524 525 526 596 597 598 599 600 601 602 603 numChannels: 16 array: 2 3 5 8 10 11 12 15 16 517 518 604 605 606 609 610 pbcch: 0 nom: 2 rac: 1 spgc: 0 pat: 6 nco: 0 t3168: 1000 t3192: 500 drxmax: 2 ctrlAck: 0 bsCVmax: 9 alpha: 5 pcMeasCh: 1 
arfcn: 102 rxLev: -92
arfcn: 105 rxLev: -92
arfcn: 108 rxLev: -92
arfcn: 109 rxLev: -92
arfcn: 101 rxLev: -92
arfcn: 103 rxLev: -92
$GPGGA,233739.166,,,,,0,00,,,M,0.0,M,,0000*58
arfcn: 104 rxLev: -92
$GPGSA,M,1,,,,,,,,,,,,,,,*12
arfcn: 100 rxLev: -92
$GPRMC,233739.166,V,,,,,,,050218,,,N*4D
$GPGGA,233740.166,,,,,0,00,,,M,0.0,M,,0000*56
$GPGSA,M,1,,,,,,,,,,,,,,,*12
$GPGSV,3,1,10,10,29,144,04,21,45,058,22,26,49,163,12,27,61,295,15*7C
$GPGSV,3,2,10,33,33,198,,16,77,208,,18,40,103,,08,22,281,*78
$GPGSV,3,3,10,20,18,044,,07,13,322,*75
$GPRMC,233740.166,V,,,,,,,050218,,,N*43
arfcn: 120 bsic: 59 rxLev: -92 ber: 6.04 mcc: 208 mnc: 10 lac: 49415 cellId: 13571 cellStatus: CELL_FORBIDDEN numArfcn: 2 arfcn: 111 120 numChannels: 14 array: 76 77 79 80 83 84 85 114 115 116 117 120 122 124 pbcch: 0 nom: 2 rac: 31 spgc: 0 pat: 6 nco: 0 t3168: 1000 t3192: 500 drxmax: 4 ctrlAck: 1 bsCVmax: 9 alpha: 10 pcMeasCh: 0 
arfcn: 95 rxLev: -92
arfcn: 514 rxLev: -92
arfcn: 867 rxLev: -92
arfcn: 749 rxLev: -92
arfcn: 758 rxLev: -92
$GPGGA,233741.166,,,,,0,00,,,M,0.0,M,,0000*57
$GPGSA,M,1,,,,,,,,,,,,,,,*12
arfcn: 760 rxLev: -92
arfcn: 768 rxLev: -92
$GPRMC,233741.166,V,,,,,,,050218,,,N*42
arfcn: 766 rxLev: -93
arfcn: 767 rxLev: -93
arfcn: 759 rxLev: -93
arfcn: 751 rxLev: -93
arfcn: 724 rxLev: -93
arfcn: 740 rxLev: -93
arfcn: 865 rxLev: -93
arfcn: 91 rxLev: -93
$GPGGA,233742.166,,,,,0,00,,,M,0.0,M,,0000*54
arfcn: 6 rxLev: -93
$GPGSA,M,1,,,,,,,,,,,,,,,*12
arfcn: 7 rxLev: -93
$GPRMC,233742.166,V,,,,,,,050218,,,N*41
arfcn: 1021 rxLev: -93
arfcn: 516 rxLev: -93
arfcn: 881 rxLev: -93
arfcn: 741 rxLev: -93
arfcn: 742 rxLev: -93
arfcn: 729 rxLev: -93
arfcn: 716 rxLev: -93
arfcn: 750 rxLev: -93
arfcn: 757 rxLev: -93
$GPGGA,233743.166,,,,,0,00,,,M,0.0,M,,0000*55
arfcn: 769 rxLev: -93
$GPGSA,M,1,,,,,,,,,,,,,,,*12
arfcn: 776 rxLev: -93
$GPRMC,233743.166,V,,,,,,,050218,,,N*40
arfcn: 777 rxLev: -93
arfcn: 778 rxLev: -94
arfcn: 775 rxLev: -94
arfcn: 756 rxLev: -94
arfcn: 748 rxLev: -94
arfcn: 747 rxLev: -94
arfcn: 732 rxLev: -94
arfcn: 733 rxLev: -94
$GPGGA,233744.166,,,,,0,00,,,M,0.0,M,,0000*52
arfcn: 734 rxLev: -94
$GPGSA,M,1,,,,,,,,,,,,,,,*12
arfcn: 739 rxLev: -94
$GPRMC,233744.166,V,,,,,,,050218,,,N*47
arfcn: 717 rxLev: -94
arfcn: 722 rxLev: -94
arfcn: 730 rxLev: -94
arfcn: 725 rxLev: -94
arfcn: 752 rxLev: -94
arfcn: 774 rxLev: -94
arfcn: 639 rxLev: -94
arfcn: 25 rxLev: -94
arfcn: 84 rxLev: -94
$GPGGA,233745.166,,,,,0,00,,,M,0.0,M,,0000*53
$GPGSA,M,1,,,,,,,,,,,,,,,*12
$GPGSV,3,1,10,10,29,144,04,21,45,058,22,26,49,163,14,27,61,295,15*7A
$GPGSV,3,2,10,33,33,198,,16,77,208,,18,40,103,,08,22,281,*78
$GPGSV,3,3,10,20,18,044,,07,13,322,*75
$GPRMC,233745.166,V,,,,,,,050218,,,N*46
$GPGGA,233746.166,,,,,0,00,,,M,0.0,M,,0000*50
$GPGSA,M,1,,,,,,,,,,,,,,,*12
$GPRMC,233746.166,V,,,,,,,050218,,,N*45
arfcn: 115 bsic: 43 rxLev: -95 ber: 5.07 mcc: 208 mnc: 10 lac: 49415 cellId: 55710 cellStatus: CELL_FORBIDDEN numArfcn: 2 arfcn: 87 115 numChannels: 22 array: 76 77 78 79 80 82 83 84 85 86 113 114 115 116 117 118 119 120 121 122 123 124 pbcch: 0 nom: 2 rac: 31 spgc: 0 pat: 6 nco: 0 t3168: 1000 t3192: 500 drxmax: 4 ctrlAck: 1 bsCVmax: 9 alpha: 10 pcMeasCh: 0 
arfcn: 15 rxLev: -95
arfcn: 779 rxLev: -95
arfcn: 770 rxLev: -95
arfcn: 771 rxLev: -95
$GPGGA,233747.166,,,,,0,00,,,M,0.0,M,,0000*51
arfcn: 765 rxLev: -95
$GPGSA,M,1,,,,,,,,,,,,,,,*12
arfcn: 753 rxLev: -95
$GPRMC,233747.166,V,,,,,,,050218,,,N*44
arfcn: 762 rxLev: -95
arfcn: 726 rxLev: -95
arfcn: 728 rxLev: -95
arfcn: 723 rxLev: -95
arfcn: 720 rxLev: -95
arfcn: 721 rxLev: -95
arfcn: 718 rxLev: -95
arfcn: 738 rxLev: -95
arfcn: 743 rxLev: -95
arfcn: 715 rxLev: -95
$GPGGA,233748.166,,,,,0,00,,,M,0.0,M,,0000*5E
$GPGSA,M,1,,,,,,,,,,,,,,,*12
$GPRMC,233748.166,V,,,,,,,050218,,,N*4B
arfcn: 744 rxLev: -95
arfcn: 737 rxLev: -95
arfcn: 735 rxLev: -95
arfcn: 719 rxLev: -95
arfcn: 731 rxLev: -95
arfcn: 727 rxLev: -95
arfcn: 761 rxLev: -95
arfcn: 755 rxLev: -95
arfcn: 764 rxLev: -95
$GPGGA,233749.166,,,,,0,00,,,M,0.0,M,,0000*5F
arfcn: 781 rxLev: -95
$GPGSA,M,1,,,,,,,,,,,,,,,*12
arfcn: 782 rxLev: -95
$GPRMC,233749.166,V,,,,,,,050218,,,N*4A
arfcn: 73 rxLev: -95
arfcn: 638 rxLev: -95
$GPGGA,233750.166,,,,,0,00,,,M,0.0,M,,0000*57
$GPGSA,M,1,,,,,,,,,,,,,,,*12
$GPGSV,3,1,10,21,45,058,22,26,49,163,15,27,61,295,15,33,33,198,*74
$GPGSV,3,2,10,16,77,208,,18,40,103,,10,29,144,,08,22,281,*73
$GPGSV,3,3,10,20,18,044,,07,13,322,*75
$GPRMC,233750.166,V,,,,,,,050218,,,N*42
$GPGGA,233751.166,,,,,0,00,,,M,0.0,M,,0000*56
$GPGSA,M,1,,,,,,,,,,,,,,,*12
$GPRMC,233751.166,V,,,,,,,050218,,,N*43
$GPGGA,233752.166,,,,,0,00,,,M,0.0,M,,0000*55
$GPGSA,M,1,,,,,,,,,,,,,,,*12
$GPRMC,233752.166,V,,,,,,,050218,,,N*40
arfcn: 608 bsic: 46 rxLev: -95 ber: 5.09 mcc: 208 mnc: 01 lac: 10300 cellId: 36733 cellStatus: CELL_FORBIDDEN numArfcn: 0 arfcn: numChannels: 8 array: 512 513 514 515 517 604 605 606
arfcn: 640 rxLev: -96
arfcn: 86 rxLev: -96
arfcn: 110 rxLev: -96
arfcn: 780 rxLev: -96
arfcn: 772 rxLev: -96
arfcn: 773 rxLev: -96
$GPGGA,233753.166,,,,,0,00,,,M,0.0,M,,0000*54
arfcn: 763 rxLev: -96
$GPGSA,M,1,,,,,,,,,,,,,,,*12
arfcn: 736 rxLev: -96
$GPRMC,233753.166,V,,,,,,,050218,,,N*41
arfcn: 746 rxLev: -96
arfcn: 754 rxLev: -96
arfcn: 977 rxLev: -96
arfcn: 90 rxLev: -96
arfcn: 77 rxLev: -96
arfcn: 642 rxLev: -96
arfcn: 634 rxLev: -96
arfcn: 635 rxLev: -96
arfcn: 646 rxLev: -96
$GPGGA,233754.166,,,,,0,00,,,M,0.0,M,,0000*53
arfcn: 649 rxLev: -96
$GPGSA,M,1,,,,,,,,,,,,,,,*12
arfcn: 650 rxLev: -97
$GPRMC,233754.166,V,,,,,,,050218,,,N*46
arfcn: 636 rxLev: -97
arfcn: 637 rxLev: -97
arfcn: 609 rxLev: -97
$GPGGA,233755.166,,,,,0,00,,,M,0.0,M,,0000*52
$GPGSA,M,1,,,,,,,,,,,,,,,*12
$GPGSV,3,1,10,21,45,058,22,26,49,163,15,27,61,295,15,33,33,198,*74
$GPGSV,3,2,10,16,77,208,,18,40,103,,10,29,144,,08,22,281,*73
$GPGSV,3,3,10,20,18,044,,07,13,322,*75
$GPRMC,233755.166,V,,,,,,,050218,,,N*47
$GPGGA,233756.166,,,,,0,00,,,M,0.0,M,,0000*51
$GPGSA,M,1,,,,,,,,,,,,,,,*12
$GPRMC,233756.166,V,,,,,,,050218,,,N*44
$GPGGA,233757.166,,,,,0,00,,,M,0.0,M,,0000*50
$GPGSA,M,1,,,,,,,,,,,,,,,*12
$GPRMC,233757.166,V,,,,,,,050218,,,N*45
arfcn: 1012 bsic: 19 rxLev: -97 ber: 0.04 mcc: 208 mnc: 20 lac: 418 cellId: 20011 cellStatus: CELL_SUITABLE numArfcn: 2 arfcn: 988 1012 numChannels: 24 array: 787 789 794 882 976 977 978 979 980 981 982 983 985 986 987 1011 1013 1014 1015 1016 1017 1019 1020 1021 pbcch: 0 nom: 2 rac: 6 spgc: 0 pat: 6 nco: 0 t3168: 1500 t3192: 500 drxmax: 0 ctrlAck: 0 bsCVmax: 8 alpha: 4 pcMeasCh: 1 
arfcn: 75 rxLev: -97
arfcn: 976 rxLev: -97
arfcn: 51 rxLev: -97
arfcn: 83 rxLev: -97
arfcn: 647 rxLev: -97
arfcn: 644 rxLev: -97
$GPGGA,233758.166,,,,,0,00,,,M,0.0,M,,0000*5F
arfcn: 660 rxLev: -97
$GPGSA,M,1,,,,,,,,,,,,,,,*12
arfcn: 661 rxLev: -97
$GPRMC,233758.166,V,,,,,,,050218,,,N*4A
arfcn: 664 rxLev: -97
arfcn: 671 rxLev: -97
arfcn: 745 rxLev: -97
arfcn: 679 rxLev: -98
arfcn: 645 rxLev: -98
arfcn: 651 rxLev: -98
arfcn: 648 rxLev: -98
arfcn: 656 rxLev: -98
arfcn: 658 rxLev: -98
$GPGGA,233759.166,,,,,0,00,,,M,0.0,M,,0000*5E
arfcn: 643 rxLev: -98
$GPGSA,M,1,,,,,,,,,,,,,,,*12
arfcn: 631 rxLev: -98
$GPRMC,233759.166,V,,,,,,,050218,,,N*4B
$GPGGA,233800.166,,,,,0,00,,,M,0.0,M,,0000*5D
$GPGSA,M,1,,,,,,,,,,,,,,,*12
$GPGSV,3,1,10,21,45,058,21,26,49,163,14,27,61,295,15,33,33,198,*76
$GPGSV,3,2,10,16,77,208,,18,40,103,,10,29,144,,08,22,281,*73
$GPGSV,3,3,10,20,18,044,,07,13,322,*75
$GPRMC,233800.166,V,,,,,,,050218,,,N*48
$GPGGA,233801.166,,,,,0,00,,,M,0.0,M,,0000*5C
$GPGSA,M,1,,,,,,,,,,,,,,,*12
$GPRMC,233801.166,V,,,,,,,050218,,,N*49
arfcn: 82 bsic: 63 rxLev: -98 ber: 4.01 mcc: 208 mnc: 10 lac: 49415 cellId: 53517 cellStatus: CELL_FORBIDDEN numArfcn: 2 arfcn: 82 84 numChannels: 17 array: 76 77 78 79 80 82 85 86 114 115 118 119 120 121 122 123 124 pbcch: 0 nom: 2 rac: 31 spgc: 0 pat: 6 nco: 0 t3168: 1000 t3192: 500 drxmax: 4 ctrlAck: 1 bsCVmax: 9 alpha: 10 pcMeasCh: 0 
arfcn: 121 rxLev: -98
arfcn: 630 rxLev: -98
arfcn: 628 rxLev: -98
arfcn: 632 rxLev: -98
arfcn: 633 rxLev: -98
arfcn: 641 rxLev: -98
arfcn: 652 rxLev: -98
$GPGGA,233802.166,,,,,0,00,,,M,0.0,M,,0000*5F
arfcn: 655 rxLev: -98
$GPGSA,M,1,,,,,,,,,,,,,,,*12
arfcn: 669 rxLev: -98
$GPRMC,233802.166,V,,,,,,,050218,,,N*4A
arfcn: 666 rxLev: -98
arfcn: 662 rxLev: -98
$GPGGA,233803.166,,,,,0,00,,,M,0.0,M,,0000*5E
$GPGSA,M,1,,,,,,,,,,,,,,,*12
$GPRMC,233803.166,V,,,,,,,050218,,,N*4B
$GPGGA,233804.166,,,,,0,00,,,M,0.0,M,,0000*59
$GPGSA,M,1,,,,,,,,,,,,,,,*12
$GPRMC,233804.166,V,,,,,,,050218,,,N*4C
arfcn: 513 bsic: 27 rxLev: -98 ber: 5.10 mcc: 208 mnc: 01 lac: 10300 cellId: 27587 cellStatus: CELL_FORBIDDEN numArfcn: 16 arfcn: 519 520 521 522 523 524 525 526 596 597 598 599 600 601 602 603 numChannels: 14 array: 1 4 8 12 512 513 515 516 517 518 605 606 607 609 pbcch: 0 nom: 2 rac: 1 spgc: 0 pat: 6 nco: 0 t3168: 1000 t3192: 500 drxmax: 2 ctrlAck: 0 bsCVmax: 9 alpha: 5 pcMeasCh: 1 
arfcn: 676 rxLev: -98
$GPGGA,233805.166,,,,,0,00,,,M,0.0,M,,0000*58
$GPGSA,M,1,,,,,,,,,,,,,,,*12
arfcn: 680 rxLev: -98
$GPGSV,3,1,10,21,45,058,21,26,49,163,12,33,33,198,,16,77,208,*75
arfcn: 681 rxLev: -98
arfcn: 682 rxLev: -98
$GPGSV,3,2,10,27,61,295,,18,40,103,,10,29,144,,08,22,281,*72
arfcn: 687 rxLev: -98
$GPGSV,3,3,10,20,18,044,,07,13,322,*75
arfcn: 688 rxLev: -99
$GPRMC,233805.166,V,,,,,,,050218,,,N*4D
arfcn: 703 rxLev: -99
arfcn: 692 rxLev: -99
arfcn: 1011 rxLev: -99
$GPGGA,233806.166,,,,,0,00,,,M,0.0,M,,0000*5B
$GPGSA,M,1,,,,,,,,,,,,,,,*12
$GPRMC,233806.166,V,,,,,,,050218,,,N*4E
$GPGGA,233807.166,,,,,0,00,,,M,0.0,M,,0000*5A
$GPGSA,M,1,,,,,,,,,,,,,,,*12
$GPRMC,233807.166,V,,,,,,,050218,,,N*4F
arfcn: 518 bsic: 15 rxLev: -99 ber: 4.08 mcc: FFF mnc: FF lac: 65535 cellId: 0 cellStatus: CELL_OTHER numArfcn: 0 arfcn: numChannels: 0 array:
arfcn: 663 rxLev: -99
arfcn: 665 rxLev: -99
arfcn: 673 rxLev: -99
arfcn: 675 rxLev: -99
arfcn: 653 rxLev: -99
arfcn: 659 rxLev: -99
arfcn: 626 rxLev: -99
arfcn: 975 rxLev: -99
$GPGGA,233808.166,,,,,0,00,,,M,0.0,M,,0000*55
$GPGSA,M,1,,,,,,,,,,,,,,,*12
arfcn: 625 rxLev: -99
$GPRMC,233808.166,V,,,,,,,050218,,,N*40
arfcn: 622 rxLev: -99
arfcn: 657 rxLev: -99
arfcn: 654 rxLev: -99
arfcn: 672 rxLev: -99
arfcn: 670 rxLev: -99
arfcn: 1018 rxLev: -99
arfcn: 988 rxLev: -99
arfcn: 685 rxLev: -99
arfcn: 683 rxLev: -99
$GPGGA,233809.166,,,,,0,00,,,M,0.0,M,,0000*54
arfcn: 677 rxLev: -99
$GPGSA,M,1,,,,,,,,,,,,,,,*12
arfcn: 678 rxLev: -100
$GPRMC,233809.166,V,,,,,,,050218,,,N*41
arfcn: 686 rxLev: -100
arfcn: 690 rxLev: -100
arfcn: 694 rxLev: -100
arfcn: 987 rxLev: -100
$GPGGA,233810.165,,,,,0,00,,,M,0.0,M,,0000*5F
$GPGSA,M,1,,,,,,,,,,,,,,,*12
$GPGSV,3,1,10,21,45,058,20,26,49,163,04,33,33,198,,16,77,208,*73
$GPGSV,3,2,10,27,61,295,,18,40,103,,10,29,144,,08,22,281,*72
$GPGSV,3,3,10,20,18,044,,07,13,322,*75
$GPRMC,233810.165,V,,,,,,,050218,,,N*4A
$GPGGA,233811.165,,,,,0,00,,,M,0.0,M,,0000*5E
$GPGSA,M,1,,,,,,,,,,,,,,,*12
arfcn: 517 bsic: 57 rxLev: -100 ber: 10.08 mcc: FFF mnc: FF lac: 65535 cellId: 0 cellStatus: CELL_OTHER numArfcn: 0 arfcn: numChannels: 0 array:
$GPRMC,233811.165,V,,,,,,,050218,,,N*4B
arfcn: 674 rxLev: -100
arfcn: 667 rxLev: -100
arfcn: 623 rxLev: -100
arfcn: 621 rxLev: -100
arfcn: 617 rxLev: -100
arfcn: 618 rxLev: -100
arfcn: 619 rxLev: -100
arfcn: 624 rxLev: -100
$GPGGA,233812.166,,,,,0,00,,,M,0.0,M,,0000*5E
arfcn: 627 rxLev: -100
$GPGSA,M,1,,,,,,,,,,,,,,,*12
arfcn: 668 rxLev: -100
$GPRMC,233812.166,V,,,,,,,050218,,,N*4B
arfcn: 607 rxLev: -100
arfcn: 1015 rxLev: -100
arfcn: 118 rxLev: -100
arfcn: 691 rxLev: -100
arfcn: 689 rxLev: -100
arfcn: 684 rxLev: -101
arfcn: 695 rxLev: -101
arfcn: 693 rxLev: -101
arfcn: 697 rxLev: -101
$GPGGA,233813.166,,,,,0,00,,,M,0.0,M,,0000*5F
arfcn: 706 rxLev: -101
$GPGSA,M,1,,,,,,,,,,,,,,,*12
arfcn: 620 rxLev: -101
$GPRMC,233813.166,V,,,,,,,050218,,,N*4A
arfcn: 610 rxLev: -101
arfcn: 629 rxLev: -101
arfcn: 119 rxLev: -101
arfcn: 116 rxLev: -101
arfcn: 113 rxLev: -101
arfcn: 111 rxLev: -101
arfcn: 74 rxLev: -101
arfcn: 704 rxLev: -101
arfcn: 700 rxLev: -101
$GPGGA,233814.166,,,,,0,00,,,M,0.0,M,,0000*58
arfcn: 696 rxLev: -101
$GPGSA,M,1,,,,,,,,,,,,,,,*12
arfcn: 705 rxLev: -102
$GPRMC,233814.166,V,,,,,,,050218,,,N*4D
arfcn: 1013 rxLev: -102
arfcn: 702 rxLev: -102
arfcn: 698 rxLev: -103
arfcn: 1010 rxLev: -103
arfcn: 89 rxLev: -103
arfcn: 48 rxLev: -103
arfcn: 0 rxLev: -103
arfcn: 16 rxLev: -103
arfcn: 699 rxLev: -103
$GPGGA,233815.166,,,,,0,00,,,M,0.0,M,,0000*59
arfcn: 701 rxLev: -103
$GPGSA,M,1,,,,,,,,,,,,,,,*12
arfcn: 19 rxLev: -104
$GPGSV,3,1,10,21,45,058,20,26,49,163,04,27,61,295,15,33,33,198,*76
arfcn: 603 rxLev: -104
arfcn: 22 rxLev: -104
$GPGSV,3,2,10,16,77,208,,18,40,103,,10,29,144,,08,22,281,*73
arfcn: 788 rxLev: -104
$GPGSV,3,3,10,20,18,044,,07,13,322,*75
arfcn: 21 rxLev: -105
$GPRMC,233815.166,V,,,,,,,050218,,,N*4C
arfcn: 49 rxLev: -105
arfcn: 50 rxLev: -105
arfcn: 87 rxLev: -105
arfcn: 88 rxLev: -105
$GPGGA,233816.166,,,,,0,00,,,M,0.0,M,,0000*5A
arfcn: 1022 rxLev: -105
$GPGSA,M,1,,,,,,,,,,,,,,,*12
arfcn: 549 rxLev: -105
$GPRMC,233816.166,V,,,,,,,050218,,,N*4F
arfcn: 24 rxLev: -105
arfcn: 17 rxLev: -106
arfcn: 546 rxLev: -106
arfcn: 790 rxLev: -106
arfcn: 1023 rxLev: -106
arfcn: 611 rxLev: -106
arfcn: 613 rxLev: -107
arfcn: 545 rxLev: -107
arfcn: 18 rxLev: -107
$GPGGA,233817.166,,,,,0,00,,,M,0.0,M,,0000*5B
arfcn: 786 rxLev: -107
$GPGSA,M,1,,,,,,,,,,,,,,,*12
arfcn: 789 rxLev: -107
$GPRMC,233817.166,V,,,,,,,050218,,,N*4E
arfcn: 23 rxLev: -107
arfcn: 602 rxLev: -107
arfcn: 600 rxLev: -108
arfcn: 547 rxLev: -108
arfcn: 614 rxLev: -108
arfcn: 112 rxLev: -108
arfcn: 785 rxLev: -108
Network survey ended
$GPGGA,233818.166,,,,,0,00,,,M,0.0,M,,0000*54
Survey end at #CCLK: "18/02/06,00:38:18+04"
Survey duration: 157 seconds, 40 bases detected over 451 freqs scanned.
$GPGSA,M,1,,,,,,,,,,,,,,,*12
$GPRMC,233818.166,V,,,,,,,050218,,,N*41
$GPGGA,233819.166,,,,,0,00,,,M,0.0,M,,0000*55
$GPGSA,M,1,,,,,,,,,,,,,,,*12
$GPRMC,233819.166,V,,,,,,,050218,,,N*40
Survey start at #CCLK: "18/02/06,00:38:20+04"
at#csurv
Network survey started ...
$GPGGA,233820.166,,,,,0,00,,,M,0.0,M,,0000*5F
$GPGSA,M,1,,,,,,,,,,,,,,,*12
$GPGSV,3,1,12,21,44,058,20,26,48,163,04,27,62,297,14,33,33,198,*74
$GPGSV,3,2,12,16,76,203,,18,41,101,,10,30,144,,08,23,282,*72
$GPGSV,3,3,12,20,18,043,,07,14,321,,30,00,339,,15,00,058,*77
$GPRMC,233820.166,V,,,,,,,050218,,,N*4A
$GPGGA,233821.166,,,,,0,00,,,M,0.0,M,,0000*5E
$GPGSA,M,1,,,,,,,,,,,,,,,*12
$GPRMC,233821.166,V,,,,,,,050218,,,N*4B
$GPGGA,233822.166,,,,,0,00,,,M,0.0,M,,0000*5D
$GPGSA,M,1,,,,,,,,,,,,,,,*12
$GPRMC,233822.166,V,,,,,,,050218,,,N*48
$GPGGA,233823.166,,,,,0,00,,,M,0.0,M,,0000*5C
$GPGSA,M,1,,,,,,,,,,,,,,,*12
$GPRMC,233823.166,V,,,,,,,050218,,,N*49
$GPGGA,233824.166,,,,,0,00,,,M,0.0,M,,0000*5B
$GPGSA,M,1,,,,,,,,,,,,,,,*12
$GPRMC,233824.166,V,,,,,,,050218,,,N*4E
$GPGGA,233825.166,,,,,0,00,,,M,0.0,M,,0000*5A
$GPGSA,M,1,,,,,,,,,,,,,,,*12
$GPGSV,3,1,12,10,30,144,15,21,44,058,21,26,48,163,04,27,62,297,14*72
$GPGSV,3,2,12,33,33,198,,16,76,203,,18,41,101,,08,23,282,*71
$GPGSV,3,3,12,20,18,043,,07,14,321,,30,00,339,,15,00,058,*77
$GPRMC,233825.166,V,,,,,,,050218,,,N*4F
$GPGGA,233826.166,,,,,0,00,,,M,0.0,M,,0000*59
$GPGSA,M,1,,,,,,,,,,,,,,,*12
$GPRMC,233826.166,V,,,,,,,050218,,,N*4C
$GPGGA,233827.166,,,,,0,00,,,M,0.0,M,,0000*58
$GPGSA,M,1,,,,,,,,,,,,,,,*12
$GPRMC,233827.166,V,,,,,,,050218,,,N*4D
$GPGGA,233828.166,,,,,0,00,,,M,0.0,M,,0000*57
$GPGSA,M,1,,,,,,,,,,,,,,,*12
$GPRMC,233828.166,V,,,,,,,050218,,,N*42
$GPGGA,233829.166,,,,,0,00,,,M,0.0,M,,0000*56
$GPGSA,M,1,,,,,,,,,,,,,,,*12
$GPRMC,233829.166,V,,,,,,,050218,,,N*43
arfcn: 981 bsic: 46 rxLev: -47 ber: 0.00 mcc: 208 mnc: 20 lac: 418 cellId: 21807 cellStatus: CELL_SUITABLE numArfcn: 1 arfcn: 981 numChannels: 16 array: 787 790 791 793 796 882 884 979 982 983 985 1012 1014 1017 1019 1020 pbcch: 0 nom: 2 rac: 6 spgc: 0 pat: 6 nco: 0 t3168: 1500 t3192: 500 drxmax: 0 ctrlAck: 0 bsCVmax: 8 alpha: 6 pcMeasCh: 1 
arfcn: 985 bsic: 44 rxLev: -51 ber: 50.00 mcc: 208 mnc: 20 lac: 418 cellId: 21808 cellStatus: CELL_SUITABLE numArfcn: 1 arfcn: 985 numChannels: 25 array: 975 977 978 979 980 981 982 983 1011 1012 1014 1015 1017 1019 1020 1021 1022 787 788 790 793 795 796 879 884 pbcch: 0 nom: 2 rac: 6 spgc: 0 pat: 6 nco: 0 t3168: 1500 t3192: 500 drxmax: 0 ctrlAck: 0 bsCVmax: 8 alpha: 6 pcMeasCh: 1 
arfcn: 990 rxLev: -61
arfcn: 991 rxLev: -61
arfcn: 992 rxLev: -61
arfcn: 993 rxLev: -61
arfcn: 994 rxLev: -61
$GPGGA,233830.166,,,,,0,00,,,M,0.0,M,,0000*5E
$GPGSA,M,1,,,,,,,,,,,,,,,*12
arfcn: 995 rxLev: -61
arfcn: 996 rxLev: -61
$GPGSV,3,1,12,10,30,144,15,21,44,058,22,27,62,297,15,33,33,198,*78
arfcn: 997 rxLev: -61
arfcn: 1000 rxLev: -61
$GPGSV,3,2,12,16,76,203,,26,48,163,,18,41,101,,08,23,282,*7D
arfcn: 999 rxLev: -62
$GPGSV,3,3,12,20,18,043,,07,14,321,,30,00,339,,15,00,058,*77
$GPRMC,233830.166,V,,,,,,,050218,,,N*4B
arfcn: 998 rxLev: -62
arfcn: 1001 rxLev: -62
arfcn: 1002 rxLev: -62
arfcn: 1003 rxLev: -62
arfcn: 1004 rxLev: -62
$GPGGA,233831.166,,,,,0,00,,,M,0.0,M,,0000*5F
arfcn: 1006 rxLev: -62
$GPGSA,M,1,,,,,,,,,,,,,,,*12
arfcn: 1007 rxLev: -62
$GPRMC,233831.166,V,,,,,,,050218,,,N*4A
arfcn: 1008 rxLev: -62
arfcn: 1005 rxLev: -63
$GPGGA,233832.166,,,,,0,00,,,M,0.0,M,,0000*5C
$GPGSA,M,1,,,,,,,,,,,,,,,*12
$GPRMC,233832.166,V,,,,,,,050218,,,N*49
$GPGGA,233833.166,,,,,0,00,,,M,0.0,M,,0000*5D
$GPGSA,M,1,,,,,,,,,,,,,,,*12
$GPRMC,233833.166,V,,,,,,,050218,,,N*48
$GPGGA,233834.166,,,,,0,00,,,M,0.0,M,,0000*5A
$GPGSA,M,1,,,,,,,,,,,,,,,*12
$GPRMC,233834.166,V,,,,,,,050218,,,N*4F
arfcn: 12 bsic: 0 rxLev: -64 ber: 0.00 mcc: 208 mnc: 01 lac: 10300 cellId: 6467 cellStatus: CELL_FORBIDDEN numArfcn: 13 arfcn: 12 17 18 19 20 21 22 23 24 25 47 48 49 numChannels: 15 array: 1 2 3 8 9 10 14 512 513 514 515 518 605 606 608 pbcch: 0 nom: 2 rac: 1 spgc: 0 pat: 6 nco: 0 t3168: 1000 t3192: 500 drxmax: 2 ctrlAck: 0 bsCVmax: 9 alpha: 5 pcMeasCh: 1 
arfcn: 980 rxLev: -65
arfcn: 982 rxLev: -66
arfcn: 984 rxLev: -69
arfcn: 986 rxLev: -69
arfcn: 989 rxLev: -69
arfcn: 1009 rxLev: -71
$GPGGA,233835.166,,,,,0,00,,,M,0.0,M,,0000*5B
$GPGSA,M,1,,,,,,,,,,,,,,,*12
$GPGSV,3,1,12,10,30,144,16,21,44,058,23,26,48,163,14,33,33,198,*7A
$GPGSV,3,2,12,16,76,203,,27,62,297,,18,41,101,,08,23,282,*7C
$GPGSV,3,3,12,20,18,043,,07,14,321,,30,00,339,,15,00,058,*77
$GPRMC,233835.166,V,,,,,,,050218,,,N*4E
$GPGGA,233836.166,,,,,0,00,,,M,0.0,M,,0000*58
$GPGSA,M,1,,,,,,,,,,,,,,,*12
arfcn: 80 bsic: 47 rxLev: -73 ber: 0.00 mcc: 208 mnc: 10 lac: 49415 cellId: 23568 cellStatus: CELL_FORBIDDEN numArfcn: 2 arfcn: 80 89 numChannels: 19 array: 76 77 78 80 82 83 84 85 113 114 115 116 117 118 119 120 122 123 124 pbcch: 0 nom: 2 rac: 31 spgc: 0 pat: 6 nco: 0 t3168: 1000 t3192: 500 drxmax: 4 ctrlAck: 1 bsCVmax: 9 alpha: 10 pcMeasCh: 0 
$GPRMC,233836.166,V,,,,,,,050218,,,N*4D
$GPGGA,233837.166,,,,,0,00,,,M,0.0,M,,0000*59
$GPGSA,M,1,,,,,,,,,,,,,,,*12
$GPRMC,233837.166,V,,,,,,,050218,,,N*4C
$GPGGA,233838.166,,,,,0,04,1.8,,M,0.0,M,,0000*75
$GPGSA,M,1,,,,,,,,,,,,,,,*12
$GPRMC,233838.166,V,,,,,,,050218,,,N*43
$GPGGA,233839.166,,,,,0,00,,,M,0.0,M,,0000*57
arfcn: 983 bsic: 21 rxLev: -75 ber: 0.00 mcc: 208 mnc: 20 lac: 418 cellId: 21809 cellStatus: CELL_SUITABLE numArfcn: 1 arfcn: 983 numChannels: 24 array: 788 790 792 793 795 796 878 882 884 976 977 979 981 985 986 987 1012 1013 1014 1016 1017 1019 1020 1022 pbcch: 0 nom: 2 rac: 6 spgc: 0 pat: 6 nco: 0 t3168: 1500 t3192: 500 drxmax: 0 ctrlAck: 0 bsCVmax: 8 alpha: 6 pcMeasCh: 1 
$GPGSA,M,1,,,,,,,,,,,,,,,*12
$GPRMC,233839.166,V,,,,,,,050218,,,N*42
$GPGGA,233840.166,,,,,0,00,,,M,0.0,M,,0000*59
$GPGSA,M,1,,,,,,,,,,,,,,,*12
$GPGSV,3,1,12,10,30,144,15,21,44,058,23,26,48,163,12,27,62,297,15*76
$GPGSV,3,2,12,33,33,198,,16,76,203,,18,41,101,,08,23,282,*71
$GPGSV,3,3,12,20,18,043,,07,14,321,,30,00,339,,15,00,058,*77
$GPRMC,233840.166,V,,,,,,,050218,,,N*4C
$GPGGA,233841.170,,,,,0,00,,,M,0.0,M,,0000*5F
$GPGSA,M,1,,,,,,,,,,,,,,,*12
$GPRMC,233841.170,V,,,,,,,050218,,,N*4A
arfcn: 605 bsic: 33 rxLev: -76 ber: 0.00 mcc: 208 mnc: 01 lac: 10300 cellId: 27588 cellStatus: CELL_FORBIDDEN numArfcn: 22 arfcn: 525 526 527 528 529 530 531 532 533 534 535 587 588 589 590 591 592 593 594 595 596 597 numChannels: 18 array: 1 3 5 8 12 15 512 513 514 515 516 517 518 604 605 606 607 609 pbcch: 0 nom: 2 rac: 1 spgc: 0 pat: 6 nco: 0 t3168: 1000 t3192: 500 drxmax: 2 ctrlAck: 0 bsCVmax: 9 alpha: 5 pcMeasCh: 1 
$GPGGA,233842.170,,,,,0,00,,,M,0.0,M,,0000*5C
$GPGSA,M,1,,,,,,,,,,,,,,,*12
$GPRMC,233842.170,V,,,,,,,050218,,,N*49
$GPGGA,233843.171,,,,,0,00,,,M,0.0,M,,0000*5C
$GPGSA,M,1,,,,,,,,,,,,,,,*12
$GPRMC,233843.171,V,,,,,,,050218,,,N*49
$GPGGA,233844.171,,,,,0,00,,,M,0.0,M,,0000*5B
$GPGSA,M,1,,,,,,,,,,,,,,,*12
$GPRMC,233844.171,V,,,,,,,050218,,,N*4E
arfcn: 515 bsic: 34 rxLev: -77 ber: 0.00 mcc: 208 mnc: 01 lac: 10300 cellId: 27586 cellStatus: CELL_FORBIDDEN numArfcn: 16 arfcn: 519 520 521 522 523 524 525 526 596 597 598 599 600 601 602 603 numChannels: 9 array: 1 8 12 512 513 516 605 606 607 pbcch: 0 nom: 2 rac: 1 spgc: 0 pat: 6 nco: 0 t3168: 1000 t3192: 500 drxmax: 2 ctrlAck: 0 bsCVmax: 9 alpha: 5 pcMeasCh: 1 
$GPGGA,233845.171,,,,,0,00,,,M,0.0,M,,0000*5A
$GPGSA,M,1,,,,,,,,,,,,,,,*12
$GPGSV,3,1,12,10,30,144,15,21,44,058,23,26,48,163,12,27,62,297,15*76
$GPGSV,3,2,12,33,33,198,,16,76,203,,18,41,101,,08,23,282,*71
$GPGSV,3,3,12,20,18,043,,07,14,321,,30,00,339,,15,00,058,*77
$GPRMC,233845.171,V,,,,,,,050218,,,N*4F
$GPGGA,233846.171,,,,,0,00,,,M,0.0,M,,0000*59
$GPGSA,M,1,,,,,,,,,,,,,,,*12
$GPRMC,233846.171,V,,,,,,,050218,,,N*4C
$GPGGA,233847.171,,,,,0,00,,,M,0.0,M,,0000*58
$GPGSA,M,1,,,,,,,,,,,,,,,*12
$GPRMC,233847.171,V,,,,,,,050218,,,N*4D
arfcn: 8 bsic: 48 rxLev: -77 ber: 0.00 mcc: 208 mnc: 01 lac: 10300 cellId: 6473 cellStatus: CELL_FORBIDDEN numArfcn: 13 arfcn: 8 17 18 19 20 21 22 23 24 25 47 48 49 numChannels: 18 array: 1 2 3 4 5 10 12 13 14 15 512 513 514 515 516 517 605 610 pbcch: 0 nom: 2 rac: 1 spgc: 0 pat: 6 nco: 0 t3168: 1000 t3192: 500 drxmax: 2 ctrlAck: 0 bsCVmax: 9 alpha: 5 pcMeasCh: 1 
$GPGGA,233848.171,,,,,0,00,,,M,0.0,M,,0000*57
$GPGSA,M,1,,,,,,,,,,,,,,,*12
$GPRMC,233848.171,V,,,,,,,050218,,,N*42
arfcn: 85 bsic: 0 rxLev: -78 ber: 0.00 mcc: 208 mnc: 10 lac: 49415 cellId: 44814 cellStatus: CELL_FORBIDDEN numArfcn: 2 arfcn: 85 119 numChannels: 20 array: 76 77 78 79 80 82 83 85 86 114 115 116 117 118 119 120 121 122 123 124 pbcch: 0 nom: 2 rac: 31 spgc: 0 pat: 6 nco: 0 t3168: 1000 t3192: 500 drxmax: 4 ctrlAck: 1 bsCVmax: 9 alpha: 10 pcMeasCh: 0 
arfcn: 41 rxLev: -78
arfcn: 40 rxLev: -79
arfcn: 42 rxLev: -79
arfcn: 43 rxLev: -79
arfcn: 44 rxLev: -79
arfcn: 29 rxLev: -79
$GPGGA,233849.171,,,,,0,00,,,M,0.0,M,,0000*56
arfcn: 30 rxLev: -79
$GPGSA,M,1,,,,,,,,,,,,,,,*12
arfcn: 31 rxLev: -80
$GPRMC,233849.171,V,,,,,,,050218,,,N*43
arfcn: 28 rxLev: -80
$GPGGA,233850.171,,,,,0,00,,,M,0.0,M,,0000*5E
$GPGSA,M,1,,,,,,,,,,,,,,,*12
$GPGSV,3,1,12,10,30,144,15,21,44,058,22,26,48,163,07,27,62,297,15*73
$GPGSV,3,2,12,33,33,198,,16,76,203,,18,41,101,,08,23,282,*71
$GPGSV,3,3,12,20,18,043,,07,14,321,,30,00,339,,15,00,058,*77
$GPRMC,233850.171,V,,,,,,,050218,,,N*4B
$GPGGA,233851.171,,,,,0,04,1.9,,M,0.0,M,,0000*7D
$GPGSA,M,1,,,,,,,,,,,,,,,*12
$GPRMC,233851.171,V,,,,,,,050218,,,N*4A
$GPGGA,233852.171,,,,,0,04,1.9,,M,0.0,M,,0000*7E
$GPGSA,M,1,,,,,,,,,,,,,,,*12
$GPRMC,233852.171,V,,,,,,,050218,,,N*49
$GPGGA,233853.171,,,,,0,04,1.9,,M,0.0,M,,0000*7F
$GPGSA,M,1,,,,,,,,,,,,,,,*12
$GPRMC,233853.171,V,,,,,,,050218,,,N*48
$GPGGA,233854.170,,,,,0,04,1.9,,M,0.0,M,,0000*79
$GPGSA,M,1,,,,,,,,,,,,,,,*12
$GPRMC,233854.170,V,,,,,,,050218,,,N*4E
arfcn: 10 bsic: 45 rxLev: -80 ber: 5.03 mcc: FFF mnc: FF lac: 65535 cellId: 0 cellStatus: CELL_OTHER numArfcn: 13 arfcn: 10 17 18 19 20 21 22 23 24 25 47 48 49 numChannels: 9 array: 512 513 514 516 517 604 605 606 608
arfcn: 45 rxLev: -80
arfcn: 39 rxLev: -80
$GPGGA,233855.166,,,,,0,04,1.9,,M,0.0,M,,0000*7F
$GPGSA,M,1,,,,,,,,,,,,,,,*12
$GPGSV,3,1,12,27,62,297,14,26,48,163,10,21,44,058,22,10,30,144,15*74
$GPGSV,3,2,12,33,33,198,,16,76,203,,18,41,101,,08,23,282,*71
$GPGSV,3,3,12,20,18,043,,07,14,321,,30,00,339,,15,00,058,*77
$GPRMC,233855.166,V,,,,,,,050218,,,N*48
$GPGGA,233856.167,4806.8961,N,00139.4825,W,1,04,1.9,19.9,M,48.3,M,,0000*79
$GPGSA,M,3,27,26,21,10,,,,,,,,,3.5,1.9,3.0*30
$GPRMC,233856.167,A,4806.8961,N,00139.4825,W,22.02,277.92,050218,,,A*4C
arfcn: 3 bsic: 0 rxLev: -80 ber: 0.00 mcc: 208 mnc: 01 lac: 10300 cellId: 2686 cellStatus: CELL_FORBIDDEN numArfcn: 13 arfcn: 3 17 18 19 20 21 22 23 24 25 47 48 49 numChannels: 13 array: 1 5 6 7 10 12 14 512 515 517 604 606 608 pbcch: 0 nom: 2 rac: 1 spgc: 0 pat: 6 nco: 0 t3168: 1000 t3192: 500 drxmax: 2 ctrlAck: 0 bsCVmax: 9 alpha: 5 pcMeasCh: 1 
$GPGGA,233857.166,,,,,0,00,,,M,0.0,M,,0000*5F
$GPGSA,M,1,,,,,,,,,,,,,,,*12
$GPRMC,233857.166,V,,,,,,,050218,,,N*4A
$GPGGA,233858.166,,,,,0,00,,,M,0.0,M,,0000*50
$GPGSA,M,1,,,,,,,,,,,,,,,*12
$GPRMC,233858.166,V,,,,,,,050218,,,N*45
arfcn: 5 bsic: 1 rxLev: -80 ber: 0.00 mcc: 208 mnc: 01 lac: 10300 cellId: 40079 cellStatus: CELL_FORBIDDEN numArfcn: 13 arfcn: 5 17 18 19 20 21 22 23 24 25 47 48 49 numChannels: 20 array: 1 2 3 4 5 8 9 10 11 13 14 15 16 512 513 518 604 606 608 610 pbcch: 0 nom: 2 rac: 1 spgc: 0 pat: 6 nco: 0 t3168: 1000 t3192: 500 drxmax: 2 ctrlAck: 0 bsCVmax: 9 alpha: 5 pcMeasCh: 1 
