$GPGSA,M,3,13,15,20,28,05,30,,,,,,,3.1,1.6,2.6*37
$GPRMC,155239.000,A,4716.2615,N,00131.2673,W,8.92,31.94,291217,,,A*40
Survey start at #CCLK: "17/12/29,16:52:40+04"
at#csurv
Network survey started ...
Survey end at #CCLK: "17/12/29,16:52:40+04"
Survey duration: 0 seconds, 0 bases detected over 0 freqs scanned.
$GPGGA,155240.000,4716.2641,N,00131.2656,W,1,06,1.6,47.8,M,48.5,M,,0000*7B
$GPGSA,M,3,13,15,20,28,05,30,,,,,,,3.1,1.6,2.6*37
$GPGSV,3,1,12,13,82,044,25,15,58,298,41,20,49,256,31,28,47,068,25*74
$GPGSV,3,2,12,05,30,184,23,30,22,063,20,08,01,016,20,17,04,118,24*75
$GPGSV,3,3,12,18,15,317,28,21,08,289,21,24,22,252,26,33,33,198,*74
$GPRMC,155240.000,A,4716.2641,N,00131.2656,W,9.37,30.05,291217,,,A*4F
$GPGGA,155241.000,4716.2667,N,00131.2628,W,1,06,1.6,47.1,M,48.5,M,,0000*7E
$GPGSA,M,3,13,15,20,28,05,30,,,,,,,3.1,1.6,2.6*37
$GPRMC,155241.000,A,4716.2667,N,00131.2628,W,9.70,32.50,291217,,,A*42
Survey start at #CCLK: "17/12/29,16:52:42+04"
at#csurv
Network survey started ...
$GPGGA,155242.000,4716.2699,N,00131.2602,W,1,06,1.6,45.5,M,48.5,M,,0000*72
$GPGSA,M,3,13,15,20,28,05,30,,,,,,,3.1,1.6,2.6*37
$GPRMC,155242.000,A,4716.2699,N,00131.2602,W,9.77,34.82,291217,,,A*46
$GPGGA,155243.000,4716.2725,N,00131.2574,W,1,05,3.8,43.2,M,48.5,M,,0000*79
$GPGSA,M,3,13,15,20,28,30,,,,,,,,4.7,3.8,2.8*31
$GPRMC,155243.000,A,4716.2725,N,00131.2574,W,9.84,38.11,291217,,,A*49
$GPGGA,155244.000,4716.2747,N,00131.2548,W,1,06,1.6,42.1,M,48.5,M,,0000*78
$GPGSA,M,3,13,15,20,28,05,30,,,,,,,3.1,1.6,2.6*37
$GPRMC,155244.000,A,4716.2747,N,00131.2548,W,9.33,38.69,291217,,,A*46
$GPGGA,155245.000,4716.2767,N,00131.2522,W,1,06,1.6,41.3,M,48.5,M,,0000*76
$GPGSA,M,3,13,15,20,28,05,30,,,,,,,3.1,1.6,2.6*37
$GPGSV,3,1,12,13,82,044,24,15,58,298,29,20,49,256,30,28,47,068,35*7B
$GPGSV,3,2,12,05,30,184,20,30,22,063,37,08,01,016,29,17,04,118,31*7D
$GPGSV,3,3,12,18,15,317,21,21,08,289,21,24,22,252,31,33,33,198,*7B
$GPRMC,155245.000,A,4716.2767,N,00131.2522,W,9.15,40.21,291217,,,A*4E
$GPGGA,155246.000,4716.2783,N,00131.2492,W,1,06,1.6,41.6,M,48.5,M,,0000*70
$GPGSA,M,3,13,15,20,28,05,30,,,,,,,3.1,1.6,2.6*37
$GPRMC,155246.000,A,4716.2783,N,00131.2492,W,9.20,43.19,291217,,,A*43
$GPGGA,155247.000,4716.2798,N,00131.2460,W,1,06,1.6,40.7,M,48.5,M,,0000*76
$GPGSA,M,3,13,15,20,28,05,30,,,,,,,3.1,1.6,2.6*37
$GPRMC,155247.000,A,4716.2798,N,00131.2460,W,9.28,47.00,291217,,,A*41
arfcn: 40 rxLev: -61
arfcn: 41 rxLev: -61
arfcn: 42 rxLev: -62
arfcn: 44 rxLev: -62
$GPGGA,155248.000,4716.2806,N,00131.2417,W,1,06,1.6,40.4,M,48.5,M,,0000*72
arfcn: 38 rxLev: -62
$GPGSA,M,3,13,15,20,28,05,30,,,,,,,3.1,1.6,2.6*37
arfcn: 39 rxLev: -62
arfcn: 28 rxLev: -62
$GPRMC,155248.000,A,4716.2806,N,00131.2417,W,9.79,53.21,291217,,,A*44
arfcn: 29 rxLev: -62
arfcn: 30 rxLev: -62
arfcn: 27 rxLev: -62
arfcn: 37 rxLev: -62
arfcn: 35 rxLev: -62
arfcn: 43 rxLev: -62
arfcn: 45 rxLev: -63
arfcn: 36 rxLev: -63
arfcn: 34 rxLev: -63
$GPGGA,155249.000,4716.2806,N,00131.2372,W,1,06,1.6,40.1,M,48.5,M,,0000*72
arfcn: 31 rxLev: -63
$GPGSA,M,3,13,15,20,28,05,30,,,,,,,3.1,1.6,2.6*37
arfcn: 32 rxLev: -64
arfcn: 33 rxLev: -64
$GPRMC,155249.000,A,4716.2806,N,00131.2372,W,9.54,59.94,291217,,,A*4A
arfcn: 46 rxLev: -69
arfcn: 26 rxLev: -69
arfcn: 980 bsic: 17 rxLev: -69 ber: 50.00 mcc: 208 mnc: 20 lac: 420 cellId: 20175 cellStatus: CELL_SUITABLE numArfcn: 3 arfcn: 976 980 988 numChannels: 17 array: 975 976 977 978 980 983 985 1012 1013 1014 1015 1016 1017 1018 1019 1022 876 pbcch: 0 nom: 2 rac: 7 spgc: 0 pat: 6 nco: 0 t3168: 1500 t3192: 500 drxmax: 0 ctrlAck: 0 bsCVmax: 8 alpha: 6 pcMeasCh: 1 
arfcn: 64 rxLev: -79
arfcn: 65 rxLev: -79
arfcn: 66 rxLev: -79
arfcn: 63 rxLev: -79
$GPGGA,155250.000,4716.2789,N,00131.2319,W,1,06,1.6,39.4,M,48.5,M,,0000*74
$GPGSA,M,3,13,15,20,28,05,30,,,,,,,3.1,1.6,2.6*37
$GPGSV,3,1,12,13,82,044,29,15,58,298,32,20,49,256,23,28,47,068,31*7A
$GPGSV,3,2,12,05,30,184,30,30,22,063,40,08,01,016,16,17,04,118,21*71
$GPGSV,3,3,12,18,15,317,31,21,08,289,20,24,22,252,14,33,33,198,*7C
$GPRMC,155250.000,A,4716.2789,N,00131.2319,W,9.98,69.86,291217,,,A*47
$GPGGA,155251.000,4716.2709,N,00131.2243,W,1,06,1.6,37.3,M,48.5,M,,0000*7A
$GPGSA,M,3,13,15,20,28,05,30,,,,,,,3.1,1.6,2.6*37
$GPRMC,155251.000,A,4716.2709,N,00131.2243,W,12.71,98.38,291217,,,A*76
$GPGGA,155252.000,4716.2674,N,00131.2178,W,1,06,1.6,36.9,M,48.5,M,,0000*72
$GPGSA,M,3,13,15,20,28,05,30,,,,,,,3.1,1.6,2.6*37
$GPRMC,155252.000,A,4716.2674,N,00131.2178,W,14.46,114.89,291217,,,A*48
arfcn: 1019 bsic: 13 rxLev: -79 ber: 0.05 mcc: 208 mnc: 20 lac: 420 cellId: 22700 cellStatus: CELL_SUITABLE numArfcn: 2 arfcn: 1019 1023 numChannels: 18 array: 787 789 876 879 975 977 978 980 981 985 1012 1013 1014 1015 1016 1017 1018 1022 pbcch: 0 nom: 2 rac: 7 spgc: 0 pat: 6 nco: 0 t3168: 1500 t3192: 500 drxmax: 0 ctrlAck: 0 bsCVmax: 8 alpha: 6 pcMeasCh: 1 
arfcn: 62 rxLev: -80
arfcn: 67 rxLev: -80
$GPGGA,155253.000,4716.2648,N,00131.2116,W,1,06,1.6,37.1,M,48.5,M,,0000*7D
arfcn: 68 rxLev: -81
$GPGSA,M,3,13,15,20,28,05,30,,,,,,,3.1,1.6,2.6*37
arfcn: 60 rxLev: -81
arfcn: 59 rxLev: -81
$GPRMC,155253.000,A,4716.2648,N,00131.2116,W,14.95,117.23,291217,,,A*43
arfcn: 58 rxLev: -81
arfcn: 57 rxLev: -81
arfcn: 61 rxLev: -81
arfcn: 54 rxLev: -81
arfcn: 69 rxLev: -81
arfcn: 70 rxLev: -81
$GPGGA,155254.000,4716.2624,N,00131.2057,W,1,06,1.6,37.2,M,48.5,M,,0000*77
$GPGSA,M,3,13,15,20,28,05,30,,,,,,,3.1,1.6,2.6*37
$GPRMC,155254.000,A,4716.2624,N,00131.2057,W,14.89,119.10,291217,,,A*49
$GPGGA,155255.000,4716.2599,N,00131.2002,W,1,06,1.6,37.8,M,48.5,M,,0000*79
$GPGSA,M,3,13,15,20,28,05,30,,,,,,,3.1,1.6,2.6*37
$GPGSV,3,1,12,13,82,044,30,15,58,298,31,20,49,256,29,28,47,068,36*7C
$GPGSV,3,2,12,05,30,184,38,30,22,063,37,08,01,016,16,17,04,118,24*7C
$GPGSV,3,3,12,18,15,317,36,21,08,289,19,24,22,252,33,33,33,198,*74
$GPRMC,155255.000,A,4716.2599,N,00131.2002,W,14.70,122.30,291217,,,A*41
$GPGGA,155256.000,4716.2572,N,00131.1949,W,1,06,1.6,38.2,M,48.5,M,,0000*7F
$GPGSA,M,3,13,15,20,28,05,30,,,,,,,3.1,1.6,2.6*37
$GPRMC,155256.000,A,4716.2572,N,00131.1949,W,14.64,126.55,291217,,,A*40
arfcn: 122 bsic: 1 rxLev: -82 ber: 0.00 mcc: 208 mnc: 10 lac: 49409 cellId: 25238 cellStatus: CELL_FORBIDDEN numArfcn: 2 arfcn: 88 122 numChannels: 15 array: 77 79 80 81 82 83 113 115 117 119 120 122 124 612 710 pbcch: 0 nom: 2 rac: 30 spgc: 0 pat: 6 nco: 0 t3168: 1000 t3192: 500 drxmax: 4 ctrlAck: 1 bsCVmax: 9 alpha: 10 pcMeasCh: 0 
arfcn: 55 rxLev: -82
arfcn: 56 rxLev: -82
$GPGGA,155257.000,4716.2542,N,00131.1898,W,1,06,1.6,38.4,M,48.5,M,,0000*76
$GPGSA,M,3,13,15,20,28,05,30,,,,,,,3.1,1.6,2.6*37
$GPRMC,155257.000,A,4716.2542,N,00131.1898,W,14.87,130.66,291217,,,A*45
$GPGGA,155258.000,4716.2510,N,00131.1848,W,1,06,1.6,38.4,M,48.5,M,,0000*73
$GPGSA,M,3,13,15,20,28,05,30,,,,,,,3.1,1.6,2.6*37
$GPRMC,155258.000,A,4716.2510,N,00131.1848,W,15.26,132.96,291217,,,A*47
$GPGGA,155259.000,4716.2479,N,00131.1799,W,1,06,1.6,38.3,M,48.5,M,,0000*78
$GPGSA,M,3,13,15,20,28,05,30,,,,,,,3.1,1.6,2.6*37
$GPRMC,155259.000,A,4716.2479,N,00131.1799,W,15.48,133.77,291217,,,A*4D
$GPGGA,155300.000,4716.2448,N,00131.1751,W,1,06,1.6,38.2,M,48.5,M,,0000*72
$GPGSA,M,3,13,15,20,28,05,30,,,,,,,3.1,1.6,2.6*37
$GPGSV,3,1,12,13,82,044,32,15,58,298,34,20,49,256,32,28,47,068,37*70
arfcn: 985 bsic: 14 rxLev: -82 ber: 0.00 mcc: 208 mnc: 20 lac: 420 cellId: 22699 cellStatus: CELL_SUITABLE numArfcn: 2 arfcn: 985 1011 numChannels: 17 array: 876 975 976 977 978 980 981 982 1012 1013 1014 1015 1016 1017 1018 1019 1022 pbcch: 0 nom: 2 rac: 7 spgc: 0 pat: 6 nco: 0 t3168: 1500 t3192: 500 drxmax: 0 ctrlAck: 0 bsCVmax: 8 alpha: 6 pcMeasCh: 1 
arfcn: 71 rxLev: -82
$GPGSV,3,2,12,05,30,184,34,30,22,063,39,08,01,016,21,18,15,317,33*7E
arfcn: 53 rxLev: -83
$GPGSV,3,3,12,21,08,289,19,24,22,252,33,33,33,198,31,17,04,118,*71
$GPRMC,155300.000,A,4716.2448,N,00131.1751,W,15.45,134.63,291217,,,A*49
$GPGGA,155301.000,4716.2417,N,00131.1705,W,1,06,1.6,38.1,M,48.5,M,,0000*7B
$GPGSA,M,3,13,15,20,28,05,30,,,,,,,3.1,1.6,2.6*37
$GPRMC,155301.000,A,4716.2417,N,00131.1705,W,15.15,136.44,291217,,,A*41
$GPGGA,155302.000,4716.2384,N,00131.1661,W,1,06,1.6,38.1,M,48.5,M,,0000*76
arfcn: 1 bsic: 10 rxLev: -83 ber: 0.00 mcc: 208 mnc: 01 lac: 6404 cellId: 8063 cellStatus: CELL_FORBIDDEN numArfcn: 13 arfcn: 1 17 18 19 20 21 22 23 24 25 47 48 49 numChannels: 17 array: 1 3 4 5 6 8 10 11 13 14 15 514 518 605 607 608 610 pbcch: 0 nom: 2 rac: 1 spgc: 1 pat: 6 nco: 0 t3168: 1000 t3192: 500 drxmax: 4 ctrlAck: 1 bsCVmax: 9 alpha: 7 pcMeasCh: 0 
$GPGSA,M,3,13,15,20,28,05,30,,,,,,,3.1,1.6,2.6*37
$GPRMC,155302.000,A,4716.2384,N,00131.1661,W,14.78,138.57,291217,,,A*4A
$GPGGA,155303.000,4716.2351,N,00131.1621,W,1,06,1.6,38.2,M,48.5,M,,0000*78
$GPGSA,M,3,13,15,20,28,05,30,,,,,,,3.1,1.6,2.6*37
$GPRMC,155303.000,A,4716.2351,N,00131.1621,W,14.07,140.69,291217,,,A*4D
$GPGGA,155304.000,4716.2321,N,00131.1586,W,1,06,1.6,38.0,M,48.5,M,,0000*74
$GPGSA,M,3,13,15,20,28,05,30,,,,,,,3.1,1.6,2.6*37
$GPRMC,155304.000,A,4716.2321,N,00131.1586,W,13.43,143.07,291217,,,A*4F
$GPGGA,155305.000,4716.2290,N,00131.1554,W,1,06,1.6,37.7,M,48.5,M,,0000*79
$GPGSA,M,3,13,15,20,28,05,30,,,,,,,3.1,1.6,2.6*37
$GPGSV,3,1,12,13,82,044,24,15,58,298,35,20,49,256,32,28,47,068,37*76
$GPGSV,3,2,12,05,30,184,34,30,22,063,40,08,01,016,16,17,04,118,16*71
$GPGSV,3,3,12,18,15,317,36,21,08,289,23,24,22,252,17,33,33,198,32*7A
arfcn: 13 bsic: 9 rxLev: -84 ber: 0.00 mcc: 208 mnc: 01 lac: 6404 cellId: 871 cellStatus: CELL_FORBIDDEN numArfcn: 13 arfcn: 13 17 18 19 20 21 22 23 24 25 47 48 49 numChannels: 16 array: 1 3 4 5 6 8 10 12 13 14 512 514 518 605 607 610 pbcch: 0 nom: 2 rac: 1 spgc: 1 pat: 6 nco: 0 t3168: 1000 t3192: 500 drxmax: 4 ctrlAck: 1 bsCVmax: 9 alpha: 7 pcMeasCh: 0 
$GPRMC,155305.000,A,4716.2290,N,00131.1554,W,13.19,145.77,291217,,,A*44
$GPGGA,155306.000,4716.2261,N,00131.1525,W,1,06,1.6,37.3,M,48.5,M,,0000*76
$GPGSA,M,3,13,15,20,28,05,30,,,,,,,3.1,1.6,2.6*37
$GPRMC,155306.000,A,4716.2261,N,00131.1525,W,12.40,147.07,291217,,,A*47
$GPGGA,155307.000,4716.2232,N,00131.1498,W,1,06,1.6,37.0,M,48.5,M,,0000*75
$GPGSA,M,3,13,15,20,28,05,30,,,,,,,3.1,1.6,2.6*37
$GPRMC,155307.000,A,4716.2232,N,00131.1498,W,11.81,147.97,291217,,,A*40
$GPGGA,155308.000,4716.2204,N,00131.1474,W,1,06,1.6,36.5,M,48.5,M,,0000*79
$GPGSA,M,3,13,15,20,28,05,30,,,,,,,3.1,1.6,2.6*37
$GPRMC,155308.000,A,4716.2204,N,00131.1474,W,11.34,150.18,291217,,,A*47
$GPGGA,155309.000,4716.2179,N,00131.1454,W,1,06,1.6,36.3,M,48.5,M,,0000*75
$GPGSA,M,3,13,15,20,28,05,30,,,,,,,3.1,1.6,2.6*37
$GPRMC,155309.000,A,4716.2179,N,00131.1454,W,10.55,152.64,291217,,,A*42
$GPGGA,155310.000,4716.2155,N,00131.1439,W,1,06,1.6,35.8,M,48.5,M,,0000*70
$GPGSA,M,3,13,15,20,28,05,30,,,,,,,3.1,1.6,2.6*37
$GPGSV,3,1,12,13,82,044,33,15,58,298,34,20,49,256,34,28,47,068,38*78
$GPGSV,3,2,12,05,30,184,30,30,22,063,39,08,01,016,19,17,04,118,24*75
$GPGSV,3,3,12,18,15,317,29,21,08,289,22,24,22,252,31,33,33,198,30*73
$GPRMC,155310.000,A,4716.2155,N,00131.1439,W,9.92,157.32,291217,,,A*7A
$GPGGA,155311.000,4716.2137,N,00131.1441,W,1,06,1.6,35.3,M,48.5,M,,0000*71
$GPGSA,M,3,13,15,20,28,05,30,,,,,,,3.1,1.6,2.6*37
arfcn: 978 bsic: 9 rxLev: -84 ber: 0.00 mcc: 208 mnc: 20 lac: 420 cellId: 38582 cellStatus: CELL_SUITABLE numArfcn: 1 arfcn: 978 numChannels: 16 array: 876 975 977 978 980 981 983 985 1012 1013 1014 1016 1017 1018 1019 1022 pbcch: 0 nom: 2 rac: 7 spgc: 0 pat: 6 nco: 0 t3168: 1500 t3192: 500 drxmax: 0 ctrlAck: 0 bsCVmax: 8 alpha: 6 pcMeasCh: 1 
arfcn: 990 rxLev: -85
arfcn: 991 rxLev: -85
$GPRMC,155311.000,A,4716.2137,N,00131.1441,W,8.84,170.20,291217,,,A*70
arfcn: 72 rxLev: -85
$GPGGA,155312.000,4716.2112,N,00131.1441,W,1,06,1.6,35.2,M,48.5,M,,0000*74
$GPGSA,M,3,13,15,20,28,05,30,,,,,,,3.1,1.6,2.6*37
$GPRMC,155312.000,A,4716.2112,N,00131.1441,W,8.10,176.51,291217,,,A*79
$GPGGA,155313.000,4716.2089,N,00131.1445,W,1,06,1.6,35.1,M,48.5,M,,0000*71
$GPGSA,M,3,13,15,20,28,05,30,,,,,,,3.1,1.6,2.6*37
$GPRMC,155313.000,A,4716.2089,N,00131.1445,W,8.28,181.08,291217,,,A*70
arfcn: 79 bsic: 55 rxLev: -86 ber: 0.00 mcc: 208 mnc: 10 lac: 49409 cellId: 2099 cellStatus: CELL_FORBIDDEN numArfcn: 3 arfcn: 75 79 89 numChannels: 17 array: 76 77 79 80 82 83 84 86 114 115 116 117 119 122 123 124 612 pbcch: 0 nom: 2 rac: 30 spgc: 0 pat: 6 nco: 0 t3168: 1000 t3192: 500 drxmax: 4 ctrlAck: 1 bsCVmax: 9 alpha: 10 pcMeasCh: 0 
$GPGGA,155314.000,4716.2063,N,00131.1462,W,1,06,1.6,35.5,M,48.5,M,,0000*73
arfcn: 52 rxLev: -86
$GPGSA,M,3,13,15,20,28,05,30,,,,,,,3.1,1.6,2.6*37
$GPRMC,155314.000,A,4716.2063,N,00131.1462,W,9.04,190.11,291217,,,A*71
$GPGGA,155315.000,4716.2035,N,00131.1495,W,1,06,1.6,35.8,M,48.5,M,,0000*74
$GPGSA,M,3,13,15,20,28,05,30,,,,,,,3.1,1.6,2.6*37
$GPGSV,3,1,12,13,82,044,27,15,58,298,30,20,49,256,34,28,47,068,30*71
$GPGSV,3,2,12,05,30,184,28,30,22,063,38,08,01,016,18,17,04,118,14*7F
$GPGSV,3,3,12,18,15,317,24,21,08,289,22,24,22,252,27,33,33,198,33*7A
$GPRMC,155315.000,A,4716.2035,N,00131.1495,W,10.75,201.74,291217,,,A*4D
$GPGGA,155316.000,4716.2006,N,00131.1531,W,1,06,1.6,35.6,M,48.5,M,,0000*76
$GPGSA,M,3,13,15,20,28,05,30,,,,,,,3.1,1.6,2.6*37
$GPRMC,155316.000,A,4716.2006,N,00131.1531,W,12.32,209.05,291217,,,A*4E
arfcn: 115 bsic: 54 rxLev: -86 ber: 0.05 mcc: 208 mnc: 10 lac: 49409 cellId: 2186 cellStatus: CELL_FORBIDDEN numArfcn: 3 arfcn: 77 112 115 numChannels: 15 array: 77 79 81 82 86 115 117 120 122 123 124 612 613 709 710 pbcch: 0 nom: 2 rac: 30 spgc: 0 pat: 6 nco: 0 t3168: 1000 t3192: 500 drxmax: 4 ctrlAck: 1 bsCVmax: 9 alpha: 10 pcMeasCh: 0 
arfcn: 992 rxLev: -86
arfcn: 999 rxLev: -86
$GPGGA,155317.000,4716.1972,N,00131.1577,W,1,06,1.6,35.4,M,48.5,M,,0000*7E
arfcn: 1000 rxLev: -86
$GPGSA,M,3,13,15,20,28,05,30,,,,,,,3.1,1.6,2.6*37
arfcn: 1001 rxLev: -86
arfcn: 998 rxLev: -87
$GPRMC,155317.000,A,4716.1972,N,00131.1577,W,14.30,213.73,291217,,,A*4A
arfcn: 1004 rxLev: -87
arfcn: 993 rxLev: -87
arfcn: 981 rxLev: -87
arfcn: 1005 rxLev: -87
arfcn: 1002 rxLev: -87
arfcn: 1003 rxLev: -87
arfcn: 1006 rxLev: -87
arfcn: 997 rxLev: -87
arfcn: 518 rxLev: -87
$GPGGA,155318.000,4716.1938,N,00131.1619,W,1,06,1.6,35.2,M,48.5,M,,0000*72
arfcn: 994 rxLev: -88
$GPGSA,M,3,13,15,20,28,05,30,,,,,,,3.1,1.6,2.6*37
arfcn: 1007 rxLev: -88
arfcn: 124 rxLev: -88
$GPRMC,155318.000,A,4716.1938,N,00131.1619,W,15.26,214.11,291217,,,A*45
arfcn: 977 rxLev: -89
arfcn: 15 rxLev: -89
arfcn: 1008 rxLev: -89
arfcn: 995 rxLev: -89
arfcn: 979 rxLev: -89
$GPGGA,155319.000,4716.1903,N,00131.1655,W,1,06,1.6,35.2,M,48.5,M,,0000*73
$GPGSA,M,3,13,15,20,28,05,30,,,,,,,3.1,1.6,2.6*37
$GPRMC,155319.000,A,4716.1903,N,00131.1655,W,15.53,212.12,291217,,,A*43
$GPGGA,155320.000,4716.1868,N,00131.1691,W,1,06,1.6,35.1,M,48.5,M,,0000*7E
$GPGSA,M,3,13,15,20,28,05,30,,,,,,,3.1,1.6,2.6*37
$GPGSV,3,1,12,13,82,044,21,15,58,298,41,20,49,256,38,28,47,068,34*79
$GPGSV,3,2,12,05,30,184,35,30,22,063,21,08,01,016,17,18,15,317,27*76
$GPGSV,3,3,12,21,08,289,34,24,22,252,36,33,33,198,29,17,04,118,*72
$GPRMC,155320.000,A,4716.1868,N,00131.1691,W,15.90,209.46,291217,,,A*49
$GPGGA,155321.000,4716.1827,N,00131.1739,W,1,06,1.6,34.4,M,48.5,M,,0000*73
$GPGSA,M,3,13,15,20,28,05,30,,,,,,,3.1,1.6,2.6*37
$GPRMC,155321.000,A,4716.1827,N,00131.1739,W,16.41,206.67,291217,,,A*43
$GPGGA,155322.000,4716.1781,N,00131.1776,W,1,06,1.6,33.9,M,48.5,M,,0000*72
$GPGSA,M,3,13,15,20,28,05,30,,,,,,,3.1,1.6,2.6*37
$GPRMC,155322.000,A,4716.1781,N,00131.1776,W,17.11,203.98,291217,,,A*49
$GPGGA,155323.000,4716.1734,N,00131.1812,W,1,06,1.6,34.1,M,48.5,M,,0000*7F
$GPGSA,M,3,13,15,20,28,05,30,,,,,,,3.1,1.6,2.6*37
$GPRMC,155323.000,A,4716.1734,N,00131.1812,W,17.54,203.38,291217,,,A*40
$GPGGA,155324.000,4716.1688,N,00131.1845,W,1,06,1.6,34.3,M,48.5,M,,0000*7E
$GPGSA,M,3,13,15,20,28,05,30,,,,,,,3.1,1.6,2.6*37
$GPRMC,155324.000,A,4716.1688,N,00131.1845,W,17.42,204.26,291217,,,A*4C
$GPGGA,155325.000,4716.1643,N,00131.1879,W,1,06,1.6,34.4,M,48.5,M,,0000*70
$GPGSA,M,3,13,15,20,28,05,30,,,,,,,3.1,1.6,2.6*37
$GPGSV,3,1,12,13,82,044,22,15,58,298,34,20,49,256,31,28,47,068,36*73
$GPGSV,3,2,12,05,30,184,40,30,22,063,34,08,01,016,15,17,04,118,20*77
$GPGSV,3,3,12,18,15,317,22,24,22,252,27,33,33,198,25,21,08,289,*7B
$GPRMC,155325.000,A,4716.1643,N,00131.1879,W,16.62,206.90,291217,,,A*49
$GPGGA,155326.000,4716.1604,N,00131.1915,W,1,06,1.6,34.9,M,48.5,M,,0000*76
$GPGSA,M,3,13,15,20,28,05,30,,,,,,,3.1,1.6,2.6*37
$GPRMC,155326.000,A,4716.1604,N,00131.1915,W,15.82,208.89,291217,,,A*49
$GPGGA,155327.000,4716.1571,N,00131.1951,W,1,06,1.6,35.0,M,48.5,M,,0000*7E
$GPGSA,M,3,13,15,20,28,05,30,,,,,,,3.1,1.6,2.6*37
$GPRMC,155327.000,A,4716.1571,N,00131.1951,W,14.94,209.41,291217,,,A*4A
$GPGGA,155328.000,4716.1536,N,00131.1981,W,1,06,1.6,34.9,M,48.5,M,,0000*77
$GPGSA,M,3,13,15,20,28,05,30,,,,,,,3.1,1.6,2.6*37
$GPRMC,155328.000,A,4716.1536,N,00131.1981,W,13.97,207.46,291217,,,A*46
arfcn: 975 bsic: 57 rxLev: -89 ber: 9.01 mcc: 208 mnc: 20 lac: 420 cellId: 38811 cellStatus: CELL_SUITABLE numArfcn: 3 arfcn: 975 1011 1021 numChannels: 15 array: 975 977 978 980 981 982 984 1011 1012 1014 1016 1017 1018 1019 1020
arfcn: 98 rxLev: -90
arfcn: 10 rxLev: -90
$GPGGA,155329.000,4716.1505,N,00131.2011,W,1,06,1.6,34.7,M,48.5,M,,0000*7B
arfcn: 3 rxLev: -90
arfcn: 996 rxLev: -90
$GPGSA,M,3,13,15,20,28,05,30,,,,,,,3.1,1.6,2.6*37
arfcn: 605 rxLev: -90
$GPRMC,155329.000,A,4716.1505,N,00131.2011,W,13.29,205.89,291217,,,A*40
arfcn: 607 rxLev: -90
$GPGGA,155330.000,4716.1473,N,00131.2041,W,1,06,1.6,34.7,M,48.5,M,,0000*76
$GPGSA,M,3,13,15,20,28,05,30,,,,,,,3.1,1.6,2.6*37
$GPGSV,3,1,12,13,82,044,21,15,58,298,40,20,49,256,33,28,47,068,37*70
$GPGSV,3,2,12,05,30,184,41,30,22,063,21,08,01,016,14,17,04,118,33*71
$GPGSV,3,3,12,18,15,317,24,21,08,289,19,24,22,252,36,39,32,144,*78
$GPRMC,155330.000,A,4716.1473,N,00131.2041,W,13.76,208.08,291217,,,A*43
$GPGGA,155331.000,4716.1439,N,00131.2072,W,1,06,1.6,35.1,M,48.5,M,,0000*7E
$GPGSA,M,3,13,15,20,28,05,30,,,,,,,3.1,1.6,2.6*37
$GPRMC,155331.000,A,4716.1439,N,00131.2072,W,14.13,212.37,291217,,,A*4F
$GPGGA,155332.000,4716.1405,N,00131.2106,W,1,06,1.6,35.5,M,48.5,M,,0000*74
$GPGSA,M,3,13,15,20,28,05,30,,,,,,,3.1,1.6,2.6*37
$GPRMC,155332.000,A,4716.1405,N,00131.2106,W,14.57,214.87,291217,,,A*4C
arfcn: 1022 bsic: 13 rxLev: -90 ber: 0.01 mcc: 208 mnc: 20 lac: 420 cellId: 20946 cellStatus: CELL_SUITABLE numArfcn: 1 arfcn: 1022 numChannels: 17 array: 876 883 975 976 977 978 980 981 982 983 984 1013 1014 1016 1017 1018 1022 pbcch: 0 nom: 2 rac: 7 spgc: 0 pat: 6 nco: 0 t3168: 1500 t3192: 500 drxmax: 0 ctrlAck: 0 bsCVmax: 8 alpha: 6 pcMeasCh: 1 
arfcn: 96 rxLev: -90
$GPGGA,155333.000,4716.1367,N,00131.2143,W,1,06,1.6,36.3,M,48.5,M,,0000*72
arfcn: 97 rxLev: -90
$GPGSA,M,3,13,15,20,28,05,30,,,,,,,3.1,1.6,2.6*37
$GPRMC,155333.000,A,4716.1367,N,00131.2143,W,16.43,214.34,291217,,,A*40
$GPGGA,155334.000,4716.1325,N,00131.2179,W,1,06,1.6,36.3,M,48.5,M,,0000*7A
$GPGSA,M,3,13,15,20,28,05,30,,,,,,,3.1,1.6,2.6*37
$GPRMC,155334.000,A,4716.1325,N,00131.2179,W,17.62,211.16,291217,,,A*4F
arfcn: 83 bsic: 36 rxLev: -90 ber: 0.00 mcc: 208 mnc: 10 lac: 49409 cellId: 25240 cellStatus: CELL_FORBIDDEN numArfcn: 2 arfcn: 83 111 numChannels: 10 array: 78 80 81 83 113 115 117 119 122 124 pbcch: 0 nom: 2 rac: 30 spgc: 0 pat: 6 nco: 0 t3168: 1000 t3192: 500 drxmax: 4 ctrlAck: 1 bsCVmax: 9 alpha: 10 pcMeasCh: 0 
$GPGGA,155335.000,4716.1283,N,00131.2215,W,1,06,1.6,36.1,M,48.5,M,,0000*7D
$GPGSA,M,3,13,15,20,28,05,30,,,,,,,3.0,1.6,2.6*36
$GPGSV,3,1,12,13,82,044,21,15,58,298,39,20,49,256,38,28,47,068,30*72
$GPGSV,3,2,12,05,30,184,34,30,22,063,26,08,01,016,13,17,04,118,25*74
$GPGSV,3,3,12,21,08,289,19,24,22,252,19,39,32,144,,18,15,317,*73
$GPRMC,155335.000,A,4716.1283,N,00131.2215,W,17.81,211.32,291217,,,A*41
$GPGGA,155336.000,4716.1242,N,00131.2253,W,1,06,1.6,36.0,M,48.5,M,,0000*70
$GPGSA,M,3,13,15,20,28,05,30,,,,,,,3.0,1.6,2.6*36
$GPRMC,155336.000,A,4716.1242,N,00131.2253,W,17.17,210.73,291217,,,A*46
$GPGGA,155337.000,4716.1204,N,00131.2294,W,1,06,1.6,35.4,M,48.5,M,,0000*7F
$GPGSA,M,3,13,15,20,28,05,30,,,,,,,3.0,1.6,2.6*36
$GPRMC,155337.000,A,4716.1204,N,00131.2294,W,16.98,213.96,291217,,,A*40
arfcn: 82 bsic: 45 rxLev: -91 ber: 1.01 mcc: 208 mnc: 10 lac: 49409 cellId: 60967 cellStatus: CELL_FORBIDDEN numArfcn: 3 arfcn: 82 112 116 numChannels: 11 array: 78 80 82 86 114 117 119 120 121 122 124 pbcch: 0 nom: 2 rac: 30 spgc: 0 pat: 6 nco: 0 t3168: 1000 t3192: 500 drxmax: 4 ctrlAck: 1 bsCVmax: 9 alpha: 10 pcMeasCh: 0 
arfcn: 94 rxLev: -91
$GPGGA,155338.000,4716.1172,N,00131.2341,W,1,06,1.6,35.1,M,48.5,M,,0000*7E
$GPGSA,M,3,13,15,20,28,05,30,,,,,,,3.0,1.6,2.6*36
$GPRMC,155338.000,A,4716.1172,N,00131.2341,W,16.38,221.34,291217,,,A*47
$GPGGA,155339.000,4716.1145,N,00131.2396,W,1,06,1.6,33.3,M,48.5,M,,0000*75
$GPGSA,M,3,13,15,20,28,05,30,,,,,,,3.0,1.6,2.6*36
$GPRMC,155339.000,A,4716.1145,N,00131.2396,W,15.66,227.95,291217,,,A*4D
$GPGGA,155340.000,4716.1119,N,00131.2449,W,1,06,1.6,31.6,M,48.5,M,,0000*70
$GPGSA,M,3,13,15,20,28,05,30,,,,,,,3.0,1.6,2.6*36
$GPGSV,3,1,12,13,82,044,21,15,58,298,33,20,49,256,37,28,47,068,42*72
$GPGSV,3,2,12,05,30,184,40,30,22,063,36,08,01,016,12,24,22,252,19*71
$GPGSV,3,3,12,39,32,144,,18,15,317,,21,08,289,,17,04,118,*7A
$GPRMC,155340.000,A,4716.1119,N,00131.2449,W,15.09,232.60,291217,,,A*48
$GPGGA,155341.000,4716.1097,N,00131.2498,W,1,06,1.6,30.8,M,48.5,M,,0000*75
$GPGSA,M,3,13,15,20,28,05,30,,,,,,,3.0,1.6,2.6*36
$GPRMC,155341.000,A,4716.1097,N,00131.2498,W,14.45,234.65,291217,,,A*48
arfcn: 4 bsic: 52 rxLev: -91 ber: 0.00 mcc: 208 mnc: 01 lac: 6404 cellId: 7370 cellStatus: CELL_FORBIDDEN numArfcn: 13 arfcn: 4 17 18 19 20 21 22 23 24 25 47 48 49 numChannels: 22 array: 1 2 3 4 5 6 7 10 11 12 13 14 512 514 515 516 518 604 605 606 607 609 pbcch: 0 nom: 2 rac: 1 spgc: 1 pat: 6 nco: 0 t3168: 1000 t3192: 500 drxmax: 4 ctrlAck: 1 bsCVmax: 9 alpha: 7 pcMeasCh: 0 
arfcn: 95 rxLev: -91
arfcn: 73 rxLev: -91
$GPGGA,155342.000,4716.1075,N,00131.2544,W,1,06,1.6,30.1,M,48.5,M,,0000*73
arfcn: 99 rxLev: -91
$GPGSA,M,3,13,15,20,28,05,30,,,,,,,3.0,1.6,2.6*36
$GPRMC,155342.000,A,4716.1075,N,00131.2544,W,13.86,234.82,291217,,,A*46
$GPGGA,155343.000,4716.1055,N,00131.2590,W,1,06,1.6,29.5,M,48.5,M,,0000*75
$GPGSA,M,3,13,15,20,28,05,30,,,,,,,3.0,1.6,2.6*36
$GPRMC,155343.000,A,4716.1055,N,00131.2590,W,13.30,235.67,291217,,,A*4B
$GPGGA,155344.000,4716.1037,N,00131.2634,W,1,06,1.6,28.5,M,48.5,M,,0000*7A
$GPGSA,M,3,13,15,20,28,05,30,,,,,,,3.0,1.6,2.6*36
$GPRMC,155344.000,A,4716.1037,N,00131.2634,W,12.49,235.55,291217,,,A*4B
$GPGGA,155345.000,4716.1015,N,00131.2677,W,1,06,1.6,27.7,M,48.5,M,,0000*71
$GPGSA,M,3,13,15,20,28,05,30,,,,,,,3.0,1.6,2.6*36
$GPGSV,3,1,12,13,82,044,22,15,58,298,42,20,49,256,36,28,47,068,33*70
$GPGSV,3,2,12,05,30,184,29,30,22,063,35,17,04,118,25,18,15,317,35*78
$GPGSV,3,3,12,24,22,252,32,39,32,144,,21,08,289,,08,01,016,*74
arfcn: 512 bsic: 6 rxLev: -91 ber: 0.00 mcc: 208 mnc: 01 lac: 6404 cellId: 27929 cellStatus: CELL_FORBIDDEN numArfcn: 17 arfcn: 512 519 520 521 522 523 524 525 526 596 597 598 599 600 601 602 603 numChannels: 21 array: 2 3 4 6 7 10 12 13 512 513 514 515 516 517 518 604 605 606 607 609 610 pbcch: 0 nom: 2 rac: 1 spgc: 1 pat: 6 nco: 0 t3168: 1000 t3192: 500 drxmax: 4 ctrlAck: 1 bsCVmax: 9 alpha: 7 pcMeasCh: 0 
arfcn: 100 rxLev: -92
arfcn: 101 rxLev: -92
$GPRMC,155345.000,A,4716.1015,N,00131.2677,W,13.23,234.24,291217,,,A*47
arfcn: 102 rxLev: -92
arfcn: 93 rxLev: -92
$GPGGA,155346.000,4716.0992,N,00131.2722,W,1,06,1.6,27.0,M,48.5,M,,0000*73
$GPGSA,M,3,13,15,20,28,05,30,,,,,,,3.0,1.6,2.6*36
$GPRMC,155346.000,A,4716.0992,N,00131.2722,W,14.19,233.27,291217,,,A*48
$GPGGA,155347.000,4716.0969,N,00131.2770,W,1,06,1.6,26.3,M,48.5,M,,0000*73
$GPGSA,M,3,13,15,20,28,05,30,,,,,,,3.0,1.6,2.6*36
$GPRMC,155347.000,A,4716.0969,N,00131.2770,W,14.31,233.64,291217,,,A*47
arfcn: 6 bsic: 27 rxLev: -92 ber: 0.00 mcc: 208 mnc: 01 lac: 6403 cellId: 8054 cellStatus: CELL_FORBIDDEN numArfcn: 13 arfcn: 6 17 18 19 20 21 22 23 24 25 47 48 49 numChannels: 17 array: 2 3 4 6 9 10 13 15 512 514 515 518 604 605 607 608 610 pbcch: 0 nom: 2 rac: 1 spgc: 0 pat: 6 nco: 0 t3168: 1000 t3192: 500 drxmax: 2 ctrlAck: 0 bsCVmax: 9 alpha: 10 pcMeasCh: 1 
arfcn: 25 rxLev: -92
arfcn: 47 rxLev: -92
arfcn: 92 rxLev: -92
arfcn: 103 rxLev: -92
arfcn: 104 rxLev: -92
arfcn: 106 rxLev: -92
arfcn: 107 rxLev: -92
arfcn: 123 rxLev: -92
$GPGGA,155348.000,4716.0947,N,00131.2818,W,1,06,1.6,25.6,M,48.5,M,,0000*77
arfcn: 1021 rxLev: -92
arfcn: 984 rxLev: -93
$GPGSA,M,3,13,15,20,28,05,30,,,,,,,3.0,1.6,2.6*36
arfcn: 105 rxLev: -93
arfcn: 108 rxLev: -93
$GPRMC,155348.000,A,4716.0947,N,00131.2818,W,13.94,234.13,291217,,,A*4A
arfcn: 78 rxLev: -93
$GPGGA,155349.000,4716.0924,N,00131.2866,W,1,06,1.6,25.0,M,48.5,M,,0000*7C
$GPGSA,M,3,13,15,20,28,05,30,,,,,,,3.0,1.6,2.6*36
$GPRMC,155349.000,A,4716.0924,N,00131.2866,W,14.49,234.18,291217,,,A*4B
arfcn: 14 bsic: 14 rxLev: -93 ber: 14.07 mcc: FFF mnc: FF lac: 65535 cellId: 0 cellStatus: CELL_OTHER numArfcn: 0 arfcn: numChannels: 0 array:
$GPGGA,155350.000,4716.0900,N,00131.2917,W,1,06,1.6,24.4,M,48.5,M,,0000*70
arfcn: 725 rxLev: -93
arfcn: 739 rxLev: -93
$GPGSA,M,3,13,15,20,28,05,30,,,,,,,3.0,1.6,2.6*36
arfcn: 740 rxLev: -93
arfcn: 51 rxLev: -93
$GPGSV,3,1,12,13,82,044,21,15,58,298,41,20,49,256,36,28,47,068,33*70
arfcn: 91 rxLev: -93
arfcn: 121 rxLev: -93
$GPGSV,3,2,12,05,30,184,38,30,22,063,35,17,04,118,24,21,08,289,21*7C
arfcn: 983 rxLev: -93
$GPGSV,3,3,12,24,22,252,33,39,32,144,,18,15,317,,08,01,016,*75
$GPRMC,155350.000,A,4716.0900,N,00131.2917,W,15.70,234.07,291217,,,A*47
$GPGGA,155351.000,4716.0873,N,00131.2972,W,1,06,1.6,23.9,M,48.5,M,,0000*7D
$GPGSA,M,3,13,15,20,28,05,30,,,,,,,3.0,1.6,2.6*36
$GPRMC,155351.000,A,4716.0873,N,00131.2972,W,17.08,233.53,291217,,,A*4B
$GPGGA,155352.000,4716.0842,N,00131.3030,W,1,06,1.6,23.4,M,48.5,M,,0000*7F
$GPGSA,M,3,13,15,20,28,05,30,,,,,,,3.0,1.6,2.6*36
$GPRMC,155352.000,A,4716.0842,N,00131.3030,W,18.34,232.23,291217,,,A*42
$GPGGA,155353.000,4716.0811,N,00131.3090,W,1,06,1.6,23.0,M,48.5,M,,0000*76
$GPGSA,M,3,13,15,20,28,05,30,,,,,,,3.0,1.6,2.6*36
$GPRMC,155353.000,A,4716.0811,N,00131.3090,W,18.26,234.49,291217,,,A*46
$GPGGA,155354.000,4716.0782,N,00131.3152,W,1,06,1.6,22.5,M,48.5,M,,0000*7F
$GPGSA,M,3,13,15,20,28,05,30,,,,,,,3.0,1.6,2.6*36
$GPRMC,155354.000,A,4716.0782,N,00131.3152,W,18.20,235.83,291217,,,A*4A
$GPGGA,155355.000,4716.0756,N,00131.3215,W,1,06,1.6,22.1,M,48.5,M,,0000*73
$GPGSA,M,3,13,15,20,28,05,30,,,,,,,3.0,1.6,2.6*36
$GPGSV,3,1,12,13,82,044,21,15,58,298,34,20,49,256,37,28,47,068,34*74
$GPGSV,3,2,12,05,30,184,41,30,22,063,35,17,04,118,28,18,15,317,28*77
arfcn: 1018 bsic: 36 rxLev: -94 ber: 0.06 mcc: 208 mnc: 20 lac: 420 cellId: 40438 cellStatus: CELL_SUITABLE numArfcn: 2 arfcn: 986 1018 numChannels: 16 array: 876 975 977 978 980 982 984 985 1011 1012 1013 1014 1016 1018 1020 1022 pbcch: 0 nom: 2 rac: 7 spgc: 0 pat: 6 nco: 0 t3168: 1500 t3192: 500 drxmax: 0 ctrlAck: 0 bsCVmax: 8 alpha: 6 pcMeasCh: 1 
arfcn: 976 rxLev: -94
$GPGSV,3,3,12,21,08,289,19,24,22,252,26,39,32,144,,08,01,016,*79
arfcn: 109 rxLev: -94
arfcn: 8 rxLev: -94
$GPRMC,155355.000,A,4716.0756,N,00131.3215,W,17.93,236.49,291217,,,A*40
arfcn: 5 rxLev: -94
arfcn: 733 rxLev: -94
arfcn: 734 rxLev: -94
$GPGGA,155356.000,4716.0729,N,00131.3275,W,1,06,1.6,21.9,M,48.5,M,,0000*75
arfcn: 742 rxLev: -94
arfcn: 744 rxLev: -94
$GPGSA,M,3,13,15,20,28,05,30,,,,,,,3.0,1.6,2.6*36
arfcn: 726 rxLev: -94
arfcn: 720 rxLev: -94
$GPRMC,155356.000,A,4716.0729,N,00131.3275,W,17.54,236.11,291217,,,A*4B
arfcn: 767 rxLev: -94
arfcn: 757 rxLev: -94
arfcn: 827 rxLev: -94
arfcn: 718 rxLev: -94
arfcn: 729 rxLev: -94
arfcn: 748 rxLev: -94
arfcn: 736 rxLev: -94
arfcn: 738 rxLev: -94
$GPGGA,155357.000,4716.0704,N,00131.3334,W,1,06,1.6,21.6,M,48.5,M,,0000*70
arfcn: 715 rxLev: -94
arfcn: 989 rxLev: -94
$GPGSA,M,3,13,15,20,28,05,30,,,,,,,3.0,1.6,2.6*36
$GPRMC,155357.000,A,4716.0704,N,00131.3334,W,16.89,235.38,291217,,,A*48
$GPGGA,155358.000,4716.0680,N,00131.3391,W,1,06,1.6,21.5,M,48.5,M,,0000*7E
$GPGSA,M,3,13,15,20,28,05,30,,,,,,,3.0,1.6,2.6*36
$GPRMC,155358.000,A,4716.0680,N,00131.3391,W,16.46,236.02,291217,,,A*4C
$GPGGA,155359.000,4716.0656,N,00131.3447,W,1,06,1.6,21.1,M,48.5,M,,0000*7C
$GPGSA,M,3,13,15,20,28,05,30,,,,,,,3.0,1.6,2.6*36
$GPRMC,155359.000,A,4716.0656,N,00131.3447,W,16.25,235.56,291217,,,A*4D
$GPGGA,155400.000,4716.0630,N,00131.3503,W,1,06,1.6,20.8,M,48.5,M,,0000*7E
$GPGSA,M,3,13,15,20,28,05,30,,,,,,,3.0,1.6,2.6*36
$GPGSV,3,1,12,13,82,044,21,15,58,298,37,20,49,256,34,28,47,068,32*72
$GPGSV,3,2,12,05,30,184,40,30,22,063,30,17,04,118,26,18,15,317,29*7C
$GPGSV,3,3,12,21,08,289,18,24,22,252,33,33,33,198,33,08,01,016,*76
$GPRMC,155400.000,A,4716.0630,N,00131.3503,W,17.19,235.46,291217,,,A*48
$GPGGA,155401.000,4716.0603,N,00131.3562,W,1,06,1.6,20.5,M,48.5,M,,0000*75
$GPGSA,M,3,13,15,20,28,05,30,,,,,,,3.0,1.6,2.6*36
$GPRMC,155401.000,A,4716.0603,N,00131.3562,W,17.97,235.94,291217,,,A*47
$GPGGA,155402.000,4716.0576,N,00131.3624,W,1,06,1.6,20.3,M,48.5,M,,0000*70
$GPGSA,M,3,13,15,20,28,05,30,,,,,,,3.0,1.6,2.6*36
$GPRMC,155402.000,A,4716.0576,N,00131.3624,W,18.55,236.53,291217,,,A*4D
arfcn: 1020 bsic: 62 rxLev: -95 ber: 13.02 mcc: 208 mnc: 20 lac: 420 cellId: 21522 cellStatus: CELL_SUITABLE numArfcn: 3 arfcn: 984 986 1020 numChannels: 15 array: 975 976 977 978 980 981 982 986 987 1011 1012 1013 1014 1015 1020
arfcn: 12 rxLev: -95
$GPGGA,155403.000,4716.0548,N,00131.3687,W,1,06,1.6,20.1,M,48.5,M,,0000*77
$GPGSA,M,3,13,15,20,28,05,30,,,,,,,3.0,1.6,2.6*36
$GPRMC,155403.000,A,4716.0548,N,00131.3687,W,18.92,235.99,291217,,,A*46
$GPGGA,155404.000,4716.0517,N,00131.3751,W,1,06,1.6,20.1,M,48.5,M,,0000*70
$GPGSA,M,3,13,15,20,28,05,30,,,,,,,3.0,1.6,2.6*36
$GPRMC,155404.000,A,4716.0517,N,00131.3751,W,19.21,234.35,291217,,,A*4F
$GPGGA,155405.000,4716.0487,N,00131.3816,W,1,06,1.6,19.4,M,48.5,M,,0000*7A
$GPGSA,M,3,13,15,20,28,05,30,,,,,,,3.0,1.6,2.6*36
$GPGSV,3,1,12,13,82,044,20,15,58,298,31,20,49,256,37,28,47,068,42*71
$GPGSV,3,2,12,05,30,184,36,30,22,063,39,17,04,118,22,24,22,252,33*70
arfcn: 117 bsic: 15 rxLev: -95 ber: 0.00 mcc: 208 mnc: 10 lac: 49409 cellId: 34419 cellStatus: CELL_FORBIDDEN numArfcn: 4 arfcn: 75 87 112 117 numChannels: 16 array: 76 77 79 80 83 86 114 115 116 117 119 120 121 122 123 124 pbcch: 0 nom: 2 rac: 30 spgc: 0 pat: 6 nco: 0 t3168: 1000 t3192: 500 drxmax: 4 ctrlAck: 1 bsCVmax: 9 alpha: 10 pcMeasCh: 0 
arfcn: 735 rxLev: -95
$GPGSV,3,3,12,33,33,198,31,18,15,317,,21,08,289,,08,01,016,*76
$GPRMC,155405.000,A,4716.0487,N,00131.3816,W,19.54,233.01,291217,,,A*48
arfcn: 746 rxLev: -95
arfcn: 743 rxLev: -95
arfcn: 826 rxLev: -95
$GPGGA,155406.000,4716.0454,N,00131.3880,W,1,06,1.6,18.7,M,48.5,M,,0000*7A
arfcn: 828 rxLev: -95
$GPGSA,M,3,13,15,20,28,05,30,,,,,,,3.0,1.6,2.6*36
arfcn: 825 rxLev: -95
arfcn: 814 rxLev: -95
$GPRMC,155406.000,A,4716.0454,N,00131.3880,W,19.67,231.52,291217,,,A*4E
arfcn: 817 rxLev: -95
arfcn: 806 rxLev: -95
arfcn: 763 rxLev: -95
arfcn: 750 rxLev: -95
arfcn: 830 rxLev: -95
arfcn: 831 rxLev: -95
arfcn: 832 rxLev: -95
arfcn: 837 rxLev: -95
arfcn: 838 rxLev: -95
$GPGGA,155407.000,4716.0420,N,00131.3944,W,1,06,1.6,18.0,M,48.5,M,,0000*76
arfcn: 840 rxLev: -95
$GPGSA,M,3,13,15,20,28,05,30,,,,,,,3.0,1.6,2.6*36
arfcn: 844 rxLev: -95
arfcn: 845 rxLev: -95
$GPRMC,155407.000,A,4716.0420,N,00131.3944,W,19.54,231.72,291217,,,A*47
arfcn: 849 rxLev: -95
arfcn: 850 rxLev: -95
arfcn: 851 rxLev: -95
arfcn: 856 rxLev: -95
arfcn: 756 rxLev: -95
arfcn: 768 rxLev: -95
arfcn: 807 rxLev: -95
arfcn: 812 rxLev: -95
$GPGGA,155408.000,4716.0387,N,00131.4006,W,1,06,1.6,17.4,M,48.5,M,,0000*70
arfcn: 813 rxLev: -95
$GPGSA,M,3,13,15,20,28,05,30,,,,,,,3.0,1.6,2.6*36
arfcn: 803 rxLev: -95
arfcn: 804 rxLev: -95
$GPRMC,155408.000,A,4716.0387,N,00131.4006,W,18.98,230.83,291217,,,A*44
arfcn: 805 rxLev: -95
arfcn: 815 rxLev: -95
arfcn: 818 rxLev: -95
arfcn: 819 rxLev: -95
arfcn: 824 rxLev: -95
arfcn: 823 rxLev: -95
arfcn: 829 rxLev: -95
arfcn: 741 rxLev: -95
arfcn: 747 rxLev: -95
$GPGGA,155409.000,4716.0354,N,00131.4065,W,1,06,1.6,16.7,M,48.5,M,,0000*78
arfcn: 732 rxLev: -95
$GPGSA,M,3,13,15,20,28,05,30,,,,,,,3.0,1.6,2.6*36
arfcn: 728 rxLev: -95
arfcn: 609 rxLev: -95
$GPRMC,155409.000,A,4716.0354,N,00131.4065,W,18.36,229.97,291217,,,A*47
arfcn: 610 rxLev: -95
$GPGGA,155410.000,4716.0322,N,00131.4122,W,1,06,1.6,16.0,M,48.5,M,,0000*74
$GPGSA,M,3,13,15,20,28,05,30,,,,,,,3.0,1.6,2.6*36
$GPGSV,3,1,12,13,82,044,20,15,58,298,39,20,49,256,37,28,47,068,41*7A
$GPGSV,3,2,12,05,30,184,37,30,22,063,39,18,15,317,30,24,22,252,28*7A
$GPGSV,3,3,12,33,33,198,28,21,08,289,,17,04,118,,08,01,016,*7C
$GPRMC,155410.000,A,4716.0322,N,00131.4122,W,17.74,228.56,291217,,,A*49
$GPGGA,155411.000,4716.0290,N,00131.4177,W,1,06,1.6,15.4,M,48.5,M,,0000*7A
$GPGSA,M,3,13,15,20,28,05,30,,,,,,,3.0,1.6,2.6*36
$GPRMC,155411.000,A,4716.0290,N,00131.4177,W,17.27,228.28,291217,,,A*4F
$GPGGA,155412.000,4716.0259,N,00131.4231,W,1,06,1.6,14.9,M,48.5,M,,0000*71
$GPGSA,M,3,13,15,20,28,05,30,,,,,,,3.0,1.6,2.6*36
$GPRMC,155412.000,A,4716.0259,N,00131.4231,W,16.93,227.32,291217,,,A*42
arfcn: 1012 bsic: 45 rxLev: -96 ber: 0.00 mcc: 208 mnc: 20 lac: 420 cellId: 40437 cellStatus: CELL_SUITABLE numArfcn: 2 arfcn: 1010 1012 numChannels: 16 array: 789 876 975 977 978 980 984 985 1011 1013 1014 1015 1016 1017 1018 1019 pbcch: 0 nom: 2 rac: 7 spgc: 0 pat: 6 nco: 0 t3168: 1500 t3192: 500 drxmax: 0 ctrlAck: 0 bsCVmax: 8 alpha: 6 pcMeasCh: 1 
arfcn: 1014 rxLev: -96
arfcn: 1016 rxLev: -96
$GPGGA,155413.000,4716.0229,N,00131.4281,W,1,06,1.6,14.5,M,48.5,M,,0000*70
$GPGSA,M,3,13,15,20,28,05,30,,,,,,,3.0,1.6,2.6*36
$GPRMC,155413.000,A,4716.0229,N,00131.4281,W,16.19,227.73,291217,,,A*48
$GPGGA,155414.000,4716.0199,N,00131.4328,W,1,06,1.6,14.1,M,48.5,M,,0000*79
$GPGSA,M,3,13,15,20,28,05,30,,,,,,,3.0,1.6,2.6*36
$GPRMC,155414.000,A,4716.0199,N,00131.4328,W,15.62,226.71,291217,,,A*49
arfcn: 514 bsic: 39 rxLev: -96 ber: 0.08 mcc: 208 mnc: 01 lac: 6403 cellId: 28014 cellStatus: CELL_FORBIDDEN numArfcn: 16 arfcn: 519 520 521 522 523 524 525 526 596 597 598 599 600 601 602 603 numChannels: 12 array: 2 3 6 9 13 515 518 604 605 607 608 610 pbcch: 0 nom: 2 rac: 1 spgc: 0 pat: 6 nco: 0 t3168: 1000 t3192: 500 drxmax: 2 ctrlAck: 0 bsCVmax: 9 alpha: 10 pcMeasCh: 1 
arfcn: 118 rxLev: -96
arfcn: 119 rxLev: -96
$GPGGA,155415.000,4716.0167,N,00131.4370,W,1,06,1.6,14.4,M,48.5,M,,0000*71
arfcn: 90 rxLev: -96
$GPGSA,M,3,13,15,20,28,05,30,,,,,,,3.0,1.6,2.6*36
arfcn: 77 rxLev: -96
$GPGSV,3,1,12,13,82,044,27,15,58,298,32,20,49,256,32,28,47,068,33*76
$GPGSV,3,2,12,05,30,184,35,30,22,063,31,24,22,252,17,33,33,198,36*72
$GPGSV,3,3,12,18,15,317,,21,08,289,,17,04,118,,08,01,016,*7E
$GPRMC,155415.000,A,4716.0167,N,00131.4370,W,15.03,222.18,291217,,,A*48
$GPGGA,155416.000,4716.0135,N,00131.4409,W,1,06,1.6,14.3,M,48.5,M,,0000*7B
$GPGSA,M,3,13,15,20,28,05,30,,,,,,,3.0,1.6,2.6*36
$GPRMC,155416.000,A,4716.0135,N,00131.4409,W,14.09,220.45,291217,,,A*44
$GPGGA,155417.000,4716.0107,N,00131.4447,W,1,06,1.6,14.7,M,48.5,M,,0000*75
$GPGSA,M,3,13,15,20,28,05,30,,,,,,,3.0,1.6,2.6*36
$GPRMC,155417.000,A,4716.0107,N,00131.4447,W,13.55,223.80,291217,,,A*4A
$GPGGA,155418.000,4716.0082,N,00131.4485,W,1,06,1.6,15.1,M,48.5,M,,0000*7F
$GPGSA,M,3,13,15,20,28,05,30,,,,,,,3.0,1.6,2.6*36
$GPRMC,155418.000,A,4716.0082,N,00131.4485,W,12.00,225.41,291217,,,A*4D
$GPGGA,155419.000,4716.0061,N,00131.4520,W,1,06,1.6,15.4,M,48.5,M,,0000*78
$GPGSA,M,3,13,15,20,28,05,30,,,,,,,3.0,1.6,2.6*36
arfcn: 2 bsic: 5 rxLev: -96 ber: 0.00 mcc: 208 mnc: 01 lac: 6403 cellId: 8055 cellStatus: CELL_FORBIDDEN numArfcn: 13 arfcn: 2 17 18 19 20 21 22 23 24 25 47 48 49 numChannels: 14 array: 2 4 6 7 8 9 512 514 515 516 604 606 608 610 pbcch: 0 nom: 2 rac: 1 spgc: 0 pat: 6 nco: 0 t3168: 1000 t3192: 500 drxmax: 2 ctrlAck: 0 bsCVmax: 9 alpha: 10 pcMeasCh: 1 
arfcn: 722 rxLev: -96
arfcn: 745 rxLev: -96
$GPRMC,155419.000,A,4716.0061,N,00131.4520,W,10.90,226.33,291217,,,A*42
arfcn: 716 rxLev: -96
arfcn: 822 rxLev: -96
arfcn: 820 rxLev: -96
arfcn: 821 rxLev: -96
arfcn: 816 rxLev: -96
arfcn: 811 rxLev: -96
arfcn: 808 rxLev: -96
arfcn: 772 rxLev: -96
arfcn: 773 rxLev: -96
$GPGGA,155420.000,4716.0041,N,00131.4552,W,1,06,1.6,15.6,M,48.5,M,,0000*77
arfcn: 775 rxLev: -96
$GPGSA,M,3,13,15,20,28,05,30,,,,,,,3.0,1.6,2.6*36
arfcn: 752 rxLev: -96
arfcn: 857 rxLev: -96
$GPGSV,3,1,12,13,82,044,28,15,58,298,33,20,49,256,36,28,47,068,42*7A
arfcn: 859 rxLev: -96
arfcn: 860 rxLev: -96
$GPGSV,3,2,12,05,30,184,37,30,22,063,39,18,15,317,23,24,22,252,27*77
arfcn: 842 rxLev: -96
$GPGSV,3,3,12,33,33,198,26,21,08,289,,17,04,118,,08,01,016,*72
arfcn: 843 rxLev: -96
arfcn: 841 rxLev: -96
$GPRMC,155420.000,A,4716.0041,N,00131.4552,W,10.18,226.93,291217,,,A*45
arfcn: 839 rxLev: -96
arfcn: 833 rxLev: -96
arfcn: 836 rxLev: -96
$GPGGA,155421.000,4716.0025,N,00131.4580,W,1,06,1.6,15.7,M,48.5,M,,0000*7A
arfcn: 834 rxLev: -96
$GPGSA,M,3,13,15,20,28,05,30,,,,,,,3.0,1.6,2.6*36
arfcn: 855 rxLev: -96
arfcn: 852 rxLev: -96
$GPRMC,155421.000,A,4716.0025,N,00131.4580,W,8.10,226.83,291217,,,A*79
arfcn: 853 rxLev: -96
arfcn: 755 rxLev: -96
arfcn: 758 rxLev: -96
arfcn: 777 rxLev: -96
arfcn: 765 rxLev: -96
arfcn: 809 rxLev: -96
arfcn: 810 rxLev: -96
arfcn: 781 rxLev: -96
$GPGGA,155422.000,4716.0013,N,00131.4601,W,1,06,1.6,15.8,M,48.5,M,,0000*79
arfcn: 724 rxLev: -96
arfcn: 727 rxLev: -96
$GPGSA,M,3,13,15,20,28,05,30,,,,,,,3.0,1.6,2.6*36
arfcn: 731 rxLev: -96
arfcn: 730 rxLev: -96
$GPRMC,155422.000,A,4716.0013,N,00131.4601,W,5.79,226.59,291217,,,A*70
$GPGGA,155423.000,4716.0006,N,00131.4614,W,1,06,1.6,15.9,M,48.5,M,,0000*79
$GPGSA,M,3,13,15,20,28,05,30,,,,,,,3.0,1.6,2.6*36
$GPRMC,155423.000,A,4716.0006,N,00131.4614,W,3.46,226.99,291217,,,A*77
$GPGGA,155424.000,4716.0004,N,00131.4619,W,1,06,1.6,16.2,M,48.5,M,,0000*79
arfcn: 9 bsic: 12 rxLev: -96 ber: 12.03 mcc: FFF mnc: FF lac: 65535 cellId: 0 cellStatus: CELL_OTHER numArfcn: 0 arfcn: numChannels: 0 array:
arfcn: 516 rxLev: -96
$GPGSA,M,3,13,15,20,28,05,30,,,,,,,3.0,1.6,2.6*36
$GPRMC,155424.000,A,4716.0004,N,00131.4619,W,1.21,226.95,291217,,,A*70
$GPGGA,155425.000,4716.0004,N,00131.4619,W,1,06,1.6,16.2,M,48.5,M,,0000*78
$GPGSA,M,3,13,15,20,28,05,30,,,,,,,3.0,1.6,2.6*36
$GPGSV,3,1,12,13,82,044,28,15,58,298,38,20,49,256,38,28,47,068,42*7F
$GPGSV,3,2,12,05,30,184,39,30,22,063,38,18,15,317,37,24,22,252,28*72
$GPGSV,3,3,12,33,33,198,29,21,08,289,,17,04,118,,08,01,016,*7D
$GPRMC,155425.000,A,4716.0004,N,00131.4619,W,0.01,226.95,291217,,,A*72
$GPGGA,155426.000,4716.0004,N,00131.4619,W,1,06,1.6,16.2,M,48.5,M,,0000*7B
$GPGSA,M,3,13,15,20,28,05,30,,,,,,,3.0,1.6,2.6*36
$GPRMC,155426.000,A,4716.0004,N,00131.4619,W,0.00,226.95,291217,,,A*70
$GPGGA,155427.000,4716.0004,N,00131.4619,W,1,06,1.6,16.2,M,48.5,M,,0000*7A
$GPGSA,M,3,13,15,20,28,05,30,,,,,,,3.0,1.6,2.6*36
$GPRMC,155427.000,A,4716.0004,N,00131.4619,W,0.00,226.95,291217,,,A*71
arfcn: 1017 bsic: 11 rxLev: -96 ber: 0.00 mcc: 208 mnc: 20 lac: 420 cellId: 38977 cellStatus: CELL_SUITABLE numArfcn: 3 arfcn: 1011 1013 1017 numChannels: 12 array: 979 980 981 982 984 985 1012 1014 1016 1017 1018 1022 pbcch: 0 nom: 2 rac: 6 spgc: 0 pat: 6 nco: 0 t3168: 1500 t3192: 500 drxmax: 0 ctrlAck: 0 bsCVmax: 8 alpha: 6 pcMeasCh: 1 
arfcn: 1009 rxLev: -96
arfcn: 986 rxLev: -97
arfcn: 1015 rxLev: -97
arfcn: 517 rxLev: -97
arfcn: 80 rxLev: -97
$GPGGA,155428.000,4716.0004,N,00131.4619,W,1,06,1.6,16.2,M,48.5,M,,0000*75
arfcn: 110 rxLev: -97
$GPGSA,M,3,13,15,20,28,05,30,,,,,,,3.0,1.6,2.6*36
arfcn: 723 rxLev: -97
arfcn: 721 rxLev: -97
$GPRMC,155428.000,A,4716.0004,N,00131.4619,W,0.00,226.95,291217,,,A*7E
arfcn: 719 rxLev: -97
arfcn: 737 rxLev: -97
arfcn: 766 rxLev: -97
arfcn: 771 rxLev: -97
arfcn: 769 rxLev: -97
arfcn: 770 rxLev: -97
arfcn: 776 rxLev: -97
arfcn: 753 rxLev: -97
$GPGGA,155429.000,4716.0004,N,00131.4619,W,1,06,1.6,16.2,M,48.5,M,,0000*74
arfcn: 749 rxLev: -97
$GPGSA,M,3,13,15,20,28,05,30,,,,,,,3.0,1.6,2.6*36
arfcn: 846 rxLev: -97
arfcn: 854 rxLev: -97
$GPRMC,155429.000,A,4716.0004,N,00131.4619,W,0.00,226.95,291217,,,A*7F
arfcn: 858 rxLev: -97
arfcn: 861 rxLev: -97
arfcn: 847 rxLev: -97
arfcn: 848 rxLev: -97
arfcn: 835 rxLev: -97
arfcn: 868 rxLev: -97
arfcn: 869 rxLev: -97
arfcn: 751 rxLev: -97
$GPGGA,155430.000,4716.0004,N,00131.4618,W,1,06,1.6,16.2,M,48.5,M,,0000*7D
arfcn: 774 rxLev: -97
$GPGSA,M,3,13,15,20,28,05,30,,,,,,,3.0,1.6,2.6*36
arfcn: 111 rxLev: -97
arfcn: 120 rxLev: -98
$GPGSV,3,1,12,13,82,044,25,15,58,298,39,20,49,256,38,28,47,068,43*72
$GPGSV,3,2,12,05,30,184,41,30,22,063,40,18,15,317,37,21,08,289,27*76
$GPGSV,3,3,12,24,22,252,28,33,33,198,30,17,04,118,,08,01,016,*74
$GPRMC,155430.000,A,4716.0004,N,00131.4618,W,0.00,226.95,291217,,,A*76
$GPGGA,155431.000,4716.0005,N,00131.4618,W,1,06,1.6,16.5,M,48.5,M,,0000*7A
$GPGSA,M,3,13,15,20,28,05,30,,,,,,,3.0,1.6,2.6*36
$GPRMC,155431.000,A,4716.0005,N,00131.4618,W,0.89,226.95,291217,,,A*77
$GPGGA,155432.000,4716.0002,N,00131.4624,W,1,06,1.6,16.8,M,48.5,M,,0000*7C
$GPGSA,M,3,13,15,20,28,05,30,,,,,,,3.0,1.6,2.6*36
$GPRMC,155432.000,A,4716.0002,N,00131.4624,W,3.70,229.83,291217,,,A*71
$GPGGA,155433.000,4715.9992,N,00131.4641,W,1,06,1.6,16.9,M,48.5,M,,0000*75
$GPGSA,M,3,13,15,20,28,05,30,,,,,,,3.0,1.6,2.6*36
$GPRMC,155433.000,A,4715.9992,N,00131.4641,W,6.87,230.46,291217,,,A*75
arfcn: 86 bsic: 34 rxLev: -98 ber: 1.10 mcc: FFF mnc: FF lac: 65535 cellId: 0 cellStatus: CELL_OTHER numArfcn: 3 arfcn: 76 86 112 numChannels: 12 array: 78 79 80 83 86 114 115 116 117 119 121 124 pbcch: 0 nom: 2 rac: 30 spgc: 0 pat: 6 nco: 0 t3168: 1000 t3192: 500 drxmax: 4 ctrlAck: 1 bsCVmax: 9 alpha: 10 pcMeasCh: 0 
arfcn: 75 rxLev: -98
$GPGGA,155434.000,4715.9976,N,00131.4667,W,1,06,1.6,17.2,M,48.5,M,,0000*76
$GPGSA,M,3,13,15,20,28,05,30,,,,,,,3.0,1.6,2.6*36
$GPRMC,155434.000,A,4715.9976,N,00131.4667,W,9.11,230.72,291217,,,A*7B
$GPGGA,155435.000,4715.9958,N,00131.4697,W,1,06,1.6,17.5,M,48.5,M,,0000*73
$GPGSA,M,3,13,15,20,28,05,30,,,,,,,3.0,1.6,2.6*36
$GPGSV,3,1,12,13,82,051,28,15,59,298,39,20,49,255,37,28,46,067,42*79
$GPGSV,3,2,12,05,29,184,41,30,21,064,40,18,16,317,37,24,23,252,32*77
$GPGSV,3,3,12,33,33,198,28,21,07,289,,17,04,117,,08,01,015,*7F
$GPRMC,155435.000,A,4715.9958,N,00131.4697,W,9.77,230.37,291217,,,A*78
$GPGGA,155436.000,4715.9938,N,00131.4731,W,1,06,1.6,17.7,M,48.5,M,,0000*79
$GPGSA,M,3,13,15,20,28,05,30,,,,,,,3.0,1.6,2.6*36
$GPRMC,155436.000,A,4715.9938,N,00131.4731,W,11.81,228.81,291217,,,A*44
$GPGGA,155437.000,4715.9912,N,00131.4771,W,1,06,1.6,17.8,M,48.5,M,,0000*7B
$GPGSA,M,3,13,15,20,28,05,30,,,,,,,3.0,1.6,2.6*36
$GPRMC,155437.000,A,4715.9912,N,00131.4771,W,13.86,226.90,291217,,,A*42
$GPGGA,155438.000,4715.9883,N,00131.4815,W,1,06,1.6,18.1,M,48.5,M,,0000*76
arfcn: 7 bsic: 63 rxLev: -98 ber: 9.05 mcc: 208 mnc: 01 lac: 6403 cellId: 62881 cellStatus: CELL_FORBIDDEN numArfcn: 13 arfcn: 7 17 18 19 20 21 22 23 24 25 47 48 49 numChannels: 23 array: 1 2 3 4 5 6 7 9 10 11 12 14 15 512 515 516 518 604 606 607 608 609 610 pbcch: 0 nom: 2 rac: 1 spgc: 1 pat: 6 nco: 0 t3168: 1000 t3192: 500 drxmax: 4 ctrlAck: 1 bsCVmax: 9 alpha: 7 pcMeasCh: 0 
arfcn: 621 rxLev: -98
$GPGSA,M,3,13,15,20,28,05,30,,,,,,,3.0,1.6,2.6*36
arfcn: 627 rxLev: -98
arfcn: 639 rxLev: -98
$GPRMC,155438.000,A,4715.9883,N,00131.4815,W,15.30,225.86,291217,,,A*46
arfcn: 606 rxLev: -98
arfcn: 76 rxLev: -98
arfcn: 81 rxLev: -98
arfcn: 116 rxLev: -98
arfcn: 778 rxLev: -98
arfcn: 754 rxLev: -98
arfcn: 759 rxLev: -98
arfcn: 760 rxLev: -98
$GPGGA,155439.000,4715.9852,N,00131.4863,W,1,06,1.6,18.4,M,48.5,M,,0000*7F
arfcn: 761 rxLev: -98
arfcn: 762 rxLev: -98
$GPGSA,M,3,13,15,20,28,05,30,,,,,,,3.0,1.6,2.6*36
arfcn: 789 rxLev: -98
arfcn: 717 rxLev: -98
$GPRMC,155439.000,A,4715.9852,N,00131.4863,W,16.29,226.74,291217,,,A*4F
arfcn: 867 rxLev: -98
arfcn: 862 rxLev: -98
arfcn: 864 rxLev: -98
arfcn: 764 rxLev: -99
arfcn: 779 rxLev: -99
arfcn: 780 rxLev: -99
arfcn: 74 rxLev: -99
$GPGGA,155440.000,4715.9820,N,00131.4914,W,1,06,1.6,18.7,M,48.5,M,,0000*76
arfcn: 11 rxLev: -99
arfcn: 982 rxLev: -99
$GPGSA,M,3,13,15,20,28,05,30,,,,,,,3.0,1.6,2.6*36
arfcn: 626 rxLev: -99
$GPGSV,3,1,12,13,82,051,29,15,59,298,35,20,49,255,38,28,46,067,41*78
arfcn: 608 rxLev: -99
arfcn: 617 rxLev: -99
$GPGSV,3,2,12,05,29,184,38,30,21,064,39,17,04,117,27,18,16,317,23*71
arfcn: 640 rxLev: -99
arfcn: 650 rxLev: -99
$GPGSV,3,3,12,24,23,252,32,33,33,198,29,21,07,289,,08,01,015,*78
arfcn: 653 rxLev: -99
arfcn: 676 rxLev: -99
$GPRMC,155440.000,A,4715.9820,N,00131.4914,W,17.21,226.85,291217,,,A*42
arfcn: 89 rxLev: -99
arfcn: 112 rxLev: -99
arfcn: 865 rxLev: -99
$GPGGA,155441.000,4715.9786,N,00131.4967,W,1,06,1.6,19.0,M,48.5,M,,0000*76
arfcn: 866 rxLev: -99
arfcn: 863 rxLev: -100
$GPGSA,M,3,13,15,20,28,05,30,,,,,,,3.0,1.6,2.6*36
arfcn: 782 rxLev: -100
arfcn: 114 rxLev: -100
$GPRMC,155441.000,A,4715.9786,N,00131.4967,W,17.76,226.67,291217,,,A*4A
arfcn: 16 rxLev: -100
arfcn: 664 rxLev: -100
arfcn: 654 rxLev: -100
arfcn: 660 rxLev: -100
arfcn: 651 rxLev: -100
arfcn: 628 rxLev: -100
arfcn: 515 rxLev: -100
$GPGGA,155442.000,4715.9752,N,00131.5022,W,1,06,1.6,19.3,M,48.5,M,,0000*76
arfcn: 623 rxLev: -100
$GPGSA,M,3,13,15,20,28,05,30,,,,,,,3.0,1.6,2.6*36
arfcn: 619 rxLev: -100
arfcn: 642 rxLev: -100
$GPRMC,155442.000,A,4715.9752,N,00131.5022,W,18.27,227.12,291217,,,A*41
arfcn: 635 rxLev: -100
arfcn: 648 rxLev: -100
arfcn: 671 rxLev: -100
arfcn: 672 rxLev: -100
arfcn: 50 rxLev: -100
arfcn: 113 rxLev: -100
arfcn: 682 rxLev: -100
arfcn: 689 rxLev: -100
arfcn: 677 rxLev: -101
$GPGGA,155443.000,4715.9716,N,00131.5078,W,1,06,1.6,19.6,M,48.5,M,,0000*7D
arfcn: 0 rxLev: -101
$GPGSA,M,3,13,15,20,28,05,30,,,,,,,3.0,1.6,2.6*36
arfcn: 647 rxLev: -101
arfcn: 655 rxLev: -101
$GPRMC,155443.000,A,4715.9716,N,00131.5078,W,18.61,227.09,291217,,,A*47
arfcn: 633 rxLev: -101
arfcn: 641 rxLev: -101
arfcn: 643 rxLev: -101
arfcn: 644 rxLev: -101
arfcn: 638 rxLev: -101
arfcn: 624 rxLev: -101
arfcn: 625 rxLev: -101
$GPGGA,155444.000,4715.9680,N,00131.5134,W,1,06,1.6,19.8,M,48.5,M,,0000*73
arfcn: 1011 rxLev: -101
arfcn: 987 rxLev: -101
$GPGSA,M,3,13,15,20,28,05,30,,,,,,,3.0,1.6,2.6*36
arfcn: 1013 rxLev: -101
arfcn: 620 rxLev: -101
$GPRMC,155444.000,A,4715.9680,N,00131.5134,W,18.86,226.90,291217,,,A*4F
arfcn: 632 rxLev: -101
arfcn: 656 rxLev: -101
arfcn: 652 rxLev: -101
arfcn: 649 rxLev: -101
arfcn: 669 rxLev: -101
arfcn: 673 rxLev: -101
arfcn: 674 rxLev: -101
arfcn: 662 rxLev: -101
$GPGGA,155445.000,4715.9644,N,00131.5190,W,1,06,1.6,20.2,M,48.5,M,,0000*74
arfcn: 665 rxLev: -101
arfcn: 23 rxLev: -101
$GPGSA,M,3,13,15,20,28,05,30,,,,,,,3.0,1.6,2.6*36
arfcn: 48 rxLev: -101
arfcn: 84 rxLev: -101
$GPGSV,3,1,12,13,82,051,30,15,59,298,36,20,49,255,37,28,46,067,40*7D
arfcn: 802 rxLev: -101
arfcn: 678 rxLev: -102
$GPGSV,3,2,12,05,29,184,37,30,21,064,39,18,16,317,23,24,23,252,23*7D
arfcn: 695 rxLev: -102
$GPGSV,3,3,12,33,33,198,26,21,07,289,,17,04,117,,08,01,015,*71
arfcn: 49 rxLev: -102
arfcn: 18 rxLev: -102
$GPRMC,155445.000,A,4715.9644,N,00131.5190,W,18.98,226.63,291217,,,A*4B
arfcn: 19 rxLev: -102
arfcn: 666 rxLev: -102
$GPGGA,155446.000,4715.9608,N,00131.5246,W,1,06,1.6,20.5,M,48.5,M,,0000*70
arfcn: 645 rxLev: -102
$GPGSA,M,3,13,15,20,28,05,30,,,,,,,3.0,1.6,2.6*36
arfcn: 646 rxLev: -102
$GPRMC,155446.000,A,4715.9608,N,00131.5246,W,18.81,227.30,291217,,,A*47
arfcn: 658 rxLev: -102
arfcn: 629 rxLev: -102
arfcn: 634 rxLev: -102
arfcn: 636 rxLev: -102
arfcn: 637 rxLev: -102
arfcn: 630 rxLev: -102
arfcn: 631 rxLev: -102
arfcn: 618 rxLev: -102
arfcn: 663 rxLev: -102
$GPGGA,155447.000,4715.9572,N,00131.5302,W,1,06,1.6,20.9,M,48.5,M,,0000*72
arfcn: 675 rxLev: -102
$GPGSA,M,3,13,15,20,28,05,30,,,,,,,3.0,1.6,2.6*36
arfcn: 604 rxLev: -102
arfcn: 20 rxLev: -102
$GPRMC,155447.000,A,4715.9572,N,00131.5302,W,18.31,226.41,291217,,,A*45
arfcn: 85 rxLev: -102
arfcn: 87 rxLev: -102
arfcn: 690 rxLev: -102
arfcn: 679 rxLev: -103
arfcn: 697 rxLev: -103
arfcn: 870 rxLev: -103
arfcn: 22 rxLev: -103
arfcn: 17 rxLev: -103
$GPGGA,155448.000,4715.9537,N,00131.5354,W,1,06,1.6,21.0,M,48.5,M,,0000*77
arfcn: 670 rxLev: -103
$GPGSA,M,3,13,15,20,28,05,30,,,,,,,3.0,1.6,2.6*36
arfcn: 661 rxLev: -103
arfcn: 667 rxLev: -103
$GPRMC,155448.000,A,4715.9537,N,00131.5354,W,17.55,225.27,291217,,,A*46
arfcn: 657 rxLev: -103
arfcn: 659 rxLev: -103
arfcn: 622 rxLev: -103
arfcn: 519 rxLev: -103
arfcn: 24 rxLev: -103
arfcn: 694 rxLev: -103
arfcn: 703 rxLev: -103
arfcn: 688 rxLev: -103
arfcn: 691 rxLev: -104
$GPGGA,155449.000,4715.9502,N,00131.5401,W,1,06,1.6,21.1,M,48.5,M,,0000*76
arfcn: 681 rxLev: -104
$GPGSA,M,3,13,15,20,28,05,30,,,,,,,3.0,1.6,2.6*36
arfcn: 683 rxLev: -104
arfcn: 88 rxLev: -104
$GPRMC,155449.000,A,4715.9502,N,00131.5401,W,16.38,221.37,291217,,,A*49
arfcn: 668 rxLev: -104
arfcn: 611 rxLev: -104
arfcn: 1010 rxLev: -104
arfcn: 988 rxLev: -104
arfcn: 680 rxLev: -104
arfcn: 702 rxLev: -104
arfcn: 705 rxLev: -104
arfcn: 706 rxLev: -104
$GPGGA,155450.000,4715.9468,N,00131.5440,W,1,06,1.6,21.5,M,48.5,M,,0000*72
arfcn: 693 rxLev: -104
arfcn: 696 rxLev: -105
$GPGSA,M,3,13,15,20,28,05,30,,,,,,,3.0,1.6,2.6*36
$GPGSV,3,1,12,13,82,052,30,15,59,298,32,20,49,254,32,28,46,067,33*7A
arfcn: 701 rxLev: -105
arfcn: 684 rxLev: -105
$GPGSV,3,2,12,05,29,184,36,30,21,064,38,17,04,117,25,18,16,317,29*76
arfcn: 692 rxLev: -105
arfcn: 513 rxLev: -105
$GPGSV,3,3,12,24,23,253,31,33,33,198,35,21,07,288,,08,01,015,*76
arfcn: 1023 rxLev: -105
arfcn: 21 rxLev: -105
$GPRMC,155450.000,A,4715.9468,N,00131.5440,W,14.73,217.74,291217,,,A*46
arfcn: 687 rxLev: -105
arfcn: 685 rxLev: -105
arfcn: 699 rxLev: -105
$GPGGA,155451.000,4715.9434,N,00131.5472,W,1,06,1.6,21.9,M,48.5,M,,0000*77
arfcn: 700 rxLev: -105
arfcn: 704 rxLev: -106
$GPGSA,M,3,13,15,20,28,05,30,,,,,,,3.0,1.6,2.6*36
arfcn: 686 rxLev: -106
$GPRMC,155451.000,A,4715.9434,N,00131.5472,W,13.79,211.88,291217,,,A*47
arfcn: 885 rxLev: -106
arfcn: 698 rxLev: -106
arfcn: 546 rxLev: -106
arfcn: 793 rxLev: -107
arfcn: 597 rxLev: -107
arfcn: 600 rxLev: -107
arfcn: 603 rxLev: -107
arfcn: 602 rxLev: -108
$GPGGA,155452.000,4715.9403,N,00131.5499,W,1,06,1.6,21.9,M,48.5,M,,0000*75
arfcn: 596 rxLev: -108
Network survey ended
Survey end at #CCLK: "17/12/29,16:54:52+04"
Survey duration: 130 seconds, 27 bases detected over 426 freqs scanned.
$GPGSA,M,3,13,15,20,28,05,30,,,,,,,3.0,1.6,2.6*36
$GPRMC,155452.000,A,4715.9403,N,00131.5499,W,12.38,209.80,291217,,,A*40
$GPGGA,155453.000,4715.9374,N,00131.5525,W,1,06,1.6,22.1,M,48.5,M,,0000*7E
$GPGSA,M,3,13,15,20,28,05,30,,,,,,,3.0,1.6,2.6*36
$GPRMC,155453.000,A,4715.9374,N,00131.5525,W,12.36,210.99,291217,,,A*4E
Survey start at #CCLK: "17/12/29,16:54:54+04"
at#csurv
Network survey started ...
$GPGGA,155454.000,4715.9344,N,00131.5551,W,1,06,1.6,22.2,M,48.5,M,,0000*7A
$GPGSA,M,3,13,15,20,28,05,30,,,,,,,3.0,1.6,2.6*36
$GPRMC,155454.000,A,4715.9344,N,00131.5551,W,12.39,211.05,291217,,,A*42
$GPGGA,155455.000,4715.9314,N,00131.5576,W,1,06,1.6,22.4,M,48.5,M,,0000*7D
$GPGSA,M,3,13,15,20,28,05,30,,,,,,,3.0,1.6,2.6*36
$GPGSV,3,1,12,13,82,052,27,15,59,298,39,20,49,254,32,28,46,067,24*71
$GPGSV,3,2,12,05,29,184,37,30,21,064,26,17,04,117,31,18,16,317,19*7E
$GPGSV,3,3,12,21,07,288,16,24,23,253,28,33,33,198,35,08,01,015,*79
$GPRMC,155455.000,A,4715.9314,N,00131.5576,W,12.15,209.28,291217,,,A*4B
$GPGGA,155456.000,4715.9285,N,00131.5600,W,1,06,1.6,22.5,M,48.5,M,,0000*74
$GPGSA,M,3,13,15,20,28,05,30,,,,,,,3.0,1.6,2.6*36
$GPRMC,155456.000,A,4715.9285,N,00131.5600,W,11.36,208.74,291217,,,A*49
$GPGGA,155457.000,4715.9261,N,00131.5616,W,1,06,1.6,22.1,M,48.5,M,,0000*7C
$GPGSA,M,3,13,15,20,28,05,30,,,,,,,3.0,1.6,2.6*36
$GPRMC,155457.000,A,4715.9261,N,00131.5616,W,8.88,207.87,291217,,,A*7B
$GPGGA,155458.000,4715.9244,N,00131.5630,W,1,06,1.6,21.7,M,48.5,M,,0000*75
$GPGSA,M,3,13,15,20,28,05,30,,,,,,,3.0,1.6,2.6*36
$GPRMC,155458.000,A,4715.9244,N,00131.5630,W,6.26,209.19,291217,,,A*74
$GPGGA,155459.000,4715.9233,N,00131.5643,W,1,06,1.6,21.8,M,48.5,M,,0000*7F
$GPGSA,M,3,13,15,20,28,05,30,,,,,,,3.0,1.6,2.6*36
$GPRMC,155459.000,A,4715.9233,N,00131.5643,W,5.33,213.33,291217,,,A*75
$GPGGA,155500.000,4715.9225,N,00131.5656,W,1,06,1.6,21.8,M,48.5,M,,0000*71
$GPGSA,M,3,13,15,20,28,05,30,,,,,,,3.0,1.6,2.6*36
arfcn: 980 bsic: 17 rxLev: -64 ber: 0.00 mcc: 208 mnc: 20 lac: 420 cellId: 20175 cellStatus: CELL_SUITABLE numArfcn: 3 arfcn: 976 980 988 numChannels: 17 array: 975 976 977 978 980 983 985 1012 1013 1014 1015 1016 1017 1018 1019 1022 876 pbcch: 0 nom: 2 rac: 7 spgc: 0 pat: 6 nco: 0 t3168: 1500 t3192: 500 drxmax: 0 ctrlAck: 0 bsCVmax: 8 alpha: 6 pcMeasCh: 1 
$GPGSV,3,1,12,13,82,052,26,15,59,298,35,20,49,254,32,28,46,067,25*7D
$GPGSV,3,2,12,05,29,184,33,30,21,064,34,17,04,117,29,18,16,317,30*7B
$GPGSV,3,3,12,21,07,288,26,24,23,253,29,33,33,198,34,08,01,015,*7A
$GPRMC,155500.000,A,4715.9225,N,00131.5656,W,6.07,212.31,291217,,,A*7C
$GPGGA,155501.000,4715.9211,N,00131.5672,W,1,06,1.6,22.2,M,48.5,M,,0000*78
$GPGSA,M,3,13,15,20,28,05,30,,,,,,,3.0,1.6,2.6*36
$GPRMC,155501.000,A,4715.9211,N,00131.5672,W,7.04,217.53,291217,,,A*7F
arfcn: 6 bsic: 27 rxLev: -67 ber: 0.00 mcc: 208 mnc: 01 lac: 6403 cellId: 8054 cellStatus: CELL_FORBIDDEN numArfcn: 13 arfcn: 6 17 18 19 20 21 22 23 24 25 47 48 49 numChannels: 17 array: 2 3 4 6 9 10 13 15 512 514 515 518 604 605 607 608 610 pbcch: 0 nom: 2 rac: 1 spgc: 0 pat: 6 nco: 0 t3168: 1000 t3192: 500 drxmax: 2 ctrlAck: 0 bsCVmax: 9 alpha: 10 pcMeasCh: 1 
$GPGGA,155502.000,4715.9194,N,00131.5695,W,1,06,1.6,22.8,M,48.5,M,,0000*76
$GPGSA,M,3,13,15,20,28,05,30,,,,,,,3.0,1.6,2.6*36
$GPRMC,155502.000,A,4715.9194,N,00131.5695,W,10.14,219.30,291217,,,A*47
$GPGGA,155503.000,4715.9163,N,00131.5722,W,1,06,1.6,23.2,M,48.5,M,,0000*79
arfcn: 83 bsic: 36 rxLev: -70 ber: 0.00 mcc: 208 mnc: 10 lac: 49409 cellId: 25240 cellStatus: CELL_FORBIDDEN numArfcn: 2 arfcn: 83 111 numChannels: 10 array: 78 80 81 83 113 115 117 119 122 124 pbcch: 0 nom: 2 rac: 30 spgc: 0 pat: 6 nco: 0 t3168: 1000 t3192: 500 drxmax: 4 ctrlAck: 1 bsCVmax: 9 alpha: 10 pcMeasCh: 0 
$GPGSA,M,3,13,15,20,28,05,30,,,,,,,3.0,1.6,2.6*36
$GPRMC,155503.000,A,4715.9163,N,00131.5722,W,13.28,214.48,291217,,,A*4D
$GPGGA,155504.000,4715.9117,N,00131.5752,W,1,06,1.6,23.5,M,48.5,M,,0000*7D
$GPGSA,M,3,13,15,20,28,05,30,,,,,,,3.0,1.6,2.6*36
$GPRMC,155504.000,A,4715.9117,N,00131.5752,W,16.98,209.85,291217,,,A*4D
$GPGGA,155505.000,4715.9072,N,00131.5787,W,1,06,1.6,23.7,M,48.5,M,,0000*74
$GPGSA,M,3,13,15,20,28,05,30,,,,,,,3.0,1.6,2.6*36
$GPGSV,3,1,12,13,82,052,26,15,59,298,43,20,49,254,35,28,46,067,26*78
$GPGSV,3,2,12,05,29,184,42,30,21,064,28,17,04,117,25,18,16,317,30*7C
$GPGSV,3,3,12,21,07,288,33,24,23,253,32,33,33,198,30,08,01,015,*70
$GPRMC,155505.000,A,4715.9072,N,00131.5787,W,17.17,207.39,291217,,,A*49
$GPGGA,155506.000,4715.9026,N,00131.5826,W,1,06,1.6,23.8,M,48.5,M,,0000*7D
$GPGSA,M,3,13,15,20,28,05,30,,,,,,,3.0,1.6,2.6*36
arfcn: 13 bsic: 9 rxLev: -77 ber: 0.00 mcc: 208 mnc: 01 lac: 6404 cellId: 871 cellStatus: CELL_FORBIDDEN numArfcn: 13 arfcn: 13 17 18 19 20 21 22 23 24 25 47 48 49 numChannels: 16 array: 1 3 4 5 6 8 10 12 13 14 512 514 518 605 607 610 pbcch: 0 nom: 2 rac: 1 spgc: 1 pat: 6 nco: 0 t3168: 1000 t3192: 500 drxmax: 4 ctrlAck: 1 bsCVmax: 9 alpha: 7 pcMeasCh: 0 
$GPRMC,155506.000,A,4715.9026,N,00131.5826,W,16.82,206.30,291217,,,A*4A
$GPGGA,155507.000,4715.8984,N,00131.5858,W,1,06,1.6,23.8,M,48.5,M,,0000*75
$GPGSA,M,3,13,15,20,28,05,30,,,,,,,3.0,1.6,2.6*36
$GPRMC,155507.000,A,4715.8984,N,00131.5858,W,15.34,205.86,291217,,,A*42
$GPGGA,155508.000,4715.8948,N,00131.5885,W,1,06,1.6,23.8,M,48.5,M,,0000*7A
$GPGSA,M,3,13,15,20,28,05,30,,,,,,,3.0,1.6,2.6*36
$GPRMC,155508.000,A,4715.8948,N,00131.5885,W,13.23,205.08,291217,,,A*4B
arfcn: 1012 bsic: 45 rxLev: -79 ber: 0.00 mcc: 208 mnc: 20 lac: 420 cellId: 40437 cellStatus: CELL_SUITABLE numArfcn: 2 arfcn: 1010 1012 numChannels: 16 array: 789 876 975 977 978 980 984 985 1011 1013 1014 1015 1016 1017 1018 1019 pbcch: 0 nom: 2 rac: 7 spgc: 0 pat: 6 nco: 0 t3168: 1500 t3192: 500 drxmax: 0 ctrlAck: 0 bsCVmax: 8 alpha: 6 pcMeasCh: 1 
$GPGGA,155509.000,4715.8920,N,00131.5905,W,1,06,1.6,24.0,M,48.5,M,,0000*73
$GPGSA,M,3,13,15,20,28,05,30,,,,,,,3.0,1.6,2.6*36
$GPRMC,155509.000,A,4715.8920,N,00131.5905,W,9.88,203.88,291217,,,A*79
$GPGGA,155510.000,4715.8902,N,00131.5920,W,1,06,1.6,24.0,M,48.5,M,,0000*7C
$GPGSA,M,3,13,15,20,28,05,30,,,,,,,3.0,1.6,2.6*36
$GPGSV,3,1,12,13,82,052,27,15,59,298,43,20,49,254,29,28,46,067,29*7B
$GPGSV,3,2,12,05,29,184,41,30,21,064,24,17,04,117,17,18,16,317,30*72
$GPGSV,3,3,12,21,07,288,35,24,23,253,35,33,33,198,33,08,01,015,*72
$GPRMC,155510.000,A,4715.8902,N,00131.5920,W,6.53,204.12,291217,,,A*7B
$GPGGA,155511.000,4715.8892,N,00131.5931,W,1,06,1.6,24.0,M,48.5,M,,0000*75
$GPGSA,M,3,13,15,20,28,05,30,,,,,,,3.0,1.6,2.6*36
$GPRMC,155511.000,A,4715.8892,N,00131.5931,W,3.18,204.06,291217,,,A*7D
arfcn: 514 bsic: 39 rxLev: -79 ber: 0.00 mcc: 208 mnc: 01 lac: 6403 cellId: 28014 cellStatus: CELL_FORBIDDEN numArfcn: 16 arfcn: 519 520 521 522 523 524 525 526 596 597 598 599 600 601 602 603 numChannels: 12 array: 2 3 6 9 13 515 518 604 605 607 608 610 pbcch: 0 nom: 2 rac: 1 spgc: 0 pat: 6 nco: 0 t3168: 1000 t3192: 500 drxmax: 2 ctrlAck: 0 bsCVmax: 9 alpha: 10 pcMeasCh: 1 
$GPGGA,155512.000,4715.8887,N,00131.5941,W,1,06,1.6,23.7,M,48.5,M,,0000*75
$GPGSA,M,3,13,15,20,28,05,30,,,,,,,3.0,1.6,2.6*36
$GPRMC,155512.000,A,4715.8887,N,00131.5941,W,1.63,203.99,291217,,,A*72
$GPGGA,155513.000,4715.8881,N,00131.5948,W,1,06,1.6,23.8,M,48.5,M,,0000*74
$GPGSA,M,3,13,15,20,28,05,30,,,,,,,3.0,1.6,2.6*36
$GPRMC,155513.000,A,4715.8881,N,00131.5948,W,2.51,204.09,291217,,,A*70
arfcn: 512 bsic: 6 rxLev: -80 ber: 0.00 mcc: 208 mnc: 01 lac: 6404 cellId: 27929 cellStatus: CELL_FORBIDDEN numArfcn: 17 arfcn: 512 519 520 521 522 523 524 525 526 596 597 598 599 600 601 602 603 numChannels: 21 array: 2 3 4 6 7 10 12 13 512 513 514 515 516 517 518 604 605 606 607 609 610 pbcch: 0 nom: 2 rac: 1 spgc: 1 pat: 6 nco: 0 t3168: 1000 t3192: 500 drxmax: 4 ctrlAck: 1 bsCVmax: 9 alpha: 7 pcMeasCh: 0 
arfcn: 70 rxLev: -80
arfcn: 71 rxLev: -80
arfcn: 69 rxLev: -80
arfcn: 67 rxLev: -80
arfcn: 44 rxLev: -80
arfcn: 45 rxLev: -80
arfcn: 41 rxLev: -81
$GPGGA,155514.000,4715.8869,N,00131.5960,W,1,06,1.6,23.8,M,48.5,M,,0000*7F
arfcn: 43 rxLev: -81
$GPGSA,M,3,13,15,20,28,05,30,,,,,,,3.0,1.6,2.6*36
arfcn: 32 rxLev: -81
arfcn: 34 rxLev: -81
$GPRMC,155514.000,A,4715.8869,N,00131.5960,W,5.66,204.64,291217,,,A*73
arfcn: 35 rxLev: -81
arfcn: 36 rxLev: -81
arfcn: 39 rxLev: -81
arfcn: 56 rxLev: -81
arfcn: 66 rxLev: -81
arfcn: 68 rxLev: -81
arfcn: 64 rxLev: -81
arfcn: 65 rxLev: -81
$GPGGA,155515.000,4715.8848,N,00131.5977,W,1,06,1.6,24.0,M,48.5,M,,0000*74
arfcn: 57 rxLev: -81
arfcn: 54 rxLev: -81
$GPGSA,M,3,13,15,20,28,05,30,,,,,,,3.0,1.6,2.6*36
arfcn: 38 rxLev: -81
arfcn: 37 rxLev: -81
$GPGSV,3,1,12,13,82,052,32,15,59,298,43,20,49,254,25,28,46,067,35*7E
arfcn: 33 rxLev: -81
arfcn: 40 rxLev: -81
$GPGSV,3,2,12,05,29,184,41,30,21,064,27,17,04,117,21,18,16,317,31*75
arfcn: 981 rxLev: -81
$GPGSV,3,3,12,21,07,288,35,24,23,253,23,33,33,198,35,08,01,015,*73
arfcn: 42 rxLev: -82
$GPRMC,155515.000,A,4715.8848,N,00131.5977,W,9.23,204.77,291217,,,A*78
arfcn: 55 rxLev: -82
arfcn: 59 rxLev: -82
arfcn: 28 rxLev: -82
$GPGGA,155516.000,4715.8820,N,00131.5997,W,1,06,1.6,24.2,M,48.5,M,,0000*75
arfcn: 29 rxLev: -82
arfcn: 31 rxLev: -82
$GPGSA,M,3,13,15,20,28,05,30,,,,,,,3.0,1.6,2.6*36
arfcn: 30 rxLev: -82
$GPRMC,155516.000,A,4715.8820,N,00131.5997,W,11.45,204.26,291217,,,A*46
arfcn: 60 rxLev: -82
arfcn: 53 rxLev: -82
arfcn: 1001 rxLev: -82
arfcn: 1000 rxLev: -83
arfcn: 1003 rxLev: -83
arfcn: 61 rxLev: -83
arfcn: 58 rxLev: -83
arfcn: 27 rxLev: -83
$GPGGA,155517.000,4715.8789,N,00131.6017,W,1,06,1.6,24.3,M,48.5,M,,0000*7B
$GPGSA,M,3,13,15,20,28,05,30,,,,,,,3.0,1.6,2.5*35
$GPRMC,155517.000,A,4715.8789,N,00131.6017,W,12.35,203.67,291217,,,A*4F
$GPGGA,155518.000,4715.8754,N,00131.6040,W,1,06,1.6,24.3,M,48.5,M,,0000*76
$GPGSA,M,3,13,15,20,28,05,30,,,,,,,3.0,1.6,2.5*35
$GPRMC,155518.000,A,4715.8754,N,00131.6040,W,14.61,204.08,291217,,,A*4B
$GPGGA,155519.000,4715.8713,N,00131.6065,W,1,06,1.6,24.3,M,48.5,M,,0000*73
$GPGSA,M,3,13,15,20,28,05,30,,,,,,,3.0,1.6,2.5*35
$GPRMC,155519.000,A,4715.8713,N,00131.6065,W,16.80,203.71,291217,,,A*4A
