$GPGSV,3,1,12,05,71,220,30,30,61,063,36,13,51,286,34,28,35,124,30*79
$GPGSV,3,2,12,07,33,054,40,02,07,211,24,09,05,095,19,15,19,284,23*73
$GPGSV,3,3,12,20,32,306,27,21,10,324,20,33,33,198,26,04,19,231,*74
$GPRMC,142003.000,A,4718.3903,N,00133.6531,W,18.36,122.65,291217,,,A*4B
Survey start at #CCLK: "17/12/29,15:20:04+04"
at#csurv
Network survey started ...
Survey end at #CCLK: "17/12/29,15:20:04+04"
Survey duration: 0 seconds, 0 bases detected over 0 freqs scanned.
$GPGGA,142004.000,4718.3879,N,00133.6475,W,1,06,1.7,27.6,M,48.5,M,,0000*79
$GPGSA,M,3,05,30,13,28,07,09,,,,,,,2.7,1.7,2.1*3E
$GPRMC,142004.000,A,4718.3879,N,00133.6475,W,15.89,123.68,291217,,,A*44
$GPGGA,142005.000,4718.3854,N,00133.6431,W,1,06,1.7,27.7,M,48.5,M,,0000*76
$GPGSA,M,3,05,30,13,28,07,09,,,,,,,2.7,1.7,2.1*3E
$GPRMC,142005.000,A,4718.3854,N,00133.6431,W,13.72,128.16,291217,,,A*4A
Survey start at #CCLK: "17/12/29,15:20:05+04"
at#csurv
Network survey started ...
$GPGGA,142006.000,4718.3828,N,00133.6397,W,1,05,1.7,27.6,M,48.5,M,,0000*77
$GPGSA,M,3,05,30,13,28,07,,,,,,,,4.0,1.7,3.6*30
$GPRMC,142006.000,A,4718.3828,N,00133.6397,W,12.04,132.37,291217,,,A*41
$GPGGA,142007.000,4718.3810,N,00133.6380,W,1,06,1.7,26.8,M,48.5,M,,0000*77
$GPGSA,M,3,05,30,13,28,07,09,,,,,,,2.7,1.7,2.1*3E
$GPRMC,142007.000,A,4718.3810,N,00133.6380,W,9.28,141.39,291217,,,A*73
$GPGGA,142008.000,4718.3779,N,00133.6364,W,1,06,1.7,26.3,M,48.5,M,,0000*79
$GPGSA,M,3,05,30,13,28,07,09,,,,,,,2.7,1.7,2.1*3E
$GPGSV,3,1,12,05,71,220,35,30,61,063,41,13,51,286,32,28,35,124,36*7C
$GPGSV,3,2,12,07,33,054,36,09,05,095,31,20,32,306,35,21,10,324,31*7F
$GPGSV,3,3,12,33,33,198,32,04,19,231,,15,19,284,,02,07,211,*72
$GPRMC,142008.000,A,4718.3779,N,00133.6364,W,9.96,157.21,291217,,,A*7D
$GPGGA,142009.000,4718.3755,N,00133.6354,W,1,07,1.4,26.6,M,48.5,M,,0000*72
$GPGSA,M,3,05,30,13,28,07,02,09,,,,,,2.0,1.4,1.5*3F
$GPRMC,142009.000,A,4718.3755,N,00133.6354,W,9.12,166.41,291217,,,A*79
$GPGGA,142010.000,4718.3728,N,00133.6350,W,1,07,1.4,27.0,M,48.5,M,,0000*73
$GPGSA,M,3,05,30,13,28,07,02,09,,,,,,2.0,1.4,1.5*3F
$GPRMC,142010.000,A,4718.3728,N,00133.6350,W,9.56,173.30,291217,,,A*7D
$GPGGA,142011.000,4718.3693,N,00133.6349,W,1,07,1.4,27.3,M,48.5,M,,0000*78
$GPGSA,M,3,05,30,13,28,07,02,09,,,,,,2.0,1.4,1.5*3F
$GPRMC,142011.000,A,4718.3693,N,00133.6349,W,10.41,180.10,291217,,,A*45
$GPGGA,142012.000,4718.3660,N,00133.6354,W,1,07,1.4,26.9,M,48.5,M,,0000*70
$GPGSA,M,3,05,30,13,28,07,02,09,,,,,,2.0,1.4,1.5*3F
$GPRMC,142012.000,A,4718.3660,N,00133.6354,W,9.73,184.24,291217,,,A*7C
$GPGGA,142013.000,4718.3630,N,00133.6361,W,1,07,1.4,26.9,M,48.5,M,,0000*72
$GPGSA,M,3,05,30,13,28,07,02,09,,,,,,2.0,1.4,1.5*3F
$GPGSV,3,1,12,05,71,220,35,30,61,063,31,13,51,286,34,28,35,124,39*72
$GPGSV,3,2,12,07,33,054,36,02,07,211,35,09,05,095,24,15,19,284,31*7F
$GPGSV,3,3,12,20,32,306,31,21,10,324,19,33,33,198,33,04,19,231,*7D
$GPRMC,142013.000,A,4718.3630,N,00133.6361,W,8.85,188.45,291217,,,A*7D
arfcn: 2 bsic: 37 rxLev: -73 ber: 0.00 mcc: 208 mnc: 01 lac: 6404 cellId: 22696 cellStatus: CELL_FORBIDDEN numArfcn: 13 arfcn: 2 17 18 19 20 21 22 23 24 25 47 48 49 numChannels: 17 array: 1 2 3 4 5 6 7 8 9 10 12 13 15 517 604 606 608 pbcch: 0 nom: 2 rac: 1 spgc: 1 pat: 6 nco: 0 t3168: 1000 t3192: 500 drxmax: 4 ctrlAck: 1 bsCVmax: 9 alpha: 7 pcMeasCh: 0 
$GPGGA,142014.000,4718.3604,N,00133.6370,W,1,07,1.4,27.2,M,48.5,M,,0000*78
$GPGSA,M,3,05,30,13,28,07,02,09,,,,,,2.0,1.4,1.5*3F
$GPRMC,142014.000,A,4718.3604,N,00133.6370,W,7.87,195.27,291217,,,A*78
$GPGGA,142015.000,4718.3580,N,00133.6385,W,1,07,1.4,27.6,M,48.5,M,,0000*78
$GPGSA,M,3,05,30,13,28,07,02,09,,,,,,2.0,1.4,1.5*3F
$GPRMC,142015.000,A,4718.3580,N,00133.6385,W,8.87,202.96,291217,,,A*74
arfcn: 84 bsic: 46 rxLev: -76 ber: 0.00 mcc: 208 mnc: 10 lac: 49409 cellId: 4447 cellStatus: CELL_FORBIDDEN numArfcn: 4 arfcn: 75 81 84 113 numChannels: 18 array: 76 77 78 79 80 82 83 84 85 86 114 115 117 119 120 122 124 612 pbcch: 0 nom: 2 rac: 30 spgc: 0 pat: 6 nco: 0 t3168: 1000 t3192: 500 drxmax: 4 ctrlAck: 1 bsCVmax: 9 alpha: 10 pcMeasCh: 0 
arfcn: 975 bsic: 14 rxLev: -79 ber: 1.06 mcc: 208 mnc: 20 lac: 420 cellId: 38411 cellStatus: CELL_SUITABLE numArfcn: 3 arfcn: 975 986 1010 numChannels: 21 array: 975 977 978 980 981 982 983 985 1012 1013 1014 1015 1016 1017 1019 1021 1022 789 794 880 884 pbcch: 0 nom: 2 rac: 7 spgc: 0 pat: 6 nco: 0 t3168: 1500 t3192: 500 drxmax: 0 ctrlAck: 0 bsCVmax: 8 alpha: 6 pcMeasCh: 1 
$GPGGA,142016.000,4718.3549,N,00133.6405,W,1,07,1.4,27.5,M,48.5,M,,0000*72
$GPGSA,M,3,05,30,13,28,07,02,09,,,,,,2.0,1.4,1.5*3F
$GPRMC,142016.000,A,4718.3549,N,00133.6405,W,10.00,204.77,291217,,,A*42
$GPGGA,142017.000,4718.3519,N,00133.6416,W,1,07,1.4,27.7,M,48.5,M,,0000*76
$GPGSA,M,3,05,30,13,28,07,02,09,,,,,,2.0,1.4,1.5*3F
$GPRMC,142017.000,A,4718.3519,N,00133.6416,W,9.86,194.32,291217,,,A*79
$GPGGA,142018.000,4718.3492,N,00133.6413,W,1,07,1.4,27.8,M,48.5,M,,0000*71
$GPGSA,M,3,05,30,13,28,07,02,09,,,,,,2.0,1.4,1.5*3F
$GPGSV,3,1,12,05,71,220,38,30,61,063,39,13,51,286,36,28,35,124,35*79
$GPGSV,3,2,12,07,33,054,38,02,07,211,21,09,05,095,24,15,19,284,38*7D
$GPGSV,3,3,12,20,32,306,32,21,10,324,28,33,33,198,32,04,19,231,*7D
$GPRMC,142018.000,A,4718.3492,N,00133.6413,W,9.92,179.51,291217,,,A*72
arfcn: 606 bsic: 25 rxLev: -81 ber: 0.00 mcc: 208 mnc: 01 lac: 6404 cellId: 42661 cellStatus: CELL_FORBIDDEN numArfcn: 17 arfcn: 519 520 521 522 523 524 525 526 596 597 598 599 600 601 602 603 606 numChannels: 15 array: 2 3 5 6 7 8 9 10 12 13 513 517 604 606 608 pbcch: 0 nom: 2 rac: 1 spgc: 1 pat: 6 nco: 0 t3168: 1000 t3192: 500 drxmax: 4 ctrlAck: 1 bsCVmax: 9 alpha: 7 pcMeasCh: 0 
$GPGGA,142019.000,4718.3466,N,00133.6395,W,1,07,1.4,28.4,M,48.5,M,,0000*71
$GPGSA,M,3,05,30,13,28,07,02,09,,,,,,2.0,1.4,1.5*3F
$GPRMC,142019.000,A,4718.3466,N,00133.6395,W,10.84,148.41,291217,,,A*4D
$GPGGA,142020.000,4718.3440,N,00133.6368,W,1,07,1.4,28.6,M,48.5,M,,0000*7F
$GPGSA,M,3,05,30,13,28,07,02,09,,,,,,2.0,1.4,1.5*3F
$GPRMC,142020.000,A,4718.3440,N,00133.6368,W,11.80,140.25,291217,,,A*4E
$GPGGA,142021.000,4718.3419,N,00133.6330,W,1,07,1.4,28.5,M,48.5,M,,0000*7C
$GPGSA,M,3,05,30,13,28,07,02,09,,,,,,2.0,1.4,1.5*3F
$GPRMC,142021.000,A,4718.3419,N,00133.6330,W,12.39,123.83,291217,,,A*46
$GPGGA,142022.000,4718.3403,N,00133.6282,W,1,07,1.4,28.7,M,48.5,M,,0000*7E
$GPGSA,M,3,05,30,13,28,07,02,09,,,,,,2.0,1.4,1.5*3F
$GPRMC,142022.000,A,4718.3403,N,00133.6282,W,13.63,116.54,291217,,,A*44
$GPGGA,142023.000,4718.3393,N,00133.6222,W,1,07,1.4,28.7,M,48.5,M,,0000*7B
$GPGSA,M,3,05,30,13,28,07,02,09,,,,,,2.0,1.4,1.5*3F
$GPGSV,3,1,12,05,71,220,29,30,61,063,40,13,51,286,44,28,35,124,33*74
$GPGSV,3,2,12,07,33,054,35,02,07,211,20,09,05,095,26,15,19,284,30*7B
$GPGSV,3,3,12,20,32,306,34,21,10,324,33,33,33,198,33,04,19,231,*70
$GPRMC,142023.000,A,4718.3393,N,00133.6222,W,15.57,108.08,291217,,,A*46
$GPGGA,142024.000,4718.3378,N,00133.6158,W,1,06,1.7,28.5,M,48.5,M,,0000*77
$GPGSA,M,3,05,30,13,28,07,09,,,,,,,2.7,1.7,2.1*3E
$GPRMC,142024.000,A,4718.3378,N,00133.6158,W,17.03,111.44,291217,,,A*49
$GPGGA,142025.000,4718.3356,N,00133.6086,W,1,07,1.4,28.4,M,48.5,M,,0000*7B
$GPGSA,M,3,05,30,13,28,07,02,09,,,,,,2.0,1.4,1.5*3F
$GPRMC,142025.000,A,4718.3356,N,00133.6086,W,19.15,115.72,291217,,,A*4E
$GPGGA,142026.000,4718.3329,N,00133.6010,W,1,07,1.4,28.5,M,48.5,M,,0000*7E
$GPGSA,M,3,05,30,13,28,07,02,09,,,,,,2.0,1.4,1.5*3F
$GPRMC,142026.000,A,4718.3329,N,00133.6010,W,20.30,118.77,291217,,,A*4F
$GPGGA,142027.000,4718.3300,N,00133.5932,W,1,07,1.4,28.9,M,48.5,M,,0000*72
$GPGSA,M,3,05,30,13,28,07,02,09,,,,,,2.0,1.4,1.5*3F
arfcn: 9 bsic: 0 rxLev: -81 ber: 0.00 mcc: 208 mnc: 01 lac: 6404 cellId: 22705 cellStatus: CELL_FORBIDDEN numArfcn: 13 arfcn: 9 17 18 19 20 21 22 23 24 25 47 48 49 numChannels: 14 array: 1 2 3 4 8 9 10 11 12 513 516 517 606 609 pbcch: 0 nom: 2 rac: 1 spgc: 1 pat: 6 nco: 0 t3168: 1000 t3192: 500 drxmax: 4 ctrlAck: 1 bsCVmax: 9 alpha: 7 pcMeasCh: 0 
arfcn: 40 rxLev: -83
arfcn: 41 rxLev: -83
$GPRMC,142027.000,A,4718.3300,N,00133.5932,W,21.55,119.22,291217,,,A*4C
arfcn: 42 rxLev: -83
arfcn: 43 rxLev: -83
arfcn: 44 rxLev: -83
arfcn: 45 rxLev: -84
arfcn: 39 rxLev: -84
$GPGGA,142028.000,4718.3273,N,00133.5849,W,1,07,1.4,29.3,M,48.5,M,,0000*7E
$GPGSA,M,3,05,30,13,28,07,02,09,,,,,,2.0,1.4,1.5*3F
$GPGSV,3,1,12,05,71,220,30,30,61,063,33,13,51,286,38,28,35,124,26*77
$GPGSV,3,2,12,07,33,054,41,02,07,211,16,09,05,095,14,15,19,284,35*79
$GPGSV,3,3,12,20,32,306,34,21,10,324,24,33,33,198,28,04,19,231,*7C
$GPRMC,142028.000,A,4718.3273,N,00133.5849,W,22.73,119.07,291217,,,A*4B
$GPGGA,142029.000,4718.3244,N,00133.5764,W,1,07,1.4,29.6,M,48.5,M,,0000*7E
$GPGSA,M,3,05,30,13,28,07,02,09,,,,,,2.0,1.4,1.5*3F
$GPRMC,142029.000,A,4718.3244,N,00133.5764,W,23.91,120.16,291217,,,A*49
$GPGGA,142030.000,4718.3213,N,00133.5679,W,1,07,1.4,29.8,M,48.5,M,,0000*77
$GPGSA,M,3,05,30,13,28,07,02,09,,,,,,2.0,1.4,1.5*3F
$GPRMC,142030.000,A,4718.3213,N,00133.5679,W,24.21,120.99,291217,,,A*45
$GPGGA,142031.000,4718.3176,N,00133.5592,W,1,07,1.4,29.9,M,48.5,M,,0000*71
$GPGSA,M,3,05,30,13,28,07,02,09,,,,,,2.0,1.4,1.5*3F
$GPRMC,142031.000,A,4718.3176,N,00133.5592,W,25.32,123.03,291217,,,A*41
arfcn: 7 bsic: 19 rxLev: -84 ber: 0.00 mcc: 208 mnc: 01 lac: 6404 cellId: 64568 cellStatus: CELL_FORBIDDEN numArfcn: 13 arfcn: 7 17 18 19 20 21 22 23 24 25 47 48 49 numChannels: 18 array: 1 2 3 4 5 6 8 9 10 12 13 15 513 517 604 606 608 609 pbcch: 0 nom: 2 rac: 1 spgc: 0 pat: 6 nco: 0 t3168: 1000 t3192: 500 drxmax: 2 ctrlAck: 0 bsCVmax: 9 alpha: 5 pcMeasCh: 1 
$GPGGA,142032.000,4718.3135,N,00133.5504,W,1,07,1.4,29.9,M,48.5,M,,0000*7A
$GPGSA,M,3,05,30,13,28,07,02,09,,,,,,2.0,1.4,1.5*3F
$GPRMC,142032.000,A,4718.3135,N,00133.5504,W,25.99,124.86,291217,,,A*41
$GPGGA,142033.000,4718.3093,N,00133.5417,W,1,07,1.4,29.7,M,48.5,M,,0000*7B
$GPGSA,M,3,05,30,13,28,07,02,09,,,,,,2.0,1.4,1.5*3F
$GPGSV,3,1,12,05,71,220,30,30,61,063,36,13,51,286,37,28,35,124,31*7B
$GPGSV,3,2,12,07,33,054,48,02,07,211,18,09,05,095,18,15,19,284,27*71
$GPGSV,3,3,12,20,32,306,23,33,33,198,27,04,19,231,,21,10,324,*73
$GPRMC,142033.000,A,4718.3093,N,00133.5417,W,26.38,125.83,291217,,,A*42
$GPGGA,142034.000,4718.3049,N,00133.5329,W,1,07,1.4,29.9,M,48.5,M,,0000*7F
$GPGSA,M,3,05,30,13,28,07,02,09,,,,,,2.0,1.4,1.5*3F
$GPRMC,142034.000,A,4718.3049,N,00133.5329,W,26.43,126.18,291217,,,A*45
arfcn: 880 bsic: 28 rxLev: -84 ber: 0.00 mcc: 208 mnc: 20 lac: 420 cellId: 22048 cellStatus: CELL_SUITABLE numArfcn: 3 arfcn: 797 875 880 numChannels: 18 array: 789 791 792 794 877 884 975 977 978 980 983 1012 1014 1015 1016 1018 1019 1021 pbcch: 0 nom: 2 rac: 7 spgc: 0 pat: 6 nco: 0 t3168: 1500 t3192: 500 drxmax: 0 ctrlAck: 0 bsCVmax: 8 alpha: 6 pcMeasCh: 1 
arfcn: 34 rxLev: -85
$GPGGA,142035.000,4718.3005,N,00133.5242,W,1,07,1.4,29.6,M,48.5,M,,0000*75
$GPGSA,M,3,05,30,13,28,07,02,09,,,,,,2.0,1.4,1.5*3F
$GPRMC,142035.000,A,4718.3005,N,00133.5242,W,26.74,126.59,291217,,,A*41
$GPGGA,142036.000,4718.2959,N,00133.5155,W,1,07,1.4,29.5,M,48.5,M,,0000*71
$GPGSA,M,3,05,30,13,28,07,02,09,,,,,,2.0,1.4,1.5*3F
$GPRMC,142036.000,A,4718.2959,N,00133.5155,W,26.74,127.19,291217,,,A*43
$GPGGA,142037.000,4718.2913,N,00133.5067,W,1,07,1.4,29.2,M,48.5,M,,0000*79
$GPGSA,M,3,05,30,13,28,07,02,09,,,,,,2.0,1.4,1.5*3F
$GPRMC,142037.000,A,4718.2913,N,00133.5067,W,27.01,127.22,291217,,,A*47
$GPGGA,142038.000,4718.2868,N,00133.4978,W,1,07,1.4,29.1,M,48.5,M,,0000*7E
$GPGSA,M,3,05,30,13,28,07,02,09,,,,,,2.0,1.4,1.5*3F
$GPGSV,3,1,12,05,71,220,35,30,61,063,37,13,51,286,30,28,35,124,31*78
$GPGSV,3,2,12,07,33,054,48,02,07,211,18,09,05,095,24,15,19,284,29*70
arfcn: 604 bsic: 13 rxLev: -85 ber: 0.00 mcc: 208 mnc: 01 lac: 6404 cellId: 40526 cellStatus: CELL_FORBIDDEN numArfcn: 16 arfcn: 519 520 521 522 523 524 525 526 596 597 598 599 600 601 602 603 numChannels: 19 array: 1 2 3 4 5 7 8 9 10 11 12 13 15 513 517 605 606 608 609 pbcch: 0 nom: 2 rac: 1 spgc: 0 pat: 6 nco: 0 t3168: 1000 t3192: 500 drxmax: 2 ctrlAck: 0 bsCVmax: 9 alpha: 5 pcMeasCh: 1 
arfcn: 35 rxLev: -85
arfcn: 38 rxLev: -85
$GPGSV,3,3,12,20,32,306,31,21,10,324,32,33,33,198,32,04,19,231,*75
arfcn: 36 rxLev: -85
arfcn: 37 rxLev: -85
$GPRMC,142038.000,A,4718.2868,N,00133.4978,W,27.11,126.78,291217,,,A*4C
arfcn: 33 rxLev: -86
arfcn: 824 rxLev: -86
arfcn: 27 rxLev: -86
$GPGGA,142039.000,4718.2823,N,00133.4888,W,1,07,1.4,28.9,M,48.5,M,,0000*77
arfcn: 28 rxLev: -86
$GPGSA,M,3,05,30,13,28,07,02,09,,,,,,2.0,1.4,1.5*3F
arfcn: 823 rxLev: -87
arfcn: 852 rxLev: -87
$GPRMC,142039.000,A,4718.2823,N,00133.4888,W,26.94,126.02,291217,,,A*4D
arfcn: 835 rxLev: -87
arfcn: 826 rxLev: -87
arfcn: 32 rxLev: -87
arfcn: 29 rxLev: -88
arfcn: 119 rxLev: -88
arfcn: 96 rxLev: -88
arfcn: 93 rxLev: -88
arfcn: 820 rxLev: -88
arfcn: 827 rxLev: -88
$GPGGA,142040.000,4718.2779,N,00133.4798,W,1,07,1.4,28.8,M,48.5,M,,0000*76
arfcn: 825 rxLev: -88
$GPGSA,M,3,05,30,13,28,07,02,09,,,,,,2.0,1.4,1.5*3F
arfcn: 806 rxLev: -88
$GPRMC,142040.000,A,4718.2779,N,00133.4798,W,26.41,124.83,291217,,,A*4E
arfcn: 832 rxLev: -88
arfcn: 92 rxLev: -88
arfcn: 94 rxLev: -88
arfcn: 95 rxLev: -88
arfcn: 3 rxLev: -88
arfcn: 1 rxLev: -88
arfcn: 18 rxLev: -89
arfcn: 91 rxLev: -89
$GPGGA,142041.000,4718.2736,N,00133.4711,W,1,07,1.4,28.4,M,48.5,M,,0000*71
arfcn: 102 rxLev: -89
arfcn: 104 rxLev: -89
$GPGSA,M,3,05,30,13,28,07,02,09,,,,,,2.0,1.4,1.5*3F
arfcn: 833 rxLev: -89
arfcn: 834 rxLev: -89
$GPRMC,142041.000,A,4718.2736,N,00133.4711,W,25.55,125.24,291217,,,A*4F
arfcn: 805 rxLev: -89
arfcn: 803 rxLev: -89
arfcn: 821 rxLev: -89
arfcn: 822 rxLev: -89
arfcn: 818 rxLev: -89
arfcn: 831 rxLev: -89
arfcn: 804 rxLev: -89
arfcn: 807 rxLev: -89
$GPGGA,142042.000,4718.2691,N,00133.4627,W,1,07,1.4,27.9,M,48.5,M,,0000*78
arfcn: 808 rxLev: -89
arfcn: 853 rxLev: -89
$GPGSA,M,3,05,30,13,28,07,02,09,,,,,,2.0,1.4,1.5*3F
arfcn: 851 rxLev: -89
arfcn: 106 rxLev: -89
$GPRMC,142042.000,A,4718.2691,N,00133.4627,W,25.62,127.07,291217,,,A*43
arfcn: 103 rxLev: -89
arfcn: 101 rxLev: -89
arfcn: 97 rxLev: -89
arfcn: 98 rxLev: -89
arfcn: 977 rxLev: -89
arfcn: 19 rxLev: -89
arfcn: 30 rxLev: -89
$GPGGA,142043.000,4718.2647,N,00133.4547,W,1,07,1.4,27.3,M,48.5,M,,0000*7D
arfcn: 31 rxLev: -89
$GPGSA,M,3,05,30,13,28,07,02,09,,,,,,2.0,1.4,1.5*3F
arfcn: 99 rxLev: -90
arfcn: 107 rxLev: -90
$GPGSV,3,1,12,05,71,220,30,30,61,063,37,13,51,286,26,28,35,124,32*79
arfcn: 105 rxLev: -90
arfcn: 848 rxLev: -90
$GPGSV,3,2,12,07,33,054,47,02,07,211,18,09,05,095,18,15,19,284,30*78
arfcn: 809 rxLev: -90
arfcn: 816 rxLev: -90
$GPGSV,3,3,12,20,32,306,30,33,33,198,31,04,19,231,,21,10,324,*76
arfcn: 819 rxLev: -90
arfcn: 828 rxLev: -90
$GPRMC,142043.000,A,4718.2647,N,00133.4547,W,23.88,128.44,291217,,,A*46
arfcn: 811 rxLev: -90
arfcn: 814 rxLev: -90
arfcn: 838 rxLev: -90
$GPGGA,142044.000,4718.2609,N,00133.4477,W,1,07,1.4,26.7,M,48.5,M,,0000*77
arfcn: 845 rxLev: -90
$GPGSA,M,3,05,30,13,28,07,02,09,,,,,,2.0,1.4,1.5*3F
arfcn: 847 rxLev: -90
arfcn: 100 rxLev: -90
$GPRMC,142044.000,A,4718.2609,N,00133.4477,W,20.46,128.68,291217,,,A*46
arfcn: 8 rxLev: -90
arfcn: 13 rxLev: -90
arfcn: 46 rxLev: -91
arfcn: 108 rxLev: -91
arfcn: 836 rxLev: -91
arfcn: 849 rxLev: -91
arfcn: 854 rxLev: -91
arfcn: 855 rxLev: -91
$GPGGA,142045.000,4718.2573,N,00133.4413,W,1,07,1.4,26.2,M,48.5,M,,0000*7F
arfcn: 815 rxLev: -91
$GPGSA,M,3,05,30,13,28,07,02,09,,,,,,2.0,1.4,1.5*3F
arfcn: 812 rxLev: -91
arfcn: 813 rxLev: -91
$GPRMC,142045.000,A,4718.2573,N,00133.4413,W,18.80,129.70,291217,,,A*42
arfcn: 830 rxLev: -91
arfcn: 817 rxLev: -91
arfcn: 692 rxLev: -91
arfcn: 857 rxLev: -91
arfcn: 837 rxLev: -91
arfcn: 844 rxLev: -91
arfcn: 840 rxLev: -91
arfcn: 90 rxLev: -91
arfcn: 67 rxLev: -91
$GPGGA,142046.000,4718.2537,N,00133.4356,W,1,07,1.4,25.9,M,48.5,M,,0000*72
arfcn: 124 rxLev: -92
$GPGSA,M,3,05,30,13,28,07,02,09,,,,,,2.0,1.4,1.5*3F
arfcn: 843 rxLev: -92
arfcn: 829 rxLev: -92
$GPRMC,142046.000,A,4718.2537,N,00133.4356,W,18.39,133.87,291217,,,A*46
arfcn: 810 rxLev: -92
arfcn: 842 rxLev: -92
arfcn: 839 rxLev: -92
arfcn: 856 rxLev: -92
arfcn: 858 rxLev: -92
arfcn: 850 rxLev: -92
arfcn: 869 rxLev: -92
$GPGGA,142047.000,4718.2503,N,00133.4303,W,1,07,1.4,26.0,M,48.5,M,,0000*7E
arfcn: 85 rxLev: -92
$GPGSA,M,3,05,30,13,28,07,02,09,,,,,,2.0,1.4,1.5*3F
arfcn: 980 rxLev: -92
arfcn: 623 rxLev: -92
$GPRMC,142047.000,A,4718.2503,N,00133.4303,W,18.06,131.90,291217,,,A*48
arfcn: 624 rxLev: -92
arfcn: 626 rxLev: -93
arfcn: 640 rxLev: -93
arfcn: 648 rxLev: -93
arfcn: 978 rxLev: -93
arfcn: 66 rxLev: -93
arfcn: 68 rxLev: -93
$GPGGA,142048.000,4718.2471,N,00133.4248,W,1,06,1.7,25.6,M,48.5,M,,0000*7C
arfcn: 26 rxLev: -93
arfcn: 860 rxLev: -93
$GPGSA,M,3,05,30,13,28,07,09,,,,,,,2.7,1.7,2.1*3E
arfcn: 862 rxLev: -93
arfcn: 846 rxLev: -93
$GPGSV,3,1,12,05,71,220,29,30,61,063,38,13,51,286,35,28,35,124,30*7E
arfcn: 841 rxLev: -93
arfcn: 861 rxLev: -93
$GPGSV,3,2,12,07,33,054,47,09,05,095,18,02,07,211,15,15,19,284,26*72
arfcn: 859 rxLev: -93
$GPGSV,3,3,12,20,32,306,26,21,10,324,28,33,33,198,31,04,19,231,*7B
arfcn: 802 rxLev: -93
$GPRMC,142048.000,A,4718.2471,N,00133.4248,W,18.62,129.44,291217,,,A*4F
arfcn: 10 rxLev: -93
arfcn: 63 rxLev: -93
arfcn: 64 rxLev: -93
$GPGGA,142049.000,4718.2446,N,00133.4189,W,1,07,1.4,25.3,M,48.5,M,,0000*70
arfcn: 83 rxLev: -93
$GPGSA,M,3,05,30,13,28,07,02,09,,,,,,2.0,1.4,1.5*3F
arfcn: 976 rxLev: -93
arfcn: 109 rxLev: -93
$GPRMC,142049.000,A,4718.2446,N,00133.4189,W,17.24,122.67,291217,,,A*43
arfcn: 1017 rxLev: -93
arfcn: 657 rxLev: -93
arfcn: 679 rxLev: -93
arfcn: 641 rxLev: -93
arfcn: 622 rxLev: -93
arfcn: 628 rxLev: -94
$GPGGA,142050.000,4718.2424,N,00133.4133,W,1,07,1.4,25.0,M,48.5,M,,0000*7E
arfcn: 642 rxLev: -94
$GPGSA,M,3,05,30,13,28,07,02,09,,,,,,2.0,1.4,1.5*3F
arfcn: 645 rxLev: -94
arfcn: 661 rxLev: -94
$GPRMC,142050.000,A,4718.2424,N,00133.4133,W,17.08,123.34,291217,,,A*47
arfcn: 655 rxLev: -94
arfcn: 1012 rxLev: -94
arfcn: 990 rxLev: -94
arfcn: 65 rxLev: -94
arfcn: 61 rxLev: -94
arfcn: 57 rxLev: -94
arfcn: 54 rxLev: -94
$GPGGA,142051.000,4718.2398,N,00133.4076,W,1,07,1.4,24.7,M,48.5,M,,0000*79
arfcn: 691 rxLev: -94
arfcn: 696 rxLev: -94
$GPGSA,M,3,05,30,13,28,07,02,09,,,,,,2.0,1.4,1.5*3F
arfcn: 863 rxLev: -94
arfcn: 866 rxLev: -94
$GPRMC,142051.000,A,4718.2398,N,00133.4076,W,17.78,125.86,291217,,,A*4E
arfcn: 694 rxLev: -94
arfcn: 55 rxLev: -94
arfcn: 56 rxLev: -94
arfcn: 58 rxLev: -94
arfcn: 59 rxLev: -94
arfcn: 60 rxLev: -94
arfcn: 70 rxLev: -94
$GPGGA,142052.000,4718.2368,N,00133.4016,W,1,07,1.4,24.4,M,48.5,M,,0000*70
arfcn: 122 rxLev: -94
$GPGSA,M,3,05,30,13,28,07,02,09,,,,,,2.0,1.4,1.5*3F
arfcn: 1021 rxLev: -94
arfcn: 646 rxLev: -94
$GPRMC,142052.000,A,4718.2368,N,00133.4016,W,18.99,126.18,291217,,,A*40
arfcn: 638 rxLev: -94
arfcn: 630 rxLev: -94
arfcn: 631 rxLev: -94
arfcn: 625 rxLev: -94
arfcn: 627 rxLev: -95
arfcn: 620 rxLev: -95
arfcn: 644 rxLev: -95
arfcn: 659 rxLev: -95
$GPGGA,142053.000,4718.2335,N,00133.3952,W,1,07,1.4,24.0,M,48.5,M,,0000*73
arfcn: 677 rxLev: -95
$GPGSA,M,3,05,30,13,28,07,02,09,,,,,,2.0,1.4,1.5*3F
arfcn: 605 rxLev: -95
arfcn: 991 rxLev: -95
$GPGSV,3,1,12,05,71,220,32,30,61,063,37,13,51,286,35,28,35,124,31*7A
arfcn: 71 rxLev: -95
arfcn: 69 rxLev: -95
$GPGSV,3,2,12,07,33,054,47,02,07,211,16,09,05,095,25,15,19,284,31*79
arfcn: 62 rxLev: -95
arfcn: 689 rxLev: -95
$GPGSV,3,3,12,20,32,306,27,33,33,198,25,04,19,231,,21,10,324,*75
arfcn: 868 rxLev: -95
arfcn: 690 rxLev: -95
$GPRMC,142053.000,A,4718.2335,N,00133.3952,W,19.91,124.88,291217,,,A*45
arfcn: 681 rxLev: -95
arfcn: 53 rxLev: -95
arfcn: 47 rxLev: -95
$GPGGA,142054.000,4718.2302,N,00133.3883,W,1,07,1.4,23.6,M,48.5,M,,0000*7C
arfcn: 12 rxLev: -95
$GPGSA,M,3,05,30,13,28,07,02,09,,,,,,2.0,1.4,1.5*3F
arfcn: 76 rxLev: -95
arfcn: 86 rxLev: -95
$GPRMC,142054.000,A,4718.2302,N,00133.3883,W,21.11,124.85,291217,,,A*45
arfcn: 992 rxLev: -95
arfcn: 993 rxLev: -95
arfcn: 996 rxLev: -95
arfcn: 647 rxLev: -95
arfcn: 643 rxLev: -95
arfcn: 632 rxLev: -96
arfcn: 621 rxLev: -96
arfcn: 618 rxLev: -96
$GPGGA,142055.000,4718.2265,N,00133.3810,W,1,07,1.4,23.1,M,48.5,M,,0000*70
$GPGSA,M,3,05,30,13,28,07,02,09,,,,,,2.0,1.4,1.5*3F
arfcn: 653 rxLev: -96
arfcn: 994 rxLev: -96
$GPRMC,142055.000,A,4718.2265,N,00133.3810,W,22.95,126.08,291217,,,A*46
arfcn: 998 rxLev: -96
arfcn: 999 rxLev: -96
arfcn: 1001 rxLev: -96
arfcn: 1002 rxLev: -96
arfcn: 77 rxLev: -96
arfcn: 123 rxLev: -96
arfcn: 682 rxLev: -96
$GPGGA,142056.000,4718.2224,N,00133.3735,W,1,06,1.7,22.4,M,48.5,M,,0000*78
arfcn: 867 rxLev: -96
arfcn: 865 rxLev: -96
$GPGSA,M,3,05,30,13,28,07,09,,,,,,,2.7,1.7,2.1*3E
arfcn: 121 rxLev: -96
$GPRMC,142056.000,A,4718.2224,N,00133.3735,W,23.87,129.14,291217,,,A*48
arfcn: 110 rxLev: -96
arfcn: 72 rxLev: -96
arfcn: 82 rxLev: -96
arfcn: 21 rxLev: -96
arfcn: 1003 rxLev: -96
arfcn: 1004 rxLev: -96
arfcn: 1005 rxLev: -96
arfcn: 1006 rxLev: -96
arfcn: 997 rxLev: -96
$GPGGA,142057.000,4718.2177,N,00133.3659,W,1,06,1.7,21.7,M,48.5,M,,0000*77
arfcn: 607 rxLev: -96
$GPGSA,M,3,05,30,13,28,07,09,,,,,,,2.7,1.7,2.1*3E
arfcn: 1014 rxLev: -96
$GPRMC,142057.000,A,4718.2177,N,00133.3659,W,24.98,131.09,291217,,,A*4B
arfcn: 649 rxLev: -96
arfcn: 651 rxLev: -96
arfcn: 665 rxLev: -96
arfcn: 629 rxLev: -96
arfcn: 639 rxLev: -96
arfcn: 636 rxLev: -97
arfcn: 634 rxLev: -97
arfcn: 678 rxLev: -97
arfcn: 672 rxLev: -97
$GPGGA,142058.000,4718.2128,N,00133.3581,W,1,06,1.7,20.9,M,48.5,M,,0000*7B
arfcn: 673 rxLev: -97
$GPGSA,M,3,05,30,13,28,07,09,,,,,,,2.7,1.7,2.1*3E
arfcn: 650 rxLev: -97
arfcn: 658 rxLev: -97
$GPGSV,3,1,12,05,71,220,38,30,61,063,37,13,51,286,35,28,35,124,35*74
arfcn: 660 rxLev: -97
arfcn: 662 rxLev: -97
$GPGSV,3,2,12,07,33,054,46,09,05,095,18,02,07,211,14,15,19,284,33*76
arfcn: 1020 rxLev: -97
arfcn: 995 rxLev: -97
$GPGSV,3,3,12,20,32,306,27,33,33,198,33,04,19,231,,21,10,324,*72
arfcn: 1000 rxLev: -97
arfcn: 1007 rxLev: -97
$GPRMC,142058.000,A,4718.2128,N,00133.3581,W,26.34,132.92,291217,,,A*4D
arfcn: 15 rxLev: -97
arfcn: 49 rxLev: -97
$GPGGA,142059.000,4718.2075,N,00133.3502,W,1,06,1.7,20.4,M,48.5,M,,0000*75
arfcn: 80 rxLev: -97
arfcn: 120 rxLev: -97
$GPGSA,M,3,05,30,13,28,07,09,,,,,,,2.7,1.7,2.1*3E
arfcn: 680 rxLev: -97
arfcn: 695 rxLev: -97
$GPRMC,142059.000,A,4718.2075,N,00133.3502,W,27.07,134.97,291217,,,A*4C
arfcn: 693 rxLev: -97
arfcn: 701 rxLev: -97
arfcn: 703 rxLev: -97
arfcn: 704 rxLev: -97
arfcn: 706 rxLev: -97
arfcn: 698 rxLev: -97
arfcn: 688 rxLev: -97
arfcn: 89 rxLev: -97
$GPGGA,142100.000,4718.2021,N,00133.3426,W,1,06,1.7,19.9,M,48.5,M,,0000*79
arfcn: 78 rxLev: -97
$GPGSA,M,3,05,30,13,28,07,09,,,,,,,2.7,1.7,2.1*3E
arfcn: 1008 rxLev: -97
arfcn: 609 rxLev: -97
$GPRMC,142100.000,A,4718.2021,N,00133.3426,W,27.42,137.19,291217,,,A*43
arfcn: 656 rxLev: -97
arfcn: 654 rxLev: -97
arfcn: 675 rxLev: -97
arfcn: 670 rxLev: -97
arfcn: 671 rxLev: -97
arfcn: 635 rxLev: -97
arfcn: 633 rxLev: -97
arfcn: 617 rxLev: -97
arfcn: 619 rxLev: -98
$GPGGA,142101.000,4718.1966,N,00133.3352,W,1,07,1.4,20.0,M,48.5,M,,0000*74
arfcn: 669 rxLev: -98
$GPGSA,M,3,05,30,13,28,07,02,09,,,,,,2.0,1.4,1.5*3F
arfcn: 667 rxLev: -98
arfcn: 674 rxLev: -98
$GPRMC,142101.000,A,4718.1966,N,00133.3352,W,26.69,138.52,291217,,,A*47
arfcn: 676 rxLev: -98
arfcn: 652 rxLev: -98
arfcn: 663 rxLev: -98
arfcn: 1013 rxLev: -98
arfcn: 983 rxLev: -98
arfcn: 73 rxLev: -98
arfcn: 111 rxLev: -98
$GPGGA,142102.000,4718.1910,N,00133.3282,W,1,07,1.4,20.3,M,48.5,M,,0000*79
arfcn: 11 rxLev: -98
$GPGSA,M,3,05,30,13,28,07,02,09,,,,,,2.0,1.4,1.5*3F
arfcn: 687 rxLev: -98
arfcn: 683 rxLev: -98
$GPRMC,142102.000,A,4718.1910,N,00133.3282,W,26.02,140.70,291217,,,A*4B
arfcn: 702 rxLev: -98
arfcn: 700 rxLev: -98
arfcn: 864 rxLev: -98
arfcn: 52 rxLev: -98
arfcn: 1019 rxLev: -98
arfcn: 603 rxLev: -99
arfcn: 982 rxLev: -99
arfcn: 666 rxLev: -99
arfcn: 664 rxLev: -99
$GPGGA,142103.000,4718.1855,N,00133.3218,W,1,07,1.4,20.7,M,48.5,M,,0000*7F
arfcn: 668 rxLev: -99
$GPGSA,M,3,05,30,13,28,07,02,09,,,,,,2.0,1.4,1.5*3F
arfcn: 6 rxLev: -99
arfcn: 118 rxLev: -99
$GPGSV,3,1,12,05,71,220,35,30,61,063,31,13,51,286,26,28,35,124,31*79
arfcn: 75 rxLev: -99
arfcn: 88 rxLev: -99
$GPGSV,3,2,12,07,33,054,46,02,07,211,17,09,05,095,19,15,19,284,31*76
arfcn: 684 rxLev: -99
$GPGSV,3,3,12,20,32,306,33,21,10,324,31,33,33,198,30,04,19,231,*76
arfcn: 685 rxLev: -99
arfcn: 699 rxLev: -99
$GPRMC,142103.000,A,4718.1855,N,00133.3218,W,24.69,142.41,291217,,,A*46
arfcn: 705 rxLev: -99
arfcn: 870 rxLev: -99
$GPGGA,142104.000,4718.1804,N,00133.3162,W,1,07,1.4,20.8,M,48.5,M,,0000*7D
arfcn: 74 rxLev: -99
arfcn: 17 rxLev: -99
$GPGSA,M,3,05,30,13,28,07,02,09,,,,,,2.0,1.4,1.5*3F
arfcn: 981 rxLev: -99
$GPRMC,142104.000,A,4718.1804,N,00133.3162,W,22.04,142.76,291217,,,A*42
$GPGGA,142105.000,4718.1760,N,00133.3110,W,1,07,1.4,20.7,M,48.5,M,,0000*7B
$GPGSA,M,3,05,30,13,28,07,02,09,,,,,,2.0,1.4,1.5*3F
$GPRMC,142105.000,A,4718.1760,N,00133.3110,W,20.41,144.10,291217,,,A*4E
$GPGGA,142106.000,4718.1715,N,00133.3075,W,1,07,1.4,18.9,M,48.5,M,,0000*7D
$GPGSA,M,3,05,30,13,28,07,02,09,,,,,,2.0,1.4,1.5*3F
$GPRMC,142106.000,A,4718.1715,N,00133.3075,W,19.69,151.40,291217,,,A*4C
$GPGGA,142107.000,4718.1668,N,00133.3047,W,1,07,1.4,19.0,M,48.5,M,,0000*7E
$GPGSA,M,3,05,30,13,28,07,02,09,,,,,,2.0,1.4,1.5*3F
$GPRMC,142107.000,A,4718.1668,N,00133.3047,W,18.40,160.68,291217,,,A*45
$GPGGA,142108.000,4718.1618,N,00133.3029,W,1,07,1.4,18.6,M,48.5,M,,0000*79
$GPGSA,M,3,05,30,13,28,07,02,09,,,,,,2.0,1.4,1.5*3F
$GPGSV,3,1,12,05,71,220,40,30,61,063,40,13,51,286,38,28,35,124,36*75
$GPGSV,3,2,12,07,33,054,36,02,07,211,18,09,05,095,20,15,19,284,34*71
$GPGSV,3,3,12,20,32,306,38,21,10,324,31,33,33,198,31,04,19,231,*7C
$GPRMC,142108.000,A,4718.1618,N,00133.3029,W,18.29,164.11,291217,,,A*40
$GPGGA,142109.000,4718.1576,N,00133.2999,W,1,07,1.4,21.2,M,48.5,M,,0000*7E
$GPGSA,M,3,05,30,13,28,07,02,09,,,,,,2.0,1.4,1.5*3F
$GPRMC,142109.000,A,4718.1576,N,00133.2999,W,17.96,154.25,291217,,,A*46
$GPGGA,142110.000,4718.1535,N,00133.2962,W,1,07,1.4,21.3,M,48.5,M,,0000*74
$GPGSA,M,3,05,30,13,28,07,02,09,,,,,,2.0,1.4,1.5*3F
arfcn: 1022 bsic: 13 rxLev: -99 ber: 11.01 mcc: 208 mnc: 20 lac: 420 cellId: 20946 cellStatus: CELL_SUITABLE numArfcn: 1 arfcn: 1022 numChannels: 2 array: 876 883
$GPRMC,142110.000,A,4718.1535,N,00133.2962,W,17.57,146.24,291217,,,A*42
arfcn: 516 rxLev: -99
arfcn: 1015 rxLev: -99
arfcn: 637 rxLev: -100
arfcn: 4 rxLev: -100
arfcn: 87 rxLev: -100
arfcn: 113 rxLev: -100
arfcn: 697 rxLev: -100
$GPGGA,142111.000,4718.1502,N,00133.2911,W,1,07,1.4,21.5,M,48.5,M,,0000*73
arfcn: 686 rxLev: -100
arfcn: 729 rxLev: -100
$GPGSA,M,3,05,30,13,28,07,02,09,,,,,,2.0,1.4,1.5*3F
arfcn: 117 rxLev: -100
arfcn: 1018 rxLev: -100
$GPRMC,142111.000,A,4718.1502,N,00133.2911,W,17.31,135.44,291217,,,A*41
arfcn: 984 rxLev: -100
arfcn: 979 rxLev: -101
arfcn: 79 rxLev: -101
arfcn: 23 rxLev: -101
arfcn: 24 rxLev: -101
arfcn: 985 rxLev: -101
arfcn: 989 rxLev: -101
arfcn: 610 rxLev: -101
$GPGGA,142112.000,4718.1478,N,00133.2853,W,1,07,1.4,21.2,M,48.5,M,,0000*7C
$GPGSA,M,3,05,30,13,28,07,02,09,,,,,,2.0,1.4,1.5*3F
arfcn: 512 rxLev: -102
arfcn: 20 rxLev: -102
$GPRMC,142112.000,A,4718.1478,N,00133.2853,W,17.63,125.32,291217,,,A*4E
arfcn: 5 rxLev: -102
arfcn: 14 rxLev: -102
arfcn: 48 rxLev: -102
arfcn: 51 rxLev: -102
arfcn: 608 rxLev: -103
arfcn: 987 rxLev: -103
arfcn: 1009 rxLev: -103
$GPGGA,142113.000,4718.1451,N,00133.2793,W,1,07,1.4,21.1,M,48.5,M,,0000*76
arfcn: 50 rxLev: -103
$GPGSA,M,3,05,30,13,28,07,02,09,,,,,,2.0,1.4,1.5*3F
arfcn: 16 rxLev: -103
arfcn: 81 rxLev: -103
$GPGSV,3,1,12,05,71,220,30,30,61,063,35,13,51,286,37,28,35,124,33*7A
arfcn: 881 rxLev: -103
arfcn: 115 rxLev: -104
$GPGSV,3,2,12,07,33,054,40,02,07,211,18,09,05,095,24,15,19,284,34*74
arfcn: 986 rxLev: -104
arfcn: 522 rxLev: -104
$GPGSV,3,3,12,20,32,306,32,21,10,324,28,33,33,198,32,04,19,231,*7D
arfcn: 1011 rxLev: -104
arfcn: 116 rxLev: -104
$GPRMC,142113.000,A,4718.1451,N,00133.2793,W,18.35,126.76,291217,,,A*48
arfcn: 25 rxLev: -105
arfcn: 1016 rxLev: -105
arfcn: 546 rxLev: -105
$GPGGA,142114.000,4718.1417,N,00133.2735,W,1,07,1.4,21.1,M,48.5,M,,0000*7F
arfcn: 602 rxLev: -105
$GPGSA,M,3,05,30,13,28,07,02,09,,,,,,2.0,1.4,1.5*3F
arfcn: 879 rxLev: -105
$GPRMC,142114.000,A,4718.1417,N,00133.2735,W,18.89,134.25,291217,,,A*43
arfcn: 22 rxLev: -105
arfcn: 114 rxLev: -105
arfcn: 600 rxLev: -106
arfcn: 518 rxLev: -106
arfcn: 611 rxLev: -106
arfcn: 616 rxLev: -106
arfcn: 726 rxLev: -106
arfcn: 789 rxLev: -106
$GPGGA,142115.000,4718.1374,N,00133.2682,W,1,07,1.4,21.2,M,48.5,M,,0000*72
arfcn: 794 rxLev: -106
$GPGSA,M,3,05,30,13,28,07,02,09,,,,,,2.0,1.4,1.5*3F
arfcn: 517 rxLev: -106
arfcn: 112 rxLev: -106
$GPRMC,142115.000,A,4718.1374,N,00133.2682,W,21.29,144.26,291217,,,A*49
arfcn: 598 rxLev: -107
arfcn: 514 rxLev: -107
arfcn: 988 rxLev: -107
arfcn: 785 rxLev: -107
arfcn: 787 rxLev: -108
arfcn: 744 rxLev: -108
arfcn: 884 rxLev: -108
arfcn: 515 rxLev: -108
$GPGGA,142116.000,4718.1325,N,00133.2628,W,1,07,1.4,21.2,M,48.5,M,,0000*75
arfcn: 0 rxLev: -108
Network survey ended
$GPGSA,M,3,05,30,13,28,07,02,09,,,,,,2.0,1.4,1.5*3F
Survey end at #CCLK: "17/12/29,15:21:16+04"
Survey duration: 70 seconds, 9 bases detected over 363 freqs scanned.
$GPRMC,142116.000,A,4718.1325,N,00133.2628,W,23.30,144.67,291217,,,A*41
$GPGGA,142117.000,4718.1271,N,00133.2568,W,1,07,1.4,21.4,M,48.5,M,,0000*75
$GPGSA,M,3,05,30,13,28,07,02,09,,,,,,2.0,1.4,1.5*3F
$GPRMC,142117.000,A,4718.1271,N,00133.2568,W,25.18,143.80,291217,,,A*45
Survey start at #CCLK: "17/12/29,15:21:18+04"
at#csurv
Network survey started ...
$GPGGA,142118.000,4718.1214,N,00133.2504,W,1,07,1.4,21.6,M,48.5,M,,0000*71
$GPGSA,M,3,05,30,13,28,07,02,09,,,,,,2.0,1.4,1.5*3F
$GPGSV,3,1,12,05,71,220,38,30,61,063,29,13,51,286,37,28,35,124,38*74
$GPGSV,3,2,12,07,33,054,43,02,07,211,17,09,05,095,18,15,19,284,27*75
$GPGSV,3,3,12,20,32,306,30,21,10,324,32,33,33,198,38,04,19,231,*7E
$GPRMC,142118.000,A,4718.1214,N,00133.2504,W,27.00,143.69,291217,,,A*4F
$GPGGA,142119.000,4718.1153,N,00133.2437,W,1,06,1.4,21.9,M,48.5,M,,0000*7F
$GPGSA,M,3,05,13,28,07,02,09,,,,,,,2.1,1.4,1.6*3E
$GPRMC,142119.000,A,4718.1153,N,00133.2437,W,27.22,143.87,291217,,,A*4F
$GPGGA,142120.000,4718.1093,N,00133.2371,W,1,06,1.4,22.2,M,48.5,M,,0000*75
$GPGSA,M,3,05,13,28,07,02,09,,,,,,,2.1,1.4,1.6*3E
$GPRMC,142120.000,A,4718.1093,N,00133.2371,W,27.20,143.28,291217,,,A*4A
$GPGGA,142121.000,4718.1033,N,00133.2304,W,1,05,1.9,22.5,M,48.5,M,,0000*75
$GPGSA,M,3,05,13,28,07,09,,,,,,,,3.4,1.9,2.8*38
$GPRMC,142121.000,A,4718.1033,N,00133.2304,W,27.25,143.03,291217,,,A*4F
$GPGGA,142122.000,4718.0973,N,00133.2236,W,1,05,1.9,22.8,M,48.5,M,,0000*77
$GPGSA,M,3,05,13,28,07,09,,,,,,,,3.4,1.9,2.8*38
$GPRMC,142122.000,A,4718.0973,N,00133.2236,W,27.15,142.77,291217,,,A*41
$GPGGA,142123.000,4718.0913,N,00133.2170,W,1,06,1.7,23.0,M,48.5,M,,0000*75
$GPGSA,M,3,05,30,13,28,07,09,,,,,,,2.7,1.7,2.1*3E
$GPGSV,3,1,12,05,71,220,39,30,61,063,33,13,51,286,35,28,35,124,37*73
$GPGSV,3,2,12,07,33,054,45,09,05,095,18,02,07,211,30,15,19,284,27*76
$GPGSV,3,3,12,20,32,306,29,21,10,324,31,33,33,198,40,04,19,231,*7A
$GPRMC,142123.000,A,4718.0913,N,00133.2170,W,26.97,142.82,291217,,,A*46
$GPGGA,142124.000,4718.0855,N,00133.2101,W,1,06,1.4,24.1,M,48.5,M,,0000*72
$GPGSA,M,3,05,30,13,28,07,02,,,,,,,2.3,1.4,1.8*38
$GPRMC,142124.000,A,4718.0855,N,00133.2101,W,26.73,142.80,291217,,,A*4C
$GPGGA,142125.000,4718.0796,N,00133.2037,W,1,05,1.7,23.3,M,48.5,M,,0000*72
$GPGSA,M,3,05,30,13,28,07,,,,,,,,4.1,1.7,3.7*30
$GPRMC,142125.000,A,4718.0796,N,00133.2037,W,26.07,142.36,291217,,,A*47
$GPGGA,142126.000,4718.0738,N,00133.1973,W,1,06,1.4,23.2,M,48.5,M,,0000*7E
$GPGSA,M,3,05,30,13,28,07,02,,,,,,,2.3,1.4,1.8*38
$GPRMC,142126.000,A,4718.0738,N,00133.1973,W,26.49,142.79,291217,,,A*4B
$GPGGA,142127.000,4718.0680,N,00133.1909,W,1,06,1.4,22.6,M,48.5,M,,0000*75
$GPGSA,M,3,05,30,13,28,07,02,,,,,,,2.3,1.4,1.8*38
$GPRMC,142127.000,A,4718.0680,N,00133.1909,W,25.84,143.20,291217,,,A*4A
$GPGGA,142128.000,4718.0623,N,00133.1848,W,1,06,1.4,21.8,M,48.5,M,,0000*7A
arfcn: 84 bsic: 46 rxLev: -74 ber: 0.00 mcc: 208 mnc: 10 lac: 49409 cellId: 4447 cellStatus: CELL_FORBIDDEN numArfcn: 4 arfcn: 75 81 84 113 numChannels: 18 array: 76 77 78 79 80 82 83 84 85 86 114 115 117 119 120 122 124 612 pbcch: 0 nom: 2 rac: 30 spgc: 0 pat: 6 nco: 0 t3168: 1000 t3192: 500 drxmax: 4 ctrlAck: 1 bsCVmax: 9 alpha: 10 pcMeasCh: 0 
$GPGSA,M,3,05,30,13,28,07,02,,,,,,,2.3,1.4,1.8*38
$GPGSV,3,1,12,05,71,220,33,30,61,063,39,13,51,286,35,28,35,124,36*72
$GPGSV,3,2,12,07,33,054,41,02,07,211,17,09,05,095,17,15,19,284,27*78
$GPGSV,3,3,12,20,32,306,30,21,10,324,27,33,33,198,36,04,19,231,*74
$GPRMC,142128.000,A,4718.0623,N,00133.1848,W,25.20,142.77,291217,,,A*45
$GPGGA,142129.000,4718.0568,N,00133.1787,W,1,06,1.4,20.9,M,48.5,M,,0000*7B
$GPGSA,M,3,05,30,13,28,07,02,,,,,,,2.3,1.4,1.8*38
$GPRMC,142129.000,A,4718.0568,N,00133.1787,W,24.58,142.23,291217,,,A*4B
arfcn: 2 bsic: 37 rxLev: -75 ber: 0.00 mcc: 208 mnc: 01 lac: 6404 cellId: 22696 cellStatus: CELL_FORBIDDEN numArfcn: 13 arfcn: 2 17 18 19 20 21 22 23 24 25 47 48 49 numChannels: 17 array: 1 2 3 4 5 6 7 8 9 10 12 13 15 517 604 606 608 pbcch: 0 nom: 2 rac: 1 spgc: 1 pat: 6 nco: 0 t3168: 1000 t3192: 500 drxmax: 4 ctrlAck: 1 bsCVmax: 9 alpha: 7 pcMeasCh: 0 
arfcn: 36 rxLev: -77
arfcn: 37 rxLev: -77
arfcn: 38 rxLev: -77
arfcn: 39 rxLev: -78
arfcn: 40 rxLev: -78
arfcn: 42 rxLev: -78
$GPGGA,142130.000,4718.0517,N,00133.1726,W,1,06,1.4,20.5,M,48.5,M,,0000*7C
$GPGSA,M,3,05,30,13,28,07,02,,,,,,,2.3,1.4,1.8*38
$GPRMC,142130.000,A,4718.0517,N,00133.1726,W,23.10,140.90,291217,,,A*41
$GPGGA,142131.000,4718.0472,N,00133.1670,W,1,07,1.1,20.7,M,48.5,M,,0000*7B
$GPGSA,M,3,05,30,13,28,07,02,20,,,,,,2.0,1.1,1.7*33
$GPRMC,142131.000,A,4718.0472,N,00133.1670,W,19.17,141.44,291217,,,A*46
$GPGGA,142132.000,4718.0434,N,00133.1623,W,1,07,1.1,20.4,M,48.5,M,,0000*7F
$GPGSA,M,3,05,30,13,28,20,07,02,,,,,,2.0,1.1,1.7*33
$GPRMC,142132.000,A,4718.0434,N,00133.1623,W,16.30,141.77,291217,,,A*4B
$GPGGA,142133.000,4718.0404,N,00133.1587,W,1,07,1.1,20.1,M,48.5,M,,0000*75
$GPGSA,M,3,05,30,13,28,20,07,02,,,,,,2.0,1.1,1.7*33
$GPGSV,3,1,12,05,70,218,32,30,60,063,39,13,51,287,28,28,35,123,36*72
$GPGSV,3,2,12,20,33,305,31,07,32,054,45,02,06,210,17,09,04,096,15*7C
$GPGSV,3,3,12,15,20,284,24,21,10,323,28,33,33,198,,04,19,230,*73
$GPRMC,142133.000,A,4718.0404,N,00133.1587,W,13.17,141.88,291217,,,A*44
$GPGGA,142134.000,4718.0385,N,00133.1565,W,1,07,1.1,19.9,M,48.5,M,,0000*72
$GPGSA,M,3,05,30,13,28,20,07,02,,,,,,2.0,1.1,1.7*33
$GPRMC,142134.000,A,4718.0385,N,00133.1565,W,7.80,142.19,291217,,,A*71
arfcn: 606 bsic: 25 rxLev: -78 ber: 0.00 mcc: 208 mnc: 01 lac: 6404 cellId: 42661 cellStatus: CELL_FORBIDDEN numArfcn: 17 arfcn: 519 520 521 522 523 524 525 526 596 597 598 599 600 601 602 603 606 numChannels: 15 array: 2 3 5 6 7 8 9 10 12 13 513 517 604 606 608 pbcch: 0 nom: 2 rac: 1 spgc: 1 pat: 6 nco: 0 t3168: 1000 t3192: 500 drxmax: 4 ctrlAck: 1 bsCVmax: 9 alpha: 7 pcMeasCh: 0 
arfcn: 41 rxLev: -78
$GPGGA,142135.000,4718.0368,N,00133.1546,W,0,00,,19.8,M,48.5,M,,0000*58
arfcn: 43 rxLev: -79
$GPGSA,M,1,,,,,,,,,,,,,,,*12
arfcn: 44 rxLev: -79
$GPRMC,142135.000,V,4718.0368,N,00133.1546,W,,,291217,,,N*6A
arfcn: 31 rxLev: -79
arfcn: 32 rxLev: -79
arfcn: 33 rxLev: -80
arfcn: 35 rxLev: -80
arfcn: 45 rxLev: -80
arfcn: 30 rxLev: -80
arfcn: 28 rxLev: -81
arfcn: 29 rxLev: -81
$GPGGA,142136.000,4718.0360,N,00133.1545,W,1,05,1.6,19.4,M,48.5,M,,0000*71
arfcn: 34 rxLev: -81
arfcn: 27 rxLev: -81
$GPGSA,M,3,30,13,28,20,07,,,,,,,,3.7,1.6,3.3*33
$GPRMC,142136.000,A,4718.0360,N,00133.1545,W,4.21,145.60,291217,,,A*7B
$GPGGA,142137.054,4718.0353,N,00133.1547,W,1,06,1.5,17.7,M,48.5,M,,0000*7E
$GPGSA,M,3,05,30,13,28,20,07,,,,,,,3.2,1.5,2.8*3A
$GPRMC,142137.054,A,4718.0353,N,00133.1547,W,4.66,149.84,291217,,,A*7C
$GPGGA,142138.000,4718.0338,N,00133.1539,W,1,06,1.5,17.6,M,48.5,M,,0000*75
$GPGSA,M,3,05,30,13,28,20,07,,,,,,,3.2,1.5,2.8*3A
$GPGSV,3,1,12,05,70,218,35,30,60,063,37,13,51,287,35,28,35,123,36*77
$GPGSV,3,2,12,20,33,305,35,07,32,054,40,33,33,198,35,15,20,284,*74
$GPGSV,3,3,12,04,19,230,,21,10,323,,02,06,210,,09,04,096,*72
$GPRMC,142138.000,A,4718.0338,N,00133.1539,W,7.38,154.18,291217,,,A*77
arfcn: 880 bsic: 28 rxLev: -82 ber: 0.00 mcc: 208 mnc: 20 lac: 420 cellId: 22048 cellStatus: CELL_SUITABLE numArfcn: 3 arfcn: 797 875 880 numChannels: 18 array: 789 791 792 794 877 884 975 977 978 980 983 1012 1014 1015 1016 1018 1019 1021 pbcch: 0 nom: 2 rac: 7 spgc: 0 pat: 6 nco: 0 t3168: 1500 t3192: 500 drxmax: 0 ctrlAck: 0 bsCVmax: 8 alpha: 6 pcMeasCh: 1 
$GPGGA,142139.000,4718.0317,N,00133.1533,W,1,06,1.5,17.1,M,48.5,M,,0000*74
$GPGSA,M,3,05,30,13,28,20,07,,,,,,,3.2,1.5,2.8*3A
$GPRMC,142139.000,A,4718.0317,N,00133.1533,W,8.84,157.19,291217,,,A*7B
$GPGGA,142140.000,4718.0295,N,00133.1520,W,1,06,1.5,17.3,M,48.5,M,,0000*71
$GPGSA,M,3,05,30,13,28,20,07,,,,,,,3.2,1.5,2.8*3A
$GPRMC,142140.000,A,4718.0295,N,00133.1520,W,9.34,153.16,291217,,,A*7D
$GPGGA,142141.000,4718.0272,N,00133.1503,W,1,06,1.5,16.9,M,48.5,M,,0000*73
$GPGSA,M,3,05,30,13,28,20,07,,,,,,,3.2,1.5,2.8*3A
$GPRMC,142141.000,A,4718.0272,N,00133.1503,W,9.46,144.94,291217,,,A*7D
$GPGGA,142142.000,4718.0252,N,00133.1476,W,1,06,1.5,16.2,M,48.5,M,,0000*7A
$GPGSA,M,3,05,30,13,28,20,07,,,,,,,3.2,1.5,2.8*3A
$GPRMC,142142.000,A,4718.0252,N,00133.1476,W,9.82,133.50,291217,,,A*7F
arfcn: 9 bsic: 0 rxLev: -84 ber: 0.00 mcc: 208 mnc: 01 lac: 6404 cellId: 22705 cellStatus: CELL_FORBIDDEN numArfcn: 13 arfcn: 9 17 18 19 20 21 22 23 24 25 47 48 49 numChannels: 14 array: 1 2 3 4 8 9 10 11 12 513 516 517 606 609 pbcch: 0 nom: 2 rac: 1 spgc: 1 pat: 6 nco: 0 t3168: 1000 t3192: 500 drxmax: 4 ctrlAck: 1 bsCVmax: 9 alpha: 7 pcMeasCh: 0 
arfcn: 93 rxLev: -86
arfcn: 94 rxLev: -86
arfcn: 95 rxLev: -86
arfcn: 26 rxLev: -86
arfcn: 92 rxLev: -87
arfcn: 91 rxLev: -88
arfcn: 96 rxLev: -88
$GPGGA,142143.000,4718.0245,N,00133.1438,W,1,07,1.1,16.0,M,48.5,M,,0000*70
arfcn: 98 rxLev: -88
$GPGSA,M,3,05,30,13,28,20,07,02,,,,,,2.0,1.1,1.7*33
arfcn: 97 rxLev: -88
$GPGSV,3,1,12,05,70,218,34,30,60,063,38,13,51,287,35,28,35,123,35*7A
$GPGSV,3,2,12,20,33,305,32,07,32,054,35,02,06,210,17,09,04,096,19*74
$GPGSV,3,3,12,15,20,284,26,21,10,323,31,33,33,198,29,04,19,230,*72
$GPRMC,142143.000,A,4718.0245,N,00133.1438,W,9.48,120.21,291217,,,A*70
$GPGGA,142144.000,4718.0250,N,00133.1398,W,1,07,1.1,16.2,M,48.5,M,,0000*7C
$GPGSA,M,3,05,30,13,28,20,07,02,,,,,,2.0,1.1,1.7*33
$GPRMC,142144.000,A,4718.0250,N,00133.1398,W,9.29,101.74,291217,,,A*7A
arfcn: 77 bsic: 42 rxLev: -88 ber: 0.00 mcc: 208 mnc: 10 lac: 49409 cellId: 14447 cellStatus: CELL_FORBIDDEN numArfcn: 4 arfcn: 77 89 112 121 numChannels: 19 array: 76 77 78 79 80 81 82 83 84 86 114 115 116 117 119 120 122 123 124 pbcch: 0 nom: 2 rac: 30 spgc: 0 pat: 6 nco: 0 t3168: 1000 t3192: 500 drxmax: 4 ctrlAck: 1 bsCVmax: 9 alpha: 10 pcMeasCh: 0 
arfcn: 46 rxLev: -88
$GPGGA,142145.000,4718.0272,N,00133.1368,W,1,07,1.1,16.8,M,48.5,M,,0000*78
arfcn: 99 rxLev: -89
$GPGSA,M,3,05,30,13,28,20,07,02,,,,,,2.0,1.1,1.7*33
arfcn: 100 rxLev: -89
arfcn: 104 rxLev: -89
$GPRMC,142145.000,A,4718.0272,N,00133.1368,W,9.62,83.97,291217,,,A*4D
arfcn: 975 bsic: 14 rxLev: -89 ber: 0.00 mcc: 208 mnc: 20 lac: 420 cellId: 38411 cellStatus: CELL_SUITABLE numArfcn: 3 arfcn: 975 986 1010 numChannels: 21 array: 975 977 978 980 981 982 983 985 1012 1013 1014 1015 1016 1017 1019 1021 1022 789 794 880 884 pbcch: 0 nom: 2 rac: 7 spgc: 0 pat: 6 nco: 0 t3168: 1500 t3192: 500 drxmax: 0 ctrlAck: 0 bsCVmax: 8 alpha: 6 pcMeasCh: 1 
arfcn: 105 rxLev: -90
arfcn: 103 rxLev: -90
arfcn: 107 rxLev: -90
arfcn: 824 rxLev: -90
arfcn: 106 rxLev: -90
arfcn: 108 rxLev: -90
arfcn: 101 rxLev: -90
$GPGGA,142146.000,4718.0304,N,00133.1348,W,1,07,1.1,16.4,M,48.5,M,,0000*75
arfcn: 102 rxLev: -91
arfcn: 90 rxLev: -91
$GPGSA,M,3,05,30,13,28,20,07,02,,,,,,2.0,1.1,1.7*33
arfcn: 822 rxLev: -91
arfcn: 823 rxLev: -91
$GPRMC,142146.000,A,4718.0304,N,00133.1348,W,9.99,48.23,291217,,,A*40
arfcn: 85 rxLev: -91
arfcn: 1 rxLev: -91
arfcn: 3 rxLev: -92
arfcn: 83 rxLev: -92
arfcn: 643 rxLev: -92
arfcn: 825 rxLev: -92
arfcn: 853 rxLev: -92
arfcn: 846 rxLev: -92
$GPGGA,142147.000,4718.0332,N,00133.1323,W,1,07,1.1,17.1,M,48.5,M,,0000*78
arfcn: 850 rxLev: -92
$GPGSA,M,3,05,30,13,28,20,07,02,,,,,,2.0,1.1,1.7*33
arfcn: 819 rxLev: -92
arfcn: 839 rxLev: -92
$GPRMC,142147.000,A,4718.0332,N,00133.1323,W,10.77,45.80,291217,,,A*75
arfcn: 843 rxLev: -92
arfcn: 124 rxLev: -92
arfcn: 109 rxLev: -93
arfcn: 67 rxLev: -93
$GPGGA,142148.000,4718.0353,N,00133.1291,W,1,07,1.1,17.4,M,48.5,M,,0000*7D
$GPGSA,M,3,05,30,13,28,20,07,02,,,,,,2.0,1.1,1.7*33
$GPGSV,3,1,12,05,70,218,32,30,60,063,33,13,51,287,34,28,35,123,31*72
$GPGSV,3,2,12,20,33,305,37,07,32,054,33,02,06,210,27,09,04,096,19*74
$GPGSV,3,3,12,15,20,284,39,21,10,323,25,33,33,198,31,04,19,230,*70
$GPRMC,142148.000,A,4718.0353,N,00133.1291,W,10.59,51.51,291217,,,A*70
$GPGGA,142149.000,4718.0370,N,00133.1249,W,1,07,1.1,17.4,M,48.5,M,,0000*78
$GPGSA,M,3,05,30,13,28,20,07,02,,,,,,2.0,1.1,1.7*33
$GPRMC,142149.000,A,4718.0370,N,00133.1249,W,11.10,55.74,291217,,,A*7A
$GPGGA,142150.000,4718.0386,N,00133.1201,W,1,07,1.1,17.0,M,48.5,M,,0000*71
$GPGSA,M,3,05,30,13,28,20,07,02,,,,,,2.0,1.1,1.7*33
$GPRMC,142150.000,A,4718.0386,N,00133.1201,W,13.02,64.09,291217,,,A*7E
$GPGGA,142151.000,4718.0400,N,00133.1147,W,1,07,1.1,16.8,M,48.5,M,,0000*71
$GPGSA,M,3,05,30,13,28,20,07,02,,,,,,2.0,1.1,1.7*33
$GPRMC,142151.000,A,4718.0400,N,00133.1147,W,14.09,68.70,291217,,,A*79
$GPGGA,142152.000,4718.0419,N,00133.1089,W,1,07,1.1,16.0,M,48.5,M,,0000*71
$GPGSA,M,3,05,30,13,28,20,07,02,,,,,,2.0,1.1,1.7*33
$GPRMC,142152.000,A,4718.0419,N,00133.1089,W,15.49,67.24,291217,,,A*7A
$GPGGA,142153.000,4718.0436,N,00133.1024,W,1,07,1.1,16.9,M,48.5,M,,0000*73
$GPGSA,M,3,05,30,13,28,20,07,02,,,,,,2.0,1.1,1.7*33
$GPGSV,3,1,12,05,70,218,35,30,60,063,33,13,51,287,34,28,35,123,28*7D
$GPGSV,3,2,12,20,33,305,37,07,32,054,33,02,06,210,16,09,04,096,19*76
$GPGSV,3,3,12,15,20,284,27,21,10,323,39,33,33,198,25,04,19,230,*77
$GPRMC,142153.000,A,4718.0436,N,00133.1024,W,15.87,65.89,291217,,,A*76
$GPGGA,142154.000,4718.0458,N,00133.0958,W,1,07,1.1,19.1,M,48.5,M,,0000*78
$GPGSA,M,3,05,30,13,28,20,07,02,,,,,,2.0,1.1,1.7*33
$GPRMC,142154.000,A,4718.0458,N,00133.0958,W,17.05,64.43,291217,,,A*75
$GPGGA,142155.000,4718.0484,N,00133.0887,W,1,06,1.5,20.0,M,48.5,M,,0000*75
$GPGSA,M,3,05,30,13,28,20,07,,,,,,,3.2,1.5,2.8*3A
$GPRMC,142155.000,A,4718.0484,N,00133.0887,W,17.96,64.10,291217,,,A*7A
$GPGGA,142156.000,4718.0504,N,00133.0818,W,1,06,1.5,20.0,M,48.5,M,,0000*79
$GPGSA,M,3,05,30,13,28,20,07,,,,,,,3.2,1.5,2.8*3A
$GPRMC,142156.000,A,4718.0504,N,00133.0818,W,17.36,65.53,291217,,,A*7A
$GPGGA,142157.000,4718.0524,N,00133.0750,W,1,06,1.5,20.6,M,48.5,M,,0000*7F
$GPGSA,M,3,05,30,13,28,20,07,,,,,,,3.2,1.5,2.8*3A
$GPRMC,142157.000,A,4718.0524,N,00133.0750,W,17.74,66.05,291217,,,A*7C
$GPGGA,142158.000,4718.0543,N,00133.0681,W,1,06,1.5,20.3,M,48.5,M,,0000*79
$GPGSA,M,3,05,30,13,28,20,07,,,,,,,3.2,1.5,2.8*3A
$GPGSV,3,1,12,05,70,218,27,30,60,063,34,13,51,287,33,28,35,123,40*70
$GPGSV,3,2,12,20,33,305,35,07,32,054,29,02,06,210,04,09,04,096,17*72
$GPGSV,3,3,12,15,20,284,32,21,10,323,19,33,33,198,21,04,19,230,*75
Survey end at #CCLK: "17/12/29,15:21:58+04"
Survey duration: 40 seconds, 7 bases detected over 65 freqs scanned.
$GPRMC,142158.000,A,4718.0543,N,00133.0681,W,17.67,66.58,291217,,,A*75
$GPGGA,142159.000,4718.0560,N,00133.0617,W,1,06,1.5,20.8,M,48.5,M,,0000*7D
$GPGSA,M,3,05,30,13,28,20,07,,,,,,,3.2,1.5,2.8*3A
$GPRMC,142159.000,A,4718.0560,N,00133.0617,W,16.95,67.27,291217,,,A*7F
$GPGGA,142200.000,4718.0575,N,00133.0554,W,1,06,1.5,21.4,M,48.5,M,,0000*7F
$GPGSA,M,3,05,30,13,28,20,07,,,,,,,3.2,1.5,2.8*3A
$GPRMC,142200.000,A,4718.0575,N,00133.0554,W,16.14,66.99,291217,,,A*7D
Survey start at #CCLK: "17/12/29,15:22:00+04"
at#csurv
Network survey started ...
$GPGGA,142201.000,4718.0592,N,00133.0494,W,1,06,1.5,21.9,M,48.5,M,,0000*77
$GPGSA,M,3,05,30,13,28,20,07,,,,,,,3.2,1.5,2.8*3A
$GPRMC,142201.000,A,4718.0592,N,00133.0494,W,16.21,66.28,291217,,,A*74
$GPGGA,142202.000,4718.0610,N,00133.0431,W,1,06,1.5,22.4,M,48.5,M,,0000*7C
$GPGSA,M,3,05,30,13,28,20,07,,,,,,,3.2,1.5,2.8*3A
$GPRMC,142202.000,A,4718.0610,N,00133.0431,W,16.92,66.63,291217,,,A*76
$GPGGA,142203.000,4718.0630,N,00133.0368,W,1,07,1.1,21.9,M,48.5,M,,0000*7F
$GPGSA,M,3,05,30,13,28,20,07,02,,,,,,2.0,1.1,1.7*33
$GPGSV,3,1,12,05,70,218,28,30,60,063,36,13,51,287,38,28,35,123,36*77
$GPGSV,3,2,12,20,33,305,35,07,32,054,37,02,06,210,11,09,04,096,09*76
$GPGSV,3,3,12,15,20,284,33,21,10,323,22,33,33,198,,04,19,230,*7F
$GPRMC,142203.000,A,4718.0630,N,00133.0368,W,17.11,67.37,291217,,,A*74
$GPGGA,142204.000,4718.0648,N,00133.0302,W,1,07,1.1,22.2,M,48.5,M,,0000*73
$GPGSA,M,3,05,30,13,28,20,07,02,,,,,,2.0,1.1,1.7*33
$GPRMC,142204.000,A,4718.0648,N,00133.0302,W,16.87,69.61,291217,,,A*73
$GPGGA,142205.000,4718.0668,N,00133.0237,W,1,07,1.1,22.4,M,48.5,M,,0000*71
$GPGSA,M,3,05,30,13,28,20,07,02,,,,,,2.0,1.1,1.7*33
$GPRMC,142205.000,A,4718.0668,N,00133.0237,W,16.72,67.58,291217,,,A*79
$GPGGA,142206.000,4718.0688,N,00133.0175,W,1,07,1.1,22.4,M,48.5,M,,0000*79
$GPGSA,M,3,05,30,13,28,20,07,02,,,,,,2.0,1.1,1.7*33
$GPRMC,142206.000,A,4718.0688,N,00133.0175,W,16.21,67.26,291217,,,A*7E
$GPGGA,142207.000,4718.0707,N,00133.0115,W,1,07,1.1,22.2,M,48.5,M,,0000*7E
$GPGSA,M,3,05,30,13,28,20,07,02,,,,,,2.0,1.1,1.7*33
$GPRMC,142207.000,A,4718.0707,N,00133.0115,W,15.55,65.72,291217,,,A*7C
$GPGGA,142208.000,4718.0723,N,00133.0055,W,1,07,1.1,22.3,M,48.5,M,,0000*73
$GPGSA,M,3,05,30,13,28,20,07,02,,,,,,2.0,1.1,1.7*33
$GPGSV,3,1,12,05,70,218,35,30,60,063,39,13,51,287,32,28,35,123,25*7C
$GPGSV,3,2,12,20,33,305,34,07,32,054,42,02,06,210,17,09,04,096,21*79
$GPGSV,3,3,12,15,20,284,30,21,10,323,34,33,33,198,,04,19,230,*7B
$GPRMC,142208.000,A,4718.0723,N,00133.0055,W,15.95,69.70,291217,,,A*72
$GPGGA,142209.000,4718.0734,N,00132.9992,W,1,07,1.1,22.1,M,48.5,M,,0000*7C
$GPGSA,M,3,05,30,13,28,20,07,02,,,,,,2.0,1.1,1.7*33
$GPRMC,142209.000,A,4718.0734,N,00132.9992,W,15.74,76.88,291217,,,A*79
$GPGGA,142210.000,4718.0742,N,00132.9928,W,1,07,1.1,21.8,M,48.5,M,,0000*7E
$GPGSA,M,3,05,30,13,28,20,07,02,,,,,,2.0,1.1,1.7*33
$GPRMC,142210.000,A,4718.0742,N,00132.9928,W,15.32,85.84,291217,,,A*73
$GPGGA,142211.000,4718.0747,N,00132.9863,W,1,07,1.1,21.8,M,48.5,M,,0000*74
$GPGSA,M,3,05,30,13,28,20,07,02,,,,,,2.0,1.1,1.7*33
$GPRMC,142211.000,A,4718.0747,N,00132.9863,W,15.38,87.38,291217,,,A*76
arfcn: 2 bsic: 37 rxLev: -78 ber: 0.01 mcc: 208 mnc: 01 lac: 6404 cellId: 22696 cellStatus: CELL_FORBIDDEN numArfcn: 13 arfcn: 2 17 18 19 20 21 22 23 24 25 47 48 49 numChannels: 17 array: 1 2 3 4 5 6 7 8 9 10 12 13 15 517 604 606 608 pbcch: 0 nom: 2 rac: 1 spgc: 1 pat: 6 nco: 0 t3168: 1000 t3192: 500 drxmax: 4 ctrlAck: 1 bsCVmax: 9 alpha: 7 pcMeasCh: 0 
$GPGGA,142212.000,4718.0748,N,00132.9802,W,1,07,1.1,21.6,M,48.5,M,,0000*71
$GPGSA,M,3,05,30,13,28,20,07,02,,,,,,2.0,1.1,1.7*33
$GPRMC,142212.000,A,4718.0748,N,00132.9802,W,14.82,86.03,291217,,,A*74
$GPGGA,142213.000,4718.0750,N,00132.9744,W,1,07,1.1,21.9,M,48.5,M,,0000*7B
$GPGSA,M,3,05,30,13,28,20,07,02,,,,,,2.0,1.1,1.7*33
$GPGSV,3,1,12,05,70,218,33,30,60,063,35,13,51,287,33,28,35,123,32*71
$GPGSV,3,2,12,20,33,305,32,07,32,054,36,02,06,210,17,09,04,096,21*7C
$GPGSV,3,3,12,15,20,284,30,21,10,323,34,33,33,198,,04,19,230,*7B
$GPRMC,142213.000,A,4718.0750,N,00132.9744,W,13.57,87.75,291217,,,A*7E
arfcn: 606 bsic: 25 rxLev: -79 ber: 0.00 mcc: 208 mnc: 01 lac: 6404 cellId: 42661 cellStatus: CELL_FORBIDDEN numArfcn: 17 arfcn: 519 520 521 522 523 524 525 526 596 597 598 599 600 601 602 603 606 numChannels: 15 array: 2 3 5 6 7 8 9 10 12 13 513 517 604 606 608 pbcch: 0 nom: 2 rac: 1 spgc: 1 pat: 6 nco: 0 t3168: 1000 t3192: 500 drxmax: 4 ctrlAck: 1 bsCVmax: 9 alpha: 7 pcMeasCh: 0 
arfcn: 39 rxLev: -86
arfcn: 40 rxLev: -86
arfcn: 41 rxLev: -86
$GPGGA,142214.000,4718.0746,N,00132.9689,W,1,07,1.1,22.3,M,48.5,M,,0000*72
arfcn: 42 rxLev: -87
$GPGSA,M,3,05,30,13,28,20,07,02,,,,,,2.0,1.1,1.7*33
arfcn: 38 rxLev: -87
$GPRMC,142214.000,A,4718.0746,N,00132.9689,W,13.50,95.09,291217,,,A*71
$GPGGA,142215.000,4718.0736,N,00132.9638,W,1,07,1.1,22.9,M,48.5,M,,0000*74
$GPGSA,M,3,05,30,13,28,20,07,02,,,,,,2.0,1.1,1.7*33
$GPRMC,142215.000,A,4718.0736,N,00132.9638,W,12.84,109.59,291217,,,A*44
$GPGGA,142216.000,4718.0720,N,00132.9595,W,1,07,1.1,23.4,M,48.5,M,,0000*78
$GPGSA,M,3,05,30,13,28,20,07,02,,,,,,2.0,1.1,1.7*33
$GPRMC,142216.000,A,4718.0720,N,00132.9595,W,11.21,121.74,291217,,,A*4D
$GPGGA,142217.000,4718.0699,N,00132.9564,W,1,07,1.1,23.9,M,48.5,M,,0000*79
$GPGSA,M,3,05,30,13,28,20,07,02,,,,,,2.0,1.1,1.7*33
$GPRMC,142217.000,A,4718.0699,N,00132.9564,W,10.14,135.25,291217,,,A*47
$GPGGA,142218.000,4718.0679,N,00132.9546,W,1,07,1.1,23.9,M,48.5,M,,0000*78
$GPGSA,M,3,05,30,13,28,20,07,02,,,,,,2.0,1.1,1.7*33
$GPGSV,3,1,12,05,70,218,31,30,60,063,42,13,51,287,28,28,35,123,30*7B
$GPGSV,3,2,12,20,33,305,24,07,32,054,43,02,06,210,16,09,04,096,15*7F
$GPGSV,3,3,12,15,20,284,36,21,10,323,28,33,33,198,33,04,19,230,*70
$GPRMC,142218.000,A,4718.0679,N,00132.9546,W,7.93,142.20,291217,,,A*7A
$GPGGA,142219.000,4718.0670,N,00132.9542,W,1,07,1.1,24.5,M,48.5,M,,0000*7F
$GPGSA,M,3,05,30,13,28,20,07,02,,,,,,2.0,1.1,1.7*33
$GPRMC,142219.000,A,4718.0670,N,00132.9542,W,4.29,147.92,291217,,,A*78
arfcn: 84 bsic: 46 rxLev: -87 ber: 0.00 mcc: 208 mnc: 10 lac: 49409 cellId: 4447 cellStatus: CELL_FORBIDDEN numArfcn: 4 arfcn: 75 81 84 113 numChannels: 18 array: 76 77 78 79 80 82 83 84 85 86 114 115 117 119 120 122 124 612 pbcch: 0 nom: 2 rac: 30 spgc: 0 pat: 6 nco: 0 t3168: 1000 t3192: 500 drxmax: 4 ctrlAck: 1 bsCVmax: 9 alpha: 10 pcMeasCh: 0 
arfcn: 44 rxLev: -88
arfcn: 28 rxLev: -88
arfcn: 29 rxLev: -89
arfcn: 45 rxLev: -89
$GPGGA,142220.000,4718.0660,N,00132.9544,W,1,07,1.1,24.3,M,48.5,M,,0000*74
arfcn: 43 rxLev: -89
$GPGSA,M,3,05,30,13,28,20,07,02,,,,,,2.0,1.1,1.7*33
arfcn: 37 rxLev: -89
$GPRMC,142220.000,A,4718.0660,N,00132.9544,W,3.68,159.98,291217,,,A*72
arfcn: 27 rxLev: -89
arfcn: 31 rxLev: -90
arfcn: 30 rxLev: -90
arfcn: 33 rxLev: -90
arfcn: 32 rxLev: -91
arfcn: 34 rxLev: -91
arfcn: 36 rxLev: -91
$GPGGA,142221.000,4718.0648,N,00132.9553,W,1,07,1.1,24.4,M,48.5,M,,0000*7E
$GPGSA,M,3,05,30,13,28,20,07,02,,,,,,2.0,1.1,1.7*33
$GPRMC,142221.000,A,4718.0648,N,00132.9553,W,4.82,172.36,291217,,,A*71
$GPGGA,142222.000,4718.0634,N,00132.9558,W,1,07,1.1,24.3,M,48.5,M,,0000*7A
$GPGSA,M,3,05,30,13,28,20,07,02,,,,,,2.0,1.1,1.7*33
$GPRMC,142222.000,A,4718.0634,N,00132.9558,W,6.41,172.21,291217,,,A*79
$GPGGA,142223.000,4718.0616,N,00132.9555,W,1,07,1.1,25.0,M,48.5,M,,0000*74
$GPGSA,M,3,05,30,13,28,20,07,02,,,,,,2.0,1.1,1.7*33
$GPGSV,3,1,12,05,70,218,31,30,60,063,32,13,51,287,41,28,35,123,24*76
$GPGSV,3,2,12,20,33,305,37,07,32,054,37,02,06,210,17,09,04,096,16*7C
$GPGSV,3,3,12,15,20,284,40,21,10,323,27,33,33,198,30,04,19,230,*7D
$GPRMC,142223.000,A,4718.0616,N,00132.9555,W,7.88,166.69,291217,,,A*78
$GPGGA,142224.000,4718.0598,N,00132.9541,W,1,07,1.1,25.3,M,48.5,M,,0000*70
$GPGSA,M,3,05,30,13,28,20,07,02,,,,,,2.0,1.1,1.7*33
arfcn: 880 bsic: 28 rxLev: -91 ber: 1.02 mcc: 208 mnc: 20 lac: 420 cellId: 22048 cellStatus: CELL_SUITABLE numArfcn: 3 arfcn: 797 875 880 numChannels: 18 array: 789 791 792 794 877 884 975 977 978 980 983 1012 1014 1015 1016 1018 1019 1021 pbcch: 0 nom: 2 rac: 7 spgc: 0 pat: 6 nco: 0 t3168: 1500 t3192: 500 drxmax: 0 ctrlAck: 0 bsCVmax: 8 alpha: 6 pcMeasCh: 1 
arfcn: 124 rxLev: -92
$GPRMC,142224.000,A,4718.0598,N,00132.9541,W,7.94,149.47,291217,,,A*73
arfcn: 67 rxLev: -92
arfcn: 35 rxLev: -92
arfcn: 9 rxLev: -93
arfcn: 977 bsic: 40 rxLev: -94 ber: 0.00 mcc: 208 mnc: 20 lac: 420 cellId: 38835 cellStatus: CELL_SUITABLE numArfcn: 3 arfcn: 977 1018 1020 numChannels: 20 array: 975 977 980 981 982 985 1011 1012 1014 1015 1016 1017 1018 1019 1021 789 794 879 880 884 pbcch: 0 nom: 2 rac: 6 spgc: 0 pat: 6 nco: 0 t3168: 1500 t3192: 500 drxmax: 0 ctrlAck: 0 bsCVmax: 8 alpha: 6 pcMeasCh: 1 
arfcn: 3 rxLev: -94
arfcn: 26 rxLev: -94
arfcn: 46 rxLev: -94
arfcn: 1 rxLev: -95
$GPGGA,142225.000,4718.0578,N,00132.9522,W,1,07,1.1,25.5,M,48.5,M,,0000*7C
arfcn: 100 rxLev: -95
arfcn: 812 rxLev: -95
$GPGSA,M,3,05,30,13,28,20,07,02,,,,,,2.0,1.1,1.7*33
arfcn: 830 rxLev: -95
arfcn: 831 rxLev: -95
$GPRMC,142225.000,A,4718.0578,N,00132.9522,W,8.05,142.33,291217,,,A*76
arfcn: 829 rxLev: -95
arfcn: 66 rxLev: -95
$GPGGA,142226.000,4718.0560,N,00132.9497,W,1,07,1.1,25.5,M,48.5,M,,0000*79
$GPGSA,M,3,05,30,13,28,20,07,02,,,,,,2.0,1.1,1.7*33
$GPRMC,142226.000,A,4718.0560,N,00132.9497,W,7.54,136.06,291217,,,A*7D
arfcn: 12 bsic: 50 rxLev: -95 ber: 0.07 mcc: 208 mnc: 01 lac: 6404 cellId: 22703 cellStatus: CELL_FORBIDDEN numArfcn: 13 arfcn: 12 17 18 19 20 21 22 23 24 25 47 48 49 numChannels: 18 array: 1 2 3 4 5 6 7 9 10 12 13 15 513 516 517 604 606 608 pbcch: 0 nom: 2 rac: 1 spgc: 1 pat: 6 nco: 0 t3168: 1000 t3192: 500 drxmax: 4 ctrlAck: 1 bsCVmax: 9 alpha: 7 pcMeasCh: 0 
$GPGGA,142227.000,4718.0556,N,00132.9466,W,1,07,1.1,25.8,M,48.5,M,,0000*7E
arfcn: 68 rxLev: -96
arfcn: 101 rxLev: -96
$GPGSA,M,3,05,30,13,28,20,07,02,,,,,,2.0,1.1,1.7*33
arfcn: 102 rxLev: -96
arfcn: 123 rxLev: -96
$GPRMC,142227.000,A,4718.0556,N,00132.9466,W,7.65,123.28,291217,,,A*7D
arfcn: 607 rxLev: -96
arfcn: 822 rxLev: -96
arfcn: 814 rxLev: -96
arfcn: 832 rxLev: -96
arfcn: 834 rxLev: -96
arfcn: 666 rxLev: -96
arfcn: 103 rxLev: -96
arfcn: 108 rxLev: -97
$GPGGA,142228.000,4718.0567,N,00132.9423,W,1,06,1.3,26.0,M,48.5,M,,0000*7A
arfcn: 7 rxLev: -97
$GPGSA,M,3,05,30,13,20,07,02,,,,,,,2.1,1.3,1.7*3A
arfcn: 63 rxLev: -97
arfcn: 605 rxLev: -97
$GPGSV,3,1,12,05,70,218,36,30,60,063,33,13,51,287,24,20,33,305,26*79
arfcn: 833 rxLev: -97
arfcn: 813 rxLev: -97
$GPGSV,3,2,12,07,32,054,35,02,06,210,17,09,04,096,16,15,20,284,25*71
arfcn: 821 rxLev: -97
$GPGSV,3,3,12,21,10,323,38,28,35,123,36,33,33,198,32,04,19,230,*74
arfcn: 789 rxLev: -97
arfcn: 803 rxLev: -97
$GPRMC,142228.000,A,4718.0567,N,00132.9423,W,11.48,98.77,291217,,,A*72
$GPGGA,142229.000,4718.0591,N,00132.9383,W,1,07,1.1,25.9,M,48.5,M,,0000*76
$GPGSA,M,3,05,30,13,28,20,07,02,,,,,,2.0,1.1,1.7*33
$GPRMC,142229.000,A,4718.0591,N,00132.9383,W,12.32,75.14,291217,,,A*7F
$GPGGA,142230.000,4718.0628,N,00132.9353,W,1,07,1.1,26.3,M,48.5,M,,0000*7B
$GPGSA,M,3,05,30,13,28,20,07,02,,,,,,2.0,1.1,1.7*33
$GPRMC,142230.000,A,4718.0628,N,00132.9353,W,14.21,38.79,291217,,,A*7D
$GPGGA,142231.000,4718.0673,N,00132.9324,W,1,07,1.1,26.3,M,48.5,M,,0000*74
$GPGSA,M,3,05,30,13,28,20,07,02,,,,,,2.0,1.1,1.7*33
$GPRMC,142231.000,A,4718.0673,N,00132.9324,W,17.04,23.75,291217,,,A*70
arfcn: 8 bsic: 61 rxLev: -97 ber: 18.01 mcc: 208 mnc: 01 lac: 6404 cellId: 5497 cellStatus: CELL_FORBIDDEN numArfcn: 0 arfcn: numChannels: 0 array:
arfcn: 104 rxLev: -97
$GPGGA,142232.000,4718.0728,N,00132.9297,W,1,07,1.1,26.6,M,48.5,M,,0000*74
arfcn: 99 rxLev: -97
$GPGSA,M,3,05,30,13,28,20,07,02,,,,,,2.0,1.1,1.7*33
arfcn: 77 rxLev: -97
arfcn: 92 rxLev: -97
$GPRMC,142232.000,A,4718.0728,N,00132.9297,W,17.99,24.11,291217,,,A*74
arfcn: 94 rxLev: -97
arfcn: 95 rxLev: -98
arfcn: 91 rxLev: -98
arfcn: 81 rxLev: -98
arfcn: 105 rxLev: -98
arfcn: 107 rxLev: -98
arfcn: 109 rxLev: -98
$GPGGA,142233.000,4718.0786,N,00132.9266,W,1,07,1.1,26.8,M,48.5,M,,0000*71
$GPGSA,M,3,05,30,13,28,20,07,02,,,,,,2.0,1.1,1.7*33
$GPGSV,3,1,12,05,70,218,35,30,60,063,35,13,51,287,42,28,35,123,40*74
$GPGSV,3,2,12,20,33,305,32,07,32,054,32,02,06,210,18,09,04,096,15*70
$GPGSV,3,3,12,15,20,284,28,21,10,323,20,37,28,150,,04,19,230,*7D
$GPRMC,142233.000,A,4718.0786,N,00132.9266,W,18.72,24.64,291217,,,A*77
$GPGGA,142234.000,4718.0837,N,00132.9231,W,1,07,1.1,26.7,M,48.5,M,,0000*7E
$GPGSA,M,3,05,30,13,28,20,07,02,,,,,,2.0,1.1,1.7*33
$GPRMC,142234.000,A,4718.0837,N,00132.9231,W,19.96,25.10,291217,,,A*7E
arfcn: 119 bsic: 38 rxLev: -98 ber: 1.09 mcc: 208 mnc: 10 lac: 49409 cellId: 24447 cellStatus: CELL_FORBIDDEN numArfcn: 2 arfcn: 111 119 numChannels: 12 array: 76 77 79 80 84 85 114 117 119 122 123 124 pbcch: 0 nom: 2 rac: 30 spgc: 0 pat: 6 nco: 0 t3168: 1000 t3192: 500 drxmax: 4 ctrlAck: 1 bsCVmax: 9 alpha: 10 pcMeasCh: 0 
arfcn: 617 rxLev: -98
arfcn: 811 rxLev: -98
arfcn: 823 rxLev: -98
$GPGGA,142235.000,4718.0889,N,00132.9195,W,1,07,1.1,26.4,M,48.5,M,,0000*74
arfcn: 824 rxLev: -98
$GPGSA,M,3,05,30,13,28,20,07,02,,,,,,2.0,1.1,1.7*33
arfcn: 817 rxLev: -98
arfcn: 818 rxLev: -98
$GPRMC,142235.000,A,4718.0889,N,00132.9195,W,20.53,25.53,291217,,,A*73
arfcn: 820 rxLev: -98
arfcn: 806 rxLev: -98
arfcn: 849 rxLev: -98
$GPGGA,142236.000,4718.0942,N,00132.9158,W,1,07,1.1,26.0,M,48.5,M,,0000*74
$GPGSA,M,3,05,30,13,28,20,07,02,,,,,,2.0,1.1,1.7*33
$GPRMC,142236.000,A,4718.0942,N,00132.9158,W,20.30,24.87,291217,,,A*7A
$GPGGA,142237.000,4718.0993,N,00132.9124,W,1,07,1.1,25.9,M,48.5,M,,0000*78
$GPGSA,M,3,05,30,13,28,20,07,02,,,,,,2.0,1.1,1.7*33
$GPRMC,142237.000,A,4718.0993,N,00132.9124,W,19.90,24.96,291217,,,A*7C
$GPGGA,142238.000,4718.1043,N,00132.9088,W,1,07,1.1,25.8,M,48.5,M,,0000*74
$GPGSA,M,3,05,30,13,28,20,07,02,,,,,,2.0,1.1,1.7*33
$GPGSV,3,1,12,05,70,218,36,30,60,063,35,13,51,287,43,28,35,123,33*72
$GPGSV,3,2,12,20,33,305,30,07,32,054,32,02,06,210,24,09,04,096,16*7E
$GPGSV,3,3,12,15,20,284,31,21,10,323,23,37,28,150,,04,19,230,*76
$GPRMC,142238.000,A,4718.1043,N,00132.9088,W,18.89,27.03,291217,,,A*77
arfcn: 975 bsic: 14 rxLev: -98 ber: 1.10 mcc: 208 mnc: 20 lac: 420 cellId: 38411 cellStatus: CELL_SUITABLE numArfcn: 3 arfcn: 975 986 1010 numChannels: 21 array: 789 794 880 884 975 977 978 980 981 982 983 985 1012 1013 1014 1015 1016 1017 1019 1021 1022 pbcch: 0 nom: 2 rac: 7 spgc: 0 pat: 6 nco: 0 t3168: 1500 t3192: 500 drxmax: 0 ctrlAck: 0 bsCVmax: 8 alpha: 6 pcMeasCh: 1 
arfcn: 106 rxLev: -98
$GPGGA,142239.000,4718.1088,N,00132.9052,W,1,07,1.1,25.4,M,48.5,M,,0000*79
arfcn: 96 rxLev: -98
$GPGSA,M,3,05,30,13,28,20,07,02,,,,,,2.0,1.1,1.7*33
arfcn: 97 rxLev: -98
arfcn: 93 rxLev: -98
$GPRMC,142239.000,A,4718.1088,N,00132.9052,W,16.95,30.01,291217,,,A*71
arfcn: 75 rxLev: -98
arfcn: 13 rxLev: -98
arfcn: 61 rxLev: -99
arfcn: 73 rxLev: -99
arfcn: 98 rxLev: -99
arfcn: 122 rxLev: -99
arfcn: 120 rxLev: -99
$GPGGA,142240.000,4718.1127,N,00132.9016,W,1,07,1.1,25.1,M,48.5,M,,0000*76
arfcn: 121 rxLev: -99
$GPGSA,M,3,05,30,13,28,20,07,02,,,,,,2.0,1.1,1.7*33
arfcn: 978 rxLev: -99
arfcn: 981 rxLev: -99
$GPRMC,142240.000,A,4718.1127,N,00132.9016,W,15.99,31.31,291217,,,A*76
$GPGGA,142241.000,4718.1165,N,00132.8981,W,1,07,1.1,25.0,M,48.5,M,,0000*76
$GPGSA,M,3,05,30,13,28,20,07,02,,,,,,2.0,1.1,1.7*33
$GPRMC,142241.000,A,4718.1165,N,00132.8981,W,16.30,32.75,291217,,,A*74
$GPGGA,142242.000,4718.1205,N,00132.8943,W,1,07,1.1,25.1,M,48.5,M,,0000*7F
arfcn: 982 bsic: 28 rxLev: -99 ber: 15.06 mcc: FFF mnc: FF lac: 65535 cellId: 0 cellStatus: CELL_OTHER numArfcn: 0 arfcn: numChannels: 0 array:
arfcn: 668 rxLev: -99
$GPGSA,M,3,05,30,13,28,20,07,02,,,,,,2.0,1.1,1.7*33
arfcn: 660 rxLev: -99
arfcn: 662 rxLev: -99
$GPRMC,142242.000,A,4718.1205,N,00132.8943,W,17.51,34.45,291217,,,A*7F
arfcn: 859 rxLev: -99
arfcn: 861 rxLev: -99
arfcn: 816 rxLev: -99
arfcn: 828 rxLev: -99
arfcn: 835 rxLev: -99
arfcn: 837 rxLev: -99
arfcn: 819 rxLev: -99
arfcn: 860 rxLev: -99
$GPGGA,142243.000,4718.1246,N,00132.8900,W,1,07,1.1,25.0,M,48.5,M,,0000*7F
arfcn: 857 rxLev: -99
arfcn: 858 rxLev: -99
$GPGSA,M,3,05,30,13,28,20,07,02,,,,,,2.0,1.1,1.7*33
arfcn: 665 rxLev: -99
$GPGSV,3,1,12,05,70,218,37,30,60,063,35,13,51,287,35,28,35,123,33*72
arfcn: 980 rxLev: -99
$GPGSV,3,2,12,20,33,305,42,07,32,054,30,02,06,210,25,09,04,096,22*7F
arfcn: 621 rxLev: -99
arfcn: 976 rxLev: -99
$GPGSV,3,3,12,15,20,284,36,21,10,323,39,37,28,150,,04,19,230,*7A
arfcn: 72 rxLev: -99
arfcn: 76 rxLev: -99
$GPRMC,142243.000,A,4718.1246,N,00132.8900,W,18.43,36.26,291217,,,A*75
arfcn: 78 rxLev: -99
arfcn: 69 rxLev: -99
arfcn: 64 rxLev: -99
$GPGGA,142244.000,4718.1288,N,00132.8854,W,1,07,1.1,24.7,M,48.5,M,,0000*7C
arfcn: 90 rxLev: -99
$GPGSA,M,3,05,30,13,28,20,07,02,,,,,,2.0,1.1,1.7*33
arfcn: 62 rxLev: -99
arfcn: 25 rxLev: -99
$GPRMC,142244.000,A,4718.1288,N,00132.8854,W,18.94,37.27,291217,,,A*7A
arfcn: 60 rxLev: -100
arfcn: 59 rxLev: -100
arfcn: 74 rxLev: -100
arfcn: 113 rxLev: -100
arfcn: 625 rxLev: -100
arfcn: 847 rxLev: -100
arfcn: 869 rxLev: -100
arfcn: 815 rxLev: -100
$GPGGA,142245.000,4718.1332,N,00132.8806,W,1,07,1.1,24.7,M,48.5,M,,0000*7A
arfcn: 838 rxLev: -100
arfcn: 810 rxLev: -100
$GPGSA,M,3,05,30,13,28,20,07,02,,,,,,2.0,1.1,1.7*33
arfcn: 804 rxLev: -100
arfcn: 809 rxLev: -100
$GPRMC,142245.000,A,4718.1332,N,00132.8806,W,19.58,37.34,291217,,,A*7F
