$GPGSA,M,3,07,09,02,23,16,,,,,,,,4.0,2.6,3.1*36
$GPGSV,3,1,12,07,62,128,19,09,51,065,32,02,48,256,17,23,17,070,17*78
$GPGSV,3,2,12,16,10,037,19,33,33,198,,30,46,170,,04,39,291,*72
$GPGSV,3,3,12,06,37,201,,05,36,300,,29,08,319,,13,05,248,*79
$GPRMC,093744.000,A,4806.8749,N,00139.4384,W,1.42,314.86,060218,,,A*7B
Survey start at #CCLK: "18/02/06,10:37:44+04"
at#csurv
Network survey started ...
Survey end at #CCLK: "18/02/06,10:37:44+04"
Survey duration: 0 seconds, 0 bases detected over 0 freqs scanned.
$GPGGA,093745.000,4806.8741,N,00139.4376,W,1,05,2.6,29.8,M,48.3,M,,0000*72
$GPGSA,M,3,07,09,02,23,16,,,,,,,,4.0,2.6,3.1*36
$GPRMC,093745.000,A,4806.8741,N,00139.4376,W,1.35,316.01,060218,,,A*72
$GPGGA,093746.000,4806.8738,N,00139.4370,W,1,05,2.6,30.1,M,48.3,M,,0000*78
$GPGSA,M,3,07,09,02,23,16,,,,,,,,4.0,2.6,3.1*36
$GPRMC,093746.000,A,4806.8738,N,00139.4370,W,1.38,320.77,060218,,,A*70
Survey start at #CCLK: "18/02/06,10:37:46+04"
at#csurv
Network survey started ...
$GPGGA,093747.000,4806.8734,N,00139.4367,W,1,05,2.6,29.7,M,48.3,M,,0000*7D
$GPGSA,M,3,07,09,02,23,16,,,,,,,,4.0,2.6,3.1*36
$GPRMC,093747.000,A,4806.8734,N,00139.4367,W,1.46,328.57,060218,,,A*78
$GPGGA,093748.000,4806.8730,N,00139.4356,W,1,05,2.6,29.5,M,48.3,M,,0000*76
$GPGSA,M,3,07,09,02,23,16,,,,,,,,4.0,2.6,3.1*36
$GPRMC,093748.000,A,4806.8730,N,00139.4356,W,1.17,333.30,060218,,,A*7E
$GPGGA,093749.000,4806.8726,N,00139.4346,W,1,05,2.6,29.7,M,48.3,M,,0000*73
$GPGSA,M,3,07,09,02,23,16,,,,,,,,4.0,2.6,3.1*36
$GPGSV,3,1,12,07,62,128,19,09,51,065,32,02,47,256,17,23,17,070,16*76
$GPGSV,3,2,12,16,10,037,19,33,33,198,,30,46,169,,04,39,291,*7A
$GPGSV,3,3,12,06,37,201,,05,36,300,,29,08,319,,13,06,248,*7A
$GPRMC,093749.000,A,4806.8726,N,00139.4346,W,1.19,339.33,060218,,,A*7E
$GPGGA,093750.000,4806.8719,N,00139.4337,W,1,05,2.6,28.7,M,48.3,M,,0000*70
$GPGSA,M,3,07,09,02,23,16,,,,,,,,4.0,2.6,3.1*36
$GPRMC,093750.000,A,4806.8719,N,00139.4337,W,1.02,339.33,060218,,,A*76
$GPGGA,093751.000,4806.8714,N,00139.4328,W,1,05,2.6,28.0,M,48.3,M,,0000*75
$GPGSA,M,3,07,09,02,23,16,,,,,,,,4.0,2.6,3.1*36
$GPRMC,093751.000,A,4806.8714,N,00139.4328,W,1.13,339.33,060218,,,A*74
$GPGGA,093752.000,4806.8711,N,00139.4321,W,1,05,2.6,27.4,M,48.3,M,,0000*71
$GPGSA,M,3,07,09,02,23,16,,,,,,,,4.0,2.6,3.1*36
$GPRMC,093752.000,A,4806.8711,N,00139.4321,W,1.47,352.27,060218,,,A*72
arfcn: 981 bsic: 46 rxLev: -45 ber: 0.00 mcc: 208 mnc: 20 lac: 418 cellId: 21807 cellStatus: CELL_SUITABLE numArfcn: 1 arfcn: 981 numChannels: 16 array: 979 982 983 985 1012 1014 1017 1019 1020 787 790 791 793 796 882 884 pbcch: 0 nom: 2 rac: 6 spgc: 0 pat: 6 nco: 0 t3168: 1500 t3192: 500 drxmax: 0 ctrlAck: 0 bsCVmax: 8 alpha: 6 pcMeasCh: 1 
$GPGGA,093753.000,4806.8707,N,00139.4315,W,1,05,2.6,25.9,M,48.3,M,,0000*7F
$GPGSA,M,3,07,09,02,23,16,,,,,,,,4.0,2.6,3.1*36
$GPRMC,093753.000,A,4806.8707,N,00139.4315,W,1.44,359.18,060218,,,A*77
$GPGGA,093754.000,4806.8704,N,00139.4310,W,1,05,2.6,26.4,M,48.3,M,,0000*70
$GPGSA,M,3,07,09,02,23,16,,,,,,,,4.0,2.6,3.1*36
$GPGSV,3,1,12,07,62,128,19,09,51,065,33,02,47,256,17,23,17,070,16*77
$GPGSV,3,2,12,16,10,037,20,33,33,198,,30,46,169,,04,39,291,*70
$GPGSV,3,3,12,06,37,201,,05,36,300,,29,08,319,,13,06,248,*7A
$GPRMC,093754.000,A,4806.8704,N,00139.4310,W,0.88,359.18,060218,,,A*77
$GPGGA,093755.000,4806.8698,N,00139.4307,W,1,05,2.6,26.1,M,48.3,M,,0000*76
$GPGSA,M,3,07,09,02,23,16,,,,,,,,4.0,2.6,3.1*36
$GPRMC,093755.000,A,4806.8698,N,00139.4307,W,0.20,359.18,060218,,,A*76
$GPGGA,093756.000,4806.8694,N,00139.4303,W,1,05,2.6,25.7,M,48.3,M,,0000*78
$GPGSA,M,3,07,09,02,23,16,,,,,,,,4.0,2.6,3.1*36
$GPRMC,093756.000,A,4806.8694,N,00139.4303,W,0.56,359.18,060218,,,A*7C
$GPGGA,093757.000,4806.8690,N,00139.4300,W,1,05,2.6,25.1,M,48.3,M,,0000*78
$GPGSA,M,3,07,09,02,23,16,,,,,,,,4.0,2.6,3.1*36
$GPRMC,093757.000,A,4806.8690,N,00139.4300,W,0.73,359.18,060218,,,A*7D
$GPGGA,093758.000,4806.8687,N,00139.4292,W,1,05,2.6,25.7,M,48.3,M,,0000*7D
$GPGSA,M,3,07,09,02,23,16,,,,,,,,4.0,2.6,3.1*36
$GPRMC,093758.000,A,4806.8687,N,00139.4292,W,1.03,359.18,060218,,,A*78
$GPGGA,093759.000,4806.8685,N,00139.4287,W,1,05,2.6,25.3,M,48.3,M,,0000*7E
$GPGSA,M,3,07,09,02,23,16,,,,,,,,4.0,2.6,3.1*36
Survey end at #CCLK: "18/02/06,10:37:58+04"
Survey duration: 12 seconds, 1 bases detected over 1 freqs scanned.
$GPGSV,3,1,12,07,62,128,19,09,51,065,33,02,47,256,17,23,17,070,15*74
$GPGSV,3,2,12,16,10,037,20,33,33,198,,30,46,169,,04,39,291,*70
$GPGSV,3,3,12,06,37,201,,05,36,300,,29,08,319,,13,06,248,*7A
$GPRMC,093759.000,A,4806.8685,N,00139.4287,W,0.97,359.18,060218,,,A*73
$GPGGA,093800.000,4806.8682,N,00139.4285,W,1,05,2.6,24.7,M,48.3,M,,0000*7D
$GPGSA,M,3,07,09,02,23,16,,,,,,,,4.0,2.6,3.1*36
$GPRMC,093800.000,A,4806.8682,N,00139.4285,W,0.73,359.18,060218,,,A*7F
Survey start at #CCLK: "18/02/06,10:38:00+04"
$GPGGA,093801.000,4806.8685,N,00139.4288,W,1,05,2.6,24.9,M,48.3,M,,0000*78
$GPGSA,M,3,07,09,02,23,16,,,,,,,,4.0,2.6,3.1*36
at#csurv
Network survey started ...
$GPRMC,093801.000,A,4806.8685,N,00139.4288,W,0.58,359.18,060218,,,A*7D
$GPGGA,093802.000,4806.8691,N,00139.4288,W,1,06,1.7,24.9,M,48.3,M,,0000*7F
$GPGSA,M,3,07,09,02,30,23,16,,,,,,,3.0,1.7,2.4*34
$GPRMC,093802.000,A,4806.8691,N,00139.4288,W,0.30,359.18,060218,,,A*75
$GPGGA,093803.000,4806.8694,N,00139.4288,W,1,05,1.7,26.9,M,48.3,M,,0000*7A
$GPGSA,M,3,07,09,02,30,16,,,,,,,,2.7,1.7,2.1*36
$GPRMC,093803.000,A,4806.8694,N,00139.4288,W,0.85,359.18,060218,,,A*7F
$GPGGA,093804.000,4806.8696,N,00139.4294,W,1,06,1.7,26.9,M,48.3,M,,0000*71
$GPGSA,M,3,07,09,02,30,23,16,,,,,,,3.0,1.7,2.4*34
$GPGSV,3,1,12,07,62,128,20,09,51,065,33,02,47,256,15,30,46,169,19*7F
$GPGSV,3,2,12,23,17,070,10,16,10,037,20,37,27,150,,04,39,291,*7B
$GPGSV,3,3,12,06,37,201,,05,36,300,,29,08,319,,13,06,248,*7A
$GPRMC,093804.000,A,4806.8696,N,00139.4294,W,1.11,359.18,060218,,,A*7B
$GPGGA,093805.000,4806.8704,N,00139.4304,W,1,06,1.7,26.9,M,48.3,M,,0000*72
$GPGSA,M,3,07,09,02,30,23,16,,,,,,,3.0,1.7,2.4*34
$GPRMC,093805.000,A,4806.8704,N,00139.4304,W,1.72,328.10,060218,,,A*73
$GPGGA,093806.000,4806.8709,N,00139.4307,W,1,05,1.7,27.6,M,48.3,M,,0000*72
$GPGSA,M,3,07,09,02,30,16,,,,,,,,2.7,1.7,2.1*36
$GPRMC,093806.000,A,4806.8709,N,00139.4307,W,1.45,317.63,060218,,,A*72
$GPGGA,093807.000,4806.8712,N,00139.4310,W,1,05,1.7,27.9,M,48.3,M,,0000*70
$GPGSA,M,3,07,09,02,30,16,,,,,,,,2.7,1.7,2.1*36
$GPRMC,093807.000,A,4806.8712,N,00139.4310,W,1.30,310.17,060218,,,A*79
arfcn: 981 bsic: 46 rxLev: -45 ber: 0.00 mcc: 208 mnc: 20 lac: 418 cellId: 21807 cellStatus: CELL_SUITABLE numArfcn: 1 arfcn: 981 numChannels: 16 array: 979 982 983 985 1012 1014 1017 1019 1020 787 790 791 793 796 882 884 pbcch: 0 nom: 2 rac: 6 spgc: 0 pat: 6 nco: 0 t3168: 1500 t3192: 500 drxmax: 0 ctrlAck: 0 bsCVmax: 8 alpha: 6 pcMeasCh: 1 
$GPGGA,093808.000,4806.8717,N,00139.4312,W,1,05,1.7,28.1,M,48.3,M,,0000*7F
$GPGSA,M,3,07,09,02,30,16,,,,,,,,2.7,1.7,2.1*36
$GPRMC,093808.000,A,4806.8717,N,00139.4312,W,1.14,310.17,060218,,,A*77
$GPGGA,093809.000,4806.8721,N,00139.4315,W,1,05,1.7,28.2,M,48.3,M,,0000*7F
$GPGSA,M,3,07,09,02,30,16,,,,,,,,2.7,1.7,2.1*36
$GPGSV,3,1,12,07,62,128,20,09,51,065,33,02,47,256,14,30,46,169,19*7E
$GPGSV,3,2,12,16,10,037,20,23,17,070,06,37,27,150,,04,39,291,*7C
$GPGSV,3,3,12,06,37,201,,05,36,300,,29,08,319,,13,06,248,*7A
$GPRMC,093809.000,A,4806.8721,N,00139.4315,W,1.42,314.15,060218,,,A*71
$GPGGA,093810.000,4806.8722,N,00139.4315,W,0,04,,28.3,M,48.3,M,,0000*5D
$GPGSA,M,1,,,,,,,,,,,,,,,*12
$GPRMC,093810.000,V,4806.8722,N,00139.4315,W,,,060218,,,N*67
$GPGGA,093811.000,4806.8720,N,00139.4315,W,1,05,3.2,28.4,M,48.3,M,,0000*76
$GPGSA,M,3,07,09,30,23,16,,,,,,,,4.0,3.2,2.4*36
$GPRMC,093811.000,A,4806.8720,N,00139.4315,W,0.57,314.15,060218,,,A*7C
$GPGGA,093812.000,4806.8722,N,00139.4318,W,1,06,1.7,28.4,M,48.3,M,,0000*7E
$GPGSA,M,3,07,09,02,30,23,16,,,,,,,3.0,1.7,2.4*34
$GPRMC,093812.000,A,4806.8722,N,00139.4318,W,0.56,314.15,060218,,,A*71
$GPGGA,093813.000,4806.8722,N,00139.4320,W,1,06,1.7,28.4,M,48.3,M,,0000*74
$GPGSA,M,3,07,09,02,30,23,16,,,,,,,3.0,1.7,2.4*34
$GPRMC,093813.000,A,4806.8722,N,00139.4320,W,0.60,314.15,060218,,,A*7E
$GPGGA,093814.000,4806.8722,N,00139.4320,W,1,06,1.7,28.4,M,48.3,M,,0000*73
$GPGSA,M,3,07,09,02,30,23,16,,,,,,,3.0,1.7,2.4*34
$GPGSV,3,1,12,07,62,127,20,09,51,065,33,02,47,256,10,30,47,169,20*7E
$GPGSV,3,2,12,23,16,070,08,16,10,036,19,37,27,150,,04,39,291,*78
$GPGSV,3,3,12,06,37,201,,05,36,300,,29,08,319,,13,06,248,*7A
$GPRMC,093814.000,A,4806.8722,N,00139.4320,W,0.94,314.15,060218,,,A*72
$GPGGA,093815.000,4806.8725,N,00139.4322,W,1,06,1.7,28.4,M,48.3,M,,0000*77
$GPGSA,M,3,07,09,02,30,23,16,,,,,,,3.0,1.7,2.4*34
$GPRMC,093815.000,A,4806.8725,N,00139.4322,W,0.94,314.15,060218,,,A*76
$GPGGA,093816.000,4806.8724,N,00139.4324,W,1,05,1.7,28.4,M,48.3,M,,0000*70
Survey end at #CCLK: "18/02/06,10:38:15+04"
Survey duration: 15 seconds, 1 bases detected over 1 freqs scanned.
$GPGSA,M,3,07,09,02,30,16,,,,,,,,2.7,1.7,2.1*36
$GPRMC,093816.000,A,4806.8724,N,00139.4324,W,0.44,314.15,060218,,,A*7F
$GPGGA,093817.000,4806.8724,N,00139.4323,W,1,05,1.7,28.5,M,48.3,M,,0000*77
$GPGSA,M,3,07,09,02,30,16,,,,,,,,2.7,1.7,2.1*36
$GPRMC,093817.000,A,4806.8724,N,00139.4323,W,0.29,314.15,060218,,,A*72
Survey start at #CCLK: "18/02/06,10:38:17+04"
at#csurv
Network survey started ...
Survey end at #CCLK: "18/02/06,10:38:17+04"
Survey duration: 0 seconds, 0 bases detected over 0 freqs scanned.
$GPGGA,093818.000,4806.8724,N,00139.4326,W,1,05,1.7,28.5,M,48.3,M,,0000*7D
$GPGSA,M,3,07,09,02,30,16,,,,,,,,2.7,1.7,2.1*36
$GPRMC,093818.000,A,4806.8724,N,00139.4326,W,0.37,314.15,060218,,,A*77
$GPGGA,093819.000,4806.8723,N,00139.4331,W,1,05,1.7,28.4,M,48.3,M,,0000*7C
$GPGSA,M,3,07,09,02,30,16,,,,,,,,2.7,1.7,2.1*36
$GPGSV,3,1,12,07,62,127,19,09,51,065,33,02,47,256,11,30,47,169,21*74
$GPGSV,3,2,12,16,10,036,19,05,36,300,07,13,06,248,08,23,16,070,07*70
$GPGSV,3,3,12,37,27,150,,04,39,291,,06,37,201,,29,08,319,*72
$GPRMC,093819.000,A,4806.8723,N,00139.4331,W,0.62,314.15,060218,,,A*77
$GPGGA,093820.000,4806.8721,N,00139.4322,W,1,06,1.6,28.5,M,48.3,M,,0000*75
$GPGSA,M,3,07,09,02,30,16,13,,,,,,,2.4,1.6,1.8*3C
Survey start at #CCLK: "18/02/06,10:38:19+04"
at#csurv
Network survey started ...
Survey end at #CCLK: "18/02/06,10:38:19+04"
Survey duration: 0 seconds, 0 bases detected over 0 freqs scanned.
