$GPGSA,M,3,24,12,19,17,13,,,,,,,,4.7,3.1,3.6*33
$GPRMC,154859.000,A,4806.8702,N,00139.4348,W,0.57,358.40,090218,,,A*75
Survey start at #CCLK: "18/02/09,16:48:59+04"
at#csurv
Network survey started ...
Survey end at #CCLK: "18/02/09,16:48:59+04"
Survey duration: 0 seconds, 0 bases detected over 0 freqs scanned.
$GPGGA,154900.000,4806.8701,N,00139.4345,W,1,05,3.1,2.3,M,48.3,M,,0000*47
$GPGSA,M,3,24,12,19,17,13,,,,,,,,4.7,3.1,3.6*33
$GPRMC,154900.000,A,4806.8701,N,00139.4345,W,0.47,358.40,090218,,,A*77
$GPGGA,154901.000,4806.8704,N,00139.4344,W,1,05,3.1,3.4,M,48.3,M,,0000*44
$GPGSA,M,3,24,12,19,17,13,,,,,,,,4.7,3.1,3.6*33
$GPRMC,154901.000,A,4806.8704,N,00139.4344,W,1.00,358.40,090218,,,A*70
Survey start at #CCLK: "18/02/09,16:49:01+04"
$GPGGA,154902.000,4806.8705,N,00139.4336,W,1,06,2.9,4.0,M,48.3,M,,0000*4A
at#csurv
Network survey started ...
$GPGSA,M,3,24,12,19,15,17,13,,,,,,,4.5,2.9,3.5*3F
$GPGSV,3,1,11,24,82,044,18,12,62,224,22,19,37,073,26,15,35,169,14*78
$GPGSV,3,2,11,17,27,049,29,13,10,146,14,33,33,198,,10,22,280,*73
$GPGSV,3,3,11,25,22,232,,32,18,314,,18,16,249,*42
$GPRMC,154902.000,A,4806.8705,N,00139.4336,W,0.57,358.40,090218,,,A*74
$GPGGA,154903.000,4806.8706,N,00139.4330,W,1,05,2.9,4.9,M,48.3,M,,0000*44
$GPGSA,M,3,24,12,19,15,17,,,,,,,,4.9,2.9,3.9*3D
$GPRMC,154903.000,A,4806.8706,N,00139.4330,W,0.39,358.40,090218,,,A*78
$GPGGA,154904.000,4806.8704,N,00139.4323,W,1,05,2.9,6.0,M,48.3,M,,0000*48
$GPGSA,M,3,24,12,19,15,17,,,,,,,,4.9,2.9,3.9*3D
$GPRMC,154904.000,A,4806.8704,N,00139.4323,W,0.25,358.40,090218,,,A*72
$GPGGA,154905.000,4806.8707,N,00139.4328,W,1,06,2.9,5.6,M,48.3,M,,0000*47
$GPGSA,M,3,24,12,19,15,17,13,,,,,,,4.5,2.9,3.5*3F
$GPRMC,154905.000,A,4806.8707,N,00139.4328,W,0.12,358.40,090218,,,A*7F
$GPGGA,154906.000,4806.8708,N,00139.4330,W,1,06,2.9,5.4,M,48.3,M,,0000*40
$GPGSA,M,3,24,12,19,15,17,13,,,,,,,4.5,2.9,3.5*3F
$GPRMC,154906.000,A,4806.8708,N,00139.4330,W,0.28,358.40,090218,,,A*73
$GPGGA,154907.000,4806.8711,N,00139.4328,W,1,06,2.9,6.5,M,48.3,M,,0000*42
$GPGSA,M,3,24,12,19,15,17,13,,,,,,,4.5,2.9,3.5*3F
$GPGSV,3,1,11,24,82,044,16,12,62,224,22,19,37,073,26,15,35,169,14*76
$GPGSV,3,2,11,17,27,049,29,13,10,146,08,33,33,198,,10,22,280,*7E
$GPGSV,3,3,11,25,22,232,,32,18,314,,18,16,249,*42
$GPRMC,154907.000,A,4806.8711,N,00139.4328,W,0.48,358.40,090218,,,A*75
$GPGGA,154908.000,4806.8712,N,00139.4328,W,1,05,2.9,7.9,M,48.3,M,,0000*40
$GPGSA,M,3,24,12,19,15,17,,,,,,,,4.9,2.9,3.9*3D
$GPRMC,154908.000,A,4806.8712,N,00139.4328,W,0.13,358.40,090218,,,A*77
arfcn: 981 bsic: 46 rxLev: -57 ber: 0.00 mcc: 208 mnc: 20 lac: 418 cellId: 21807 cellStatus: CELL_SUITABLE numArfcn: 1 arfcn: 981 numChannels: 16 array: 979 982 983 985 1012 1014 1017 1019 1020 787 790 791 793 796 882 884 pbcch: 0 nom: 2 rac: 6 spgc: 0 pat: 6 nco: 0 t3168: 1500 t3192: 500 drxmax: 0 ctrlAck: 0 bsCVmax: 8 alpha: 6 pcMeasCh: 1 
arfcn: 991 rxLev: -60
arfcn: 994 rxLev: -60
arfcn: 993 rxLev: -61
$GPGGA,154909.000,4806.8713,N,00139.4327,W,1,05,2.9,8.7,M,48.3,M,,0000*4E
arfcn: 992 rxLev: -61
arfcn: 990 rxLev: -61
$GPGSA,M,3,24,12,19,15,17,,,,,,,,4.9,2.9,3.9*3D
$GPRMC,154909.000,A,4806.8713,N,00139.4327,W,0.27,358.40,090218,,,A*7F
$GPGGA,154910.000,4806.8714,N,00139.4329,W,1,05,2.9,8.2,M,48.3,M,,0000*4A
$GPGSA,M,3,24,12,19,15,17,,,,,,,,4.9,2.9,3.9*3D
$GPRMC,154910.000,A,4806.8714,N,00139.4329,W,0.11,358.40,090218,,,A*7B
$GPGGA,154911.000,4806.8720,N,00139.4329,W,1,05,2.9,9.5,M,48.3,M,,0000*4A
$GPGSA,M,3,24,12,19,15,17,,,,,,,,4.9,2.9,3.9*3D
$GPRMC,154911.000,A,4806.8720,N,00139.4329,W,0.60,358.40,090218,,,A*7B
$GPGGA,154912.000,4806.8723,N,00139.4334,W,1,06,2.9,8.5,M,48.3,M,,0000*44
$GPGSA,M,3,24,12,19,15,17,13,,,,,,,4.5,2.9,3.5*3F
$GPGSV,3,1,11,24,82,044,15,12,62,224,22,19,37,073,27,15,35,169,13*73
$GPGSV,3,2,11,17,27,049,30,13,10,146,08,33,33,198,,10,22,280,*76
$GPGSV,3,3,11,25,22,232,,32,18,314,,18,16,249,*42
$GPRMC,154912.000,A,4806.8723,N,00139.4334,W,0.69,358.40,090218,,,A*7E
$GPGGA,154913.000,4806.8725,N,00139.4335,W,1,06,2.9,8.5,M,48.3,M,,0000*42
$GPGSA,M,3,24,12,19,15,17,13,,,,,,,4.5,2.9,3.5*3F
$GPRMC,154913.000,A,4806.8725,N,00139.4335,W,0.35,358.40,090218,,,A*71
$GPGGA,154914.000,4806.8726,N,00139.4335,W,1,05,2.9,8.9,M,48.3,M,,0000*49
$GPGSA,M,3,24,12,19,15,17,,,,,,,,4.9,2.9,3.9*3D
$GPRMC,154914.000,A,4806.8726,N,00139.4335,W,0.30,358.40,090218,,,A*70
$GPGGA,154915.000,4806.8730,N,00139.4339,W,1,05,2.9,8.8,M,48.3,M,,0000*42
$GPGSA,M,3,24,12,19,15,17,,,,,,,,4.9,2.9,3.9*3D
$GPRMC,154915.000,A,4806.8730,N,00139.4339,W,0.62,358.40,090218,,,A*7D
Survey end at #CCLK: "18/02/09,16:49:15+04"
Survey duration: 13 seconds, 1 bases detected over 6 freqs scanned.
$GPGGA,154916.000,4806.8732,N,00139.4339,W,1,05,2.9,9.5,M,48.3,M,,0000*4F
$GPGSA,M,3,24,12,19,15,17,,,,,,,,4.9,2.9,3.9*3D
$GPRMC,154916.000,A,4806.8732,N,00139.4339,W,0.53,358.40,090218,,,A*7E
$GPGGA,154917.000,4806.8733,N,00139.4341,W,1,04,4.4,9.9,M,48.3,M,,0000*46
$GPGSA,M,3,24,12,19,17,,,,,,,,,6.1,4.4,4.3*35
$GPGSV,3,1,11,24,82,044,15,12,62,224,22,19,37,073,27,17,27,049,30*70
$GPGSV,3,2,11,13,10,146,07,15,35,169,05,37,27,150,,10,22,280,*78
$GPGSV,3,3,11,25,22,232,,32,18,314,,18,16,249,*42
Survey start at #CCLK: "18/02/09,16:49:17+04"
at#csurv
Network survey started ...
Survey end at #CCLK: "18/02/09,16:49:17+04"
Survey duration: 0 seconds, 0 bases detected over 0 freqs scanned.
$GPRMC,154917.000,A,4806.8733,N,00139.4341,W,0.65,358.40,090218,,,A*74
$GPGGA,154918.000,4806.8738,N,00139.4353,W,1,04,4.4,9.7,M,48.3,M,,0000*4F
$GPGSA,M,3,24,12,19,17,,,,,,,,,6.1,4.4,4.3*35
$GPRMC,154918.000,A,4806.8738,N,00139.4353,W,1.12,358.40,090218,,,A*72
$GPGGA,154919.000,4806.8740,N,00139.4359,W,1,04,4.4,9.7,M,48.3,M,,0000*4B
$GPGSA,M,3,24,12,19,17,,,,,,,,,6.1,4.4,4.3*35
$GPRMC,154919.000,A,4806.8740,N,00139.4359,W,1.03,358.40,090218,,,A*76
Survey start at #CCLK: "18/02/09,16:49:19+04"
at#csurv
Network survey started ...
Survey end at #CCLK: "18/02/09,16:49:19+04"
Survey duration: 0 seconds, 0 bases detected over 0 freqs scanned.
$GPGGA,154920.000,4806.8741,N,00139.4359,W,1,04,4.4,9.7,M,48.3,M,,0000*40
$GPGSA,M,3,24,12,19,17,,,,,,,,,6.1,4.4,4.3*35
$GPRMC,154920.000,A,4806.8741,N,00139.4359,W,0.66,358.40,090218,,,A*7F
$GPGGA,154921.000,4806.8744,N,00139.4357,W,1,04,4.4,9.7,M,48.3,M,,0000*4A
$GPGSA,M,3,24,12,19,17,,,,,,,,,6.1,4.4,4.3*35
$GPRMC,154921.000,A,4806.8744,N,00139.4357,W,0.72,358.40,090218,,,A*70
Survey start at #CCLK: "18/02/09,16:49:21+04"
at#csurv
Network survey started ...
$GPGGA,154922.000,4806.8746,N,00139.4358,W,0,00,,9.7,M,48.3,M,,0000*6F
$GPGSA,M,1,,,,,,,,,,,,,,,*12
$GPGSV,3,1,11,12,62,224,22,13,10,146,04,15,35,169,04,17,27,049,30*79
$GPGSV,3,2,11,19,37,073,26,24,82,044,07,37,27,150,,10,22,280,*71
$GPGSV,3,3,11,25,22,232,,32,18,314,,18,16,249,*42
$GPRMC,154922.000,V,4806.8746,N,00139.4358,W,,,090218,,,N*69
$GPGGA,154923.000,4806.8748,N,00139.4359,W,0,00,,9.7,M,48.3,M,,0000*61
$GPGSA,M,1,,,,,,,,,,,,,,,*12
$GPRMC,154923.000,V,4806.8748,N,00139.4359,W,,,090218,,,N*67
$GPGGA,154924.052,4806.8738,N,00139.4346,W,1,04,4.4,10.4,M,48.3,M,,0000*78
$GPGSA,M,3,24,12,19,17,,,,,,,,,6.1,4.4,4.3*35
$GPRMC,154924.052,A,4806.8738,N,00139.4346,W,0.25,358.40,090218,,,A*7B
$GPGGA,154925.052,4806.8737,N,00139.4346,W,0,00,,10.4,M,48.3,M,,0000*5D
$GPGSA,M,1,,,,,,,,,,,,,,,*12
$GPRMC,154925.052,V,4806.8737,N,00139.4346,W,,,090218,,,N*60
$GPGGA,154926.000,4806.8720,N,00139.4326,W,1,05,3.0,10.0,M,48.3,M,,0000*74
$GPGSA,M,3,24,12,19,17,13,,,,,,,,4.7,3.0,3.6*32
$GPRMC,154926.000,A,4806.8720,N,00139.4326,W,1.43,64.65,090218,,,A*4B
$GPGGA,154927.052,4806.8705,N,00139.4307,W,1,04,3.4,9.5,M,48.3,M,,0000*4E
$GPGSA,M,3,12,19,17,13,,,,,,,,,5.7,3.4,4.6*36
$GPGSV,3,1,11,12,62,224,22,19,37,073,26,17,27,049,30,13,10,146,12*7A
$GPGSV,3,2,11,15,35,169,05,24,82,044,08,37,27,150,,10,22,280,*7B
$GPGSV,3,3,11,25,22,232,,32,18,314,,18,16,249,*42
$GPRMC,154927.052,A,4806.8705,N,00139.4307,W,2.57,118.12,090218,,,A*75
arfcn: 981 bsic: 46 rxLev: -57 ber: 0.00 mcc: 208 mnc: 20 lac: 418 cellId: 21807 cellStatus: CELL_SUITABLE numArfcn: 1 arfcn: 981 numChannels: 16 array: 979 982 983 985 1012 1014 1017 1019 1020 787 790 791 793 796 882 884 pbcch: 0 nom: 2 rac: 6 spgc: 0 pat: 6 nco: 0 t3168: 1500 t3192: 500 drxmax: 0 ctrlAck: 0 bsCVmax: 8 alpha: 6 pcMeasCh: 1 
arfcn: 997 rxLev: -59
arfcn: 996 rxLev: -60
arfcn: 994 rxLev: -60
$GPGGA,154928.000,4806.8699,N,00139.4304,W,1,04,3.4,9.2,M,48.3,M,,0000*46
arfcn: 995 rxLev: -60
$GPGSA,M,3,12,19,17,13,,,,,,,,,5.7,3.4,4.6*36
arfcn: 990 rxLev: -60
arfcn: 991 rxLev: -60
$GPRMC,154928.000,A,4806.8699,N,00139.4304,W,2.50,132.88,090218,,,A*76
arfcn: 1001 rxLev: -61
arfcn: 1004 rxLev: -61
arfcn: 998 rxLev: -61
arfcn: 999 rxLev: -61
arfcn: 992 rxLev: -61
arfcn: 993 rxLev: -61
$GPGGA,154929.000,4806.8693,N,00139.4302,W,1,05,3.1,8.4,M,48.3,M,,0000*48
$GPGSA,M,3,12,19,15,17,13,,,,,,,,5.3,3.1,4.3*36
$GPRMC,154929.000,A,4806.8693,N,00139.4302,W,1.77,137.97,090218,,,A*76
$GPGGA,154930.000,4806.8688,N,00139.4294,W,1,04,3.4,8.1,M,48.3,M,,0000*45
$GPGSA,M,3,12,19,17,13,,,,,,,,,5.7,3.4,4.6*36
$GPRMC,154930.000,A,4806.8688,N,00139.4294,W,1.51,138.81,090218,,,A*76
$GPGGA,154931.000,4806.8683,N,00139.4287,W,1,04,3.4,8.1,M,48.3,M,,0000*4D
$GPGSA,M,3,12,19,17,13,,,,,,,,,5.7,3.4,4.6*36
$GPRMC,154931.000,A,4806.8683,N,00139.4287,W,1.32,139.00,090218,,,A*73
$GPGGA,154932.000,4806.8680,N,00139.4284,W,0,00,,8.0,M,48.3,M,,0000*63
$GPGSA,M,1,,,,,,,,,,,,,,,*12
$GPGSV,3,1,11,12,62,224,21,13,10,146,13,15,35,169,05,17,27,049,30*7D
$GPGSV,3,2,11,19,37,073,26,24,82,044,06,37,27,150,,10,22,280,*70
$GPGSV,3,3,11,25,22,232,,32,18,314,,18,16,249,*42
$GPRMC,154932.000,V,4806.8680,N,00139.4284,W,,,090218,,,N*63
$GPGGA,154933.000,4806.8678,N,00139.4280,W,0,00,,7.9,M,48.3,M,,0000*67
$GPGSA,M,1,,,,,,,,,,,,,,,*12
$GPRMC,154933.000,V,4806.8678,N,00139.4280,W,,,090218,,,N*61
$GPGGA,154934.052,4806.8670,N,00139.4283,W,1,04,3.4,6.8,M,48.3,M,,0000*40
$GPGSA,M,3,12,19,17,13,,,,,,,,,5.7,3.4,4.6*36
$GPRMC,154934.052,A,4806.8670,N,00139.4283,W,1.67,143.06,090218,,,A*72
Survey end at #CCLK: "18/02/09,16:49:34+04"
Survey duration: 13 seconds, 1 bases detected over 13 freqs scanned.
$GPGGA,154935.052,4806.8665,N,00139.4280,W,1,05,3.0,6.2,M,48.3,M,,0000*49
$GPGSA,M,3,24,12,19,17,13,,,,,,,,4.7,3.0,3.6*32
$GPRMC,154935.052,A,4806.8665,N,00139.4280,W,1.35,144.53,090218,,,A*74
$GPGGA,154936.000,4806.8656,N,00139.4276,W,1,05,3.0,5.7,M,48.3,M,,0000*42
$GPGSA,M,3,24,12,19,17,13,,,,,,,,4.7,3.0,3.6*32
$GPRMC,154936.000,A,4806.8656,N,00139.4276,W,1.58,147.94,090218,,,A*7A
Survey start at #CCLK: "18/02/09,16:49:36+04"
at#csurv
Network survey started ...
Survey end at #CCLK: "18/02/09,16:49:36+04"
Survey duration: 0 seconds, 0 bases detected over 0 freqs scanned.
$GPGGA,154937.000,4806.8648,N,00139.4279,W,1,05,3.0,4.8,M,48.3,M,,0000*4D
$GPGSA,M,3,24,12,19,17,13,,,,,,,,4.7,3.0,3.6*32
$GPGSV,3,1,11,24,82,044,11,12,62,224,21,19,37,073,25,17,27,049,31*74
$GPGSV,3,2,11,13,10,146,12,37,27,150,,15,35,169,,10,22,280,*79
$GPGSV,3,3,11,25,22,232,,32,18,314,,18,16,249,*42
$GPRMC,154937.000,A,4806.8648,N,00139.4279,W,1.82,154.20,090218,,,A*71
$GPGGA,154938.000,4806.8639,N,00139.4274,W,1,05,3.0,3.9,M,48.3,M,,0000*4F
$GPGSA,M,3,24,12,19,17,13,,,,,,,,4.7,3.0,3.6*32
$GPRMC,154938.000,A,4806.8639,N,00139.4274,W,2.29,158.01,090218,,,A*78
Survey start at #CCLK: "18/02/09,16:49:38+04"
at#csurv
Network survey started ...
Survey end at #CCLK: "18/02/09,16:49:38+04"
Survey duration: 0 seconds, 0 bases detected over 0 freqs scanned.
$GPGGA,154939.000,4806.8631,N,00139.4271,W,1,05,3.0,2.2,M,48.3,M,,0000*49
$GPGSA,M,3,24,12,19,17,13,,,,,,,,4.7,3.0,3.6*32
$GPRMC,154939.000,A,4806.8631,N,00139.4271,W,2.69,158.33,090218,,,A*71
$GPGGA,154940.000,4806.8620,N,00139.4260,W,1,05,3.0,1.4,M,48.3,M,,0000*42
$GPGSA,M,3,24,12,19,17,13,,,,,,,,4.7,3.0,3.6*32
$GPRMC,154940.000,A,4806.8620,N,00139.4260,W,3.05,155.98,090218,,,A*78
$GPGGA,154941.000,4806.8609,N,00139.4249,W,1,05,3.0,0.5,M,48.3,M,,0000*43
Survey start at #CCLK: "18/02/09,16:49:41+04"
at#csurv
Network survey started ...
$GPGSA,M,3,24,12,19,17,13,,,,,,,,4.7,3.0,3.6*32
$GPRMC,154941.000,A,4806.8609,N,00139.4249,W,3.12,154.50,090218,,,A*7A
$GPGGA,154942.000,4806.8602,N,00139.4240,W,1,05,3.0,-0.7,M,48.3,M,,0000*6D
$GPGSA,M,3,24,12,19,17,13,,,,,,,,4.7,3.0,3.6*32
$GPGSV,3,1,11,24,82,044,12,12,62,224,20,19,37,073,25,17,27,049,30*77
$GPGSV,3,2,11,13,10,146,12,37,27,150,,15,35,169,,10,22,280,*79
$GPGSV,3,3,11,25,22,232,,32,18,314,,18,16,249,*42
$GPRMC,154942.000,A,4806.8602,N,00139.4240,W,2.97,151.65,090218,,,A*74
$GPGGA,154943.000,4806.8596,N,00139.4230,W,1,05,3.0,-1.5,M,48.3,M,,0000*66
$GPGSA,M,3,24,12,19,17,13,,,,,,,,4.7,3.0,3.6*32
$GPRMC,154943.000,A,4806.8596,N,00139.4230,W,2.88,150.18,090218,,,A*79
$GPGGA,154944.000,4806.8590,N,00139.4224,W,1,05,3.0,-2.1,M,48.3,M,,0000*65
$GPGSA,M,3,24,12,19,17,13,,,,,,,,4.7,3.0,3.6*32
$GPRMC,154944.000,A,4806.8590,N,00139.4224,W,2.80,150.69,090218,,,A*73
$GPGGA,154945.000,4806.8590,N,00139.4225,W,1,05,3.0,-2.7,M,48.3,M,,0000*63
$GPGSA,M,3,24,12,19,17,13,,,,,,,,4.7,3.0,3.6*32
$GPRMC,154945.000,A,4806.8590,N,00139.4225,W,2.47,150.42,090218,,,A*71
$GPGGA,154946.000,4806.8587,N,00139.4221,W,1,05,3.0,-2.7,M,48.3,M,,0000*62
$GPGSA,M,3,24,12,19,17,13,,,,,,,,4.7,3.0,3.6*32
$GPRMC,154946.000,A,4806.8587,N,00139.4221,W,2.49,150.87,090218,,,A*77
arfcn: 981 bsic: 46 rxLev: -56 ber: 0.00 mcc: 208 mnc: 20 lac: 418 cellId: 21807 cellStatus: CELL_SUITABLE numArfcn: 1 arfcn: 981 numChannels: 16 array: 979 982 983 985 1012 1014 1017 1019 1020 787 790 791 793 796 882 884 pbcch: 0 nom: 2 rac: 6 spgc: 0 pat: 6 nco: 0 t3168: 1500 t3192: 500 drxmax: 0 ctrlAck: 0 bsCVmax: 8 alpha: 6 pcMeasCh: 1 
arfcn: 991 rxLev: -60
arfcn: 1004 rxLev: -60
$GPGGA,154947.000,4806.8585,N,00139.4219,W,1,05,3.0,-2.7,M,48.3,M,,0000*6A
arfcn: 1005 rxLev: -61
arfcn: 1002 rxLev: -61
$GPGSA,M,3,24,12,19,17,13,,,,,,,,4.7,3.0,3.6*32
arfcn: 1003 rxLev: -61
$GPGSV,3,1,11,24,82,044,11,12,62,224,19,19,37,073,25,17,27,049,31*7F
arfcn: 995 rxLev: -61
arfcn: 997 rxLev: -61
$GPGSV,3,2,11,13,10,146,12,39,31,144,,15,35,169,,10,22,280,*75
arfcn: 990 rxLev: -61
$GPGSV,3,3,11,25,22,232,,32,18,314,,18,16,249,*42
arfcn: 992 rxLev: -61
$GPRMC,154947.000,A,4806.8585,N,00139.4219,W,2.15,151.13,090218,,,A*7A
$GPGGA,154948.000,4806.8590,N,00139.4224,W,1,05,3.0,-2.7,M,48.3,M,,0000*6F
$GPGSA,M,3,24,12,19,17,13,,,,,,,,4.7,3.0,3.6*32
$GPRMC,154948.000,A,4806.8590,N,00139.4224,W,1.24,150.63,090218,,,A*78
$GPGGA,154949.000,4806.8595,N,00139.4234,W,1,05,3.0,-3.4,M,48.3,M,,0000*68
$GPGSA,M,3,24,12,19,17,13,,,,,,,,4.7,3.0,3.6*32
$GPRMC,154949.000,A,4806.8595,N,00139.4234,W,0.90,150.63,090218,,,A*73
$GPGGA,154950.000,4806.8597,N,00139.4233,W,1,04,3.0,-1.2,M,48.3,M,,0000*60
$GPGSA,M,3,24,12,19,13,,,,,,,,,4.3,3.0,3.1*37
$GPRMC,154950.000,A,4806.8597,N,00139.4233,W,0.97,150.63,090218,,,A*79
$GPGGA,154951.000,4806.8597,N,00139.4230,W,1,04,3.0,-0.2,M,48.3,M,,0000*63
$GPGSA,M,3,24,12,19,13,,,,,,,,,4.3,3.0,3.1*37
$GPRMC,154951.000,A,4806.8597,N,00139.4230,W,1.12,150.63,090218,,,A*77
$GPGGA,154952.000,4806.8595,N,00139.4230,W,1,06,1.6,-0.3,M,48.3,M,,0000*65
$GPGSA,M,3,24,12,19,17,25,13,,,,,,,2.4,1.6,1.8*38
$GPGSV,3,1,11,24,82,044,11,12,62,224,19,19,37,073,25,17,27,049,31*7F
$GPGSV,3,2,11,25,22,232,12,13,10,146,13,39,31,144,,15,35,169,*78
$GPGSV,3,3,11,10,22,280,,32,18,314,,18,16,249,*4D
$GPRMC,154952.000,A,4806.8595,N,00139.4230,W,1.48,152.34,090218,,,A*79
$GPGGA,154953.000,4806.8597,N,00139.4234,W,1,06,1.6,-0.5,M,48.3,M,,0000*64
$GPGSA,M,3,24,12,19,17,25,13,,,,,,,2.4,1.6,1.8*38
$GPRMC,154953.000,A,4806.8597,N,00139.4234,W,1.30,153.40,090218,,,A*73
Survey end at #CCLK: "18/02/09,16:49:53+04"
Survey duration: 12 seconds, 1 bases detected over 10 freqs scanned.
$GPGGA,154954.000,4806.8597,N,00139.4236,W,1,06,1.6,-0.6,M,48.3,M,,0000*62
$GPGSA,M,3,24,12,19,17,25,13,,,,,,,2.4,1.6,1.8*38
$GPRMC,154954.000,A,4806.8597,N,00139.4236,W,1.11,153.40,090218,,,A*75
$GPGGA,154955.000,4806.8597,N,00139.4244,W,1,06,1.6,-0.8,M,48.3,M,,0000*68
$GPGSA,M,3,24,12,19,17,25,13,,,,,,,2.4,1.6,1.8*38
Survey start at #CCLK: "18/02/09,16:49:55+04"
at#csurv
Network survey started ...
Survey end at #CCLK: "18/02/09,16:49:55+04"
Survey duration: 0 seconds, 0 bases detected over 0 freqs scanned.
$GPRMC,154955.000,A,4806.8597,N,00139.4244,W,1.52,163.32,090218,,,A*70
$GPGGA,154956.000,4806.8597,N,00139.4244,W,1,05,4.1,-1.0,M,48.3,M,,0000*63
$GPGSA,M,3,24,12,19,17,25,,,,,,,,4.5,4.1,1.9*3E
$GPRMC,154956.000,A,4806.8597,N,00139.4244,W,1.34,168.44,090218,,,A*79
$GPGGA,154957.000,4806.8596,N,00139.4247,W,1,05,4.1,-1.3,M,48.3,M,,0000*63
$GPGSA,M,3,24,12,19,17,25,,,,,,,,4.5,4.1,1.9*3E
Survey start at #CCLK: "18/02/09,16:49:57+04"
at#csurv
Network survey started ...
$GPGSV,3,1,11,24,82,044,10,12,62,224,19,19,37,073,25,17,27,049,31*7E
Survey end at #CCLK: "18/02/09,16:49:57+04"
Survey duration: 0 seconds, 0 bases detected over 0 freqs scanned.
$GPGSV,3,2,11,25,22,232,12,13,10,146,05,39,31,144,,15,35,169,*7F
$GPGSV,3,3,11,10,22,280,,32,18,314,,18,16,249,*4D
$GPRMC,154957.000,A,4806.8596,N,00139.4247,W,1.54,175.87,090218,,,A*7F
$GPGGA,154958.000,4806.8594,N,00139.4251,W,1,05,4.1,-0.8,M,48.3,M,,0000*63
$GPGSA,M,3,24,12,19,17,25,,,,,,,,4.5,4.1,1.9*3E
$GPRMC,154958.000,A,4806.8594,N,00139.4251,W,1.31,179.84,090218,,,A*79
$GPGGA,154959.000,4806.8595,N,00139.4264,W,1,05,4.1,-0.9,M,48.3,M,,0000*64
$GPGSA,M,3,24,12,19,17,25,,,,,,,,4.5,4.1,1.9*3E
$GPRMC,154959.000,A,4806.8595,N,00139.4264,W,1.46,185.72,090218,,,A*75
Survey start at #CCLK: "18/02/09,16:49:59+04"
at#csurv
Network survey started ...
$GPGGA,155000.000,4806.8596,N,00139.4272,W,1,05,4.1,-0.9,M,48.3,M,,0000*64
$GPGSA,M,3,24,12,19,17,25,,,,,,,,4.5,4.1,1.9*3E
$GPRMC,155000.000,A,4806.8596,N,00139.4272,W,0.93,185.72,090218,,,A*7C
$GPGGA,155001.000,4806.8597,N,00139.4278,W,1,05,4.1,-1.0,M,48.3,M,,0000*66
$GPGSA,M,3,24,12,19,17,25,,,,,,,,4.5,4.1,1.9*3E
$GPRMC,155001.000,A,4806.8597,N,00139.4278,W,1.03,185.72,090218,,,A*7E
$GPGGA,155002.000,4806.8598,N,00139.4283,W,1,05,4.1,-0.8,M,48.3,M,,0000*67
$GPGSA,M,3,24,12,19,17,25,,,,,,,,4.5,4.1,1.9*3E
$GPGSV,3,1,11,24,82,044,10,12,62,224,18,19,37,073,25,17,27,049,31*7F
$GPGSV,3,2,11,25,22,232,10,13,10,146,04,39,31,144,,15,35,169,*7C
$GPGSV,3,3,11,10,22,280,,32,18,314,,18,16,249,*4D
$GPRMC,155002.000,A,4806.8598,N,00139.4283,W,0.71,185.72,090218,,,A*72
$GPGGA,155003.000,4806.8600,N,00139.4285,W,1,04,4.7,-0.8,M,48.3,M,,0000*65
$GPGSA,M,3,12,19,17,25,,,,,,,,,5.5,4.7,2.8*3D
$GPRMC,155003.000,A,4806.8600,N,00139.4285,W,0.25,185.72,090218,,,A*76
$GPGGA,155004.000,4806.8602,N,00139.4284,W,1,04,4.7,-0.7,M,48.3,M,,0000*6E
$GPGSA,M,3,12,19,17,25,,,,,,,,,5.5,4.7,2.8*3D
$GPRMC,155004.000,A,4806.8602,N,00139.4284,W,0.38,185.72,090218,,,A*7E
$GPGGA,155005.000,4806.8603,N,00139.4281,W,1,04,4.7,-0.1,M,48.3,M,,0000*6D
$GPGSA,M,3,12,19,17,25,,,,,,,,,5.5,4.7,2.8*3D
$GPRMC,155005.000,A,4806.8603,N,00139.4281,W,0.41,185.72,090218,,,A*75
arfcn: 981 bsic: 46 rxLev: -57 ber: 50.00 mcc: 208 mnc: 20 lac: 418 cellId: 21807 cellStatus: CELL_SUITABLE numArfcn: 1 arfcn: 981 numChannels: 16 array: 979 982 983 985 1012 1014 1017 1019 1020 787 790 791 793 796 882 884 pbcch: 0 nom: 2 rac: 6 spgc: 0 pat: 6 nco: 0 t3168: 1500 t3192: 500 drxmax: 0 ctrlAck: 0 bsCVmax: 8 alpha: 6 pcMeasCh: 1 
arfcn: 992 rxLev: -61
$GPGGA,155006.000,4806.8612,N,00139.4285,W,1,05,1.6,0.2,M,48.3,M,,0000*41
arfcn: 993 rxLev: -61
$GPGSA,M,3,12,19,17,25,13,,,,,,,,2.8,1.6,2.3*3A
arfcn: 990 rxLev: -61
arfcn: 991 rxLev: -61
$GPRMC,155006.000,A,4806.8612,N,00139.4285,W,0.57,185.72,090218,,,A*75
arfcn: 997 rxLev: -61
arfcn: 1002 rxLev: -61
arfcn: 1004 rxLev: -61
arfcn: 1005 rxLev: -62
arfcn: 1003 rxLev: -62
arfcn: 996 rxLev: -62
arfcn: 994 rxLev: -62
arfcn: 995 rxLev: -62
$GPGGA,155007.000,4806.8617,N,00139.4287,W,1,05,1.6,0.4,M,48.3,M,,0000*41
arfcn: 998 rxLev: -62
arfcn: 999 rxLev: -62
$GPGSA,M,3,12,19,17,25,13,,,,,,,,2.8,1.6,2.3*3A
arfcn: 1000 rxLev: -62
arfcn: 1001 rxLev: -62
$GPGSV,3,1,11,12,62,224,18,19,37,073,25,17,27,049,31,25,22,232,09*7F
arfcn: 1006 rxLev: -62
$GPGSV,3,2,11,13,10,146,12,24,82,044,06,39,31,144,,15,35,169,*74
arfcn: 1007 rxLev: -62
arfcn: 1008 rxLev: -62
$GPGSV,3,3,11,10,22,280,,32,18,314,,18,16,249,*4D
$GPRMC,155007.000,A,4806.8617,N,00139.4287,W,0.57,185.72,090218,,,A*73
$GPGGA,155008.000,4806.8624,N,00139.4293,W,1,05,1.6,0.6,M,48.3,M,,0000*49
$GPGSA,M,3,12,19,17,25,13,,,,,,,,2.8,1.6,2.3*3A
$GPRMC,155008.000,A,4806.8624,N,00139.4293,W,0.38,185.72,090218,,,A*70
$GPGGA,155009.000,4806.8635,N,00139.4305,W,1,05,1.6,0.8,M,48.3,M,,0000*48
$GPGSA,M,3,12,19,17,25,13,,,,,,,,2.8,1.6,2.3*3A
$GPRMC,155009.000,A,4806.8635,N,00139.4305,W,0.72,185.72,090218,,,A*71
$GPGGA,155010.000,4806.8643,N,00139.4314,W,1,05,1.6,0.9,M,48.3,M,,0000*40
$GPGSA,M,3,12,19,17,25,13,,,,,,,,2.8,1.6,2.3*3A
$GPRMC,155010.000,A,4806.8643,N,00139.4314,W,0.78,185.72,090218,,,A*72
$GPGGA,155011.000,4806.8648,N,00139.4320,W,1,05,1.6,1.3,M,48.3,M,,0000*46
$GPGSA,M,3,12,19,17,25,13,,,,,,,,2.8,1.6,2.3*3A
$GPRMC,155011.000,A,4806.8648,N,00139.4320,W,0.88,185.72,090218,,,A*70
$GPGGA,155012.000,4806.8652,N,00139.4320,W,1,05,1.6,1.7,M,48.3,M,,0000*4A
$GPGSA,M,3,12,19,17,25,13,,,,,,,,2.8,1.6,2.3*3A
$GPGSV,3,1,11,12,62,224,18,19,37,073,25,17,27,049,31,25,22,232,09*7F
$GPGSV,3,2,11,13,10,146,11,24,82,044,04,39,31,144,,15,35,169,*75
$GPGSV,3,3,11,10,22,280,,32,18,314,,18,16,249,*4D
$GPRMC,155012.000,A,4806.8652,N,00139.4320,W,0.55,185.72,090218,,,A*78
$GPGGA,155013.000,4806.8661,N,00139.4324,W,1,05,1.6,2.2,M,48.3,M,,0000*49
$GPGSA,M,3,12,19,17,25,13,,,,,,,,2.8,1.6,2.3*3A
$GPRMC,155013.000,A,4806.8661,N,00139.4324,W,1.14,185.72,090218,,,A*79
$GPGGA,155014.000,4806.8667,N,00139.4322,W,1,06,1.6,3.2,M,48.3,M,,0000*4C
$GPGSA,M,3,24,12,19,17,25,13,,,,,,,2.4,1.6,1.8*38
$GPRMC,155014.000,A,4806.8667,N,00139.4322,W,1.40,227.40,090218,,,A*75
$GPGGA,155015.000,4806.8670,N,00139.4312,W,1,06,1.6,4.3,M,48.3,M,,0000*4E
$GPGSA,M,3,24,12,19,17,25,13,,,,,,,2.4,1.6,1.8*38
$GPRMC,155015.000,A,4806.8670,N,00139.4312,W,1.47,265.18,090218,,,A*7D
$GPGGA,155016.000,4806.8679,N,00139.4320,W,1,05,3.0,5.0,M,48.3,M,,0000*40
$GPGSA,M,3,24,12,19,17,13,,,,,,,,4.7,3.0,3.5*31
$GPRMC,155016.000,A,4806.8679,N,00139.4320,W,1.08,265.18,090218,,,A*7D
$GPGGA,155017.000,4806.8680,N,00139.4315,W,1,05,4.1,5.7,M,48.3,M,,0000*40
$GPGSA,M,3,24,12,19,17,25,,,,,,,,4.6,4.1,1.9*3D
$GPGSV,3,1,11,24,82,044,11,12,62,224,18,19,37,073,25,17,27,049,31*7E
$GPGSV,3,2,11,25,22,232,08,13,10,146,07,33,33,198,,15,35,169,*7F
$GPGSV,3,3,11,10,22,280,,32,18,314,,18,16,249,*4D
$GPRMC,155017.000,A,4806.8680,N,00139.4315,W,1.01,265.18,090218,,,A*75
$GPGGA,155018.000,4806.8684,N,00139.4323,W,1,04,4.4,6.0,M,48.3,M,,0000*4E
$GPGSA,M,3,24,12,19,17,,,,,,,,,6.2,4.4,4.3*36
$GPRMC,155018.000,A,4806.8684,N,00139.4323,W,0.94,265.18,090218,,,A*76
$GPGGA,155019.000,4806.8686,N,00139.4326,W,0,00,,6.0,M,48.3,M,,0000*63
$GPGSA,M,1,,,,,,,,,,,,,,,*12
$GPRMC,155019.000,V,4806.8686,N,00139.4326,W,,,090218,,,N*6D
arfcn: 985 bsic: 44 rxLev: -63 ber: 0.00 mcc: 208 mnc: 20 lac: 418 cellId: 21808 cellStatus: CELL_SUITABLE numArfcn: 1 arfcn: 985 numChannels: 17 array: 975 977 978 979 980 981 982 983 1011 1012 1014 1015 1017 1019 1020 1021 1022 pbcch: 0 nom: 2 rac: 6 spgc: 0 pat: 6 nco: 0 t3168: 1500 t3192: 500 drxmax: 0 ctrlAck: 0 bsCVmax: 8 alpha: 6 pcMeasCh: 1 
$GPGGA,155020.000,4806.8688,N,00139.4328,W,0,00,,6.0,M,48.3,M,,0000*69
$GPGSA,M,1,,,,,,,,,,,,,,,*12
$GPRMC,155020.000,V,4806.8688,N,00139.4328,W,,,090218,,,N*67
$GPGGA,155021.052,4806.8691,N,00139.4331,W,0,00,,6.1,M,48.3,M,,0000*6E
$GPGSA,M,1,,,,,,,,,,,,,,,*12
$GPRMC,155021.052,V,4806.8691,N,00139.4331,W,,,090218,,,N*61
$GPGGA,155022.052,4806.8688,N,00139.4336,W,1,04,3.4,5.8,M,48.3,M,,0000*44
$GPGSA,M,3,12,19,17,13,,,,,,,,,5.7,3.4,4.6*36
$GPGSV,3,1,11,12,62,224,18,19,37,073,25,17,27,049,32,13,10,146,12*72
$GPGSV,3,2,11,25,22,232,07,33,33,198,,24,82,044,,15,35,169,*7B
$GPGSV,3,3,11,10,22,280,,32,18,314,,18,16,249,*4D
$GPRMC,155022.052,A,4806.8688,N,00139.4336,W,0.92,265.18,090218,,,A*76
$GPGGA,155023.052,4806.8683,N,00139.4325,W,1,04,3.4,5.8,M,48.3,M,,0000*4C
$GPGSA,M,3,12,19,17,13,,,,,,,,,5.7,3.4,4.6*36
$GPRMC,155023.052,A,4806.8683,N,00139.4325,W,0.22,265.18,090218,,,A*75
arfcn: 12 bsic: 0 rxLev: -64 ber: 0.00 mcc: 208 mnc: 01 lac: 10300 cellId: 6467 cellStatus: CELL_FORBIDDEN numArfcn: 13 arfcn: 12 17 18 19 20 21 22 23 24 25 47 48 49 numChannels: 15 array: 1 2 3 8 9 10 14 512 513 514 515 518 605 606 608 pbcch: 0 nom: 2 rac: 1 spgc: 0 pat: 6 nco: 0 t3168: 1000 t3192: 500 drxmax: 2 ctrlAck: 0 bsCVmax: 9 alpha: 5 pcMeasCh: 1 
$GPGGA,155024.000,4806.8679,N,00139.4319,W,1,04,3.4,5.9,M,48.3,M,,0000*47
$GPGSA,M,3,12,19,17,13,,,,,,,,,5.7,3.4,4.6*36
$GPRMC,155024.000,A,4806.8679,N,00139.4319,W,0.38,265.18,090218,,,A*74
$GPGGA,155025.000,4806.8673,N,00139.4308,W,1,04,3.4,6.2,M,48.3,M,,0000*44
$GPGSA,M,3,12,19,17,13,,,,,,,,,5.7,3.4,4.6*36
$GPRMC,155025.000,A,4806.8673,N,00139.4308,W,0.75,265.18,090218,,,A*76
arfcn: 80 bsic: 47 rxLev: -68 ber: 0.00 mcc: 208 mnc: 10 lac: 49415 cellId: 23568 cellStatus: CELL_FORBIDDEN numArfcn: 2 arfcn: 80 89 numChannels: 19 array: 76 77 78 80 82 83 84 85 113 114 115 116 117 118 119 120 122 123 124 pbcch: 0 nom: 2 rac: 31 spgc: 0 pat: 6 nco: 0 t3168: 1000 t3192: 500 drxmax: 4 ctrlAck: 1 bsCVmax: 9 alpha: 10 pcMeasCh: 0 
$GPGGA,155026.000,4806.8668,N,00139.4297,W,1,04,3.4,6.3,M,48.3,M,,0000*4B
$GPGSA,M,3,12,19,17,13,,,,,,,,,5.7,3.4,4.6*36
$GPRMC,155026.000,A,4806.8668,N,00139.4297,W,0.83,265.18,090218,,,A*71
arfcn: 85 bsic: 0 rxLev: -69 ber: 0.00 mcc: 208 mnc: 10 lac: 49415 cellId: 44814 cellStatus: CELL_FORBIDDEN numArfcn: 2 arfcn: 85 119 numChannels: 20 array: 76 77 78 79 80 82 83 85 86 114 115 116 117 118 119 120 121 122 123 124 pbcch: 0 nom: 2 rac: 31 spgc: 0 pat: 6 nco: 0 t3168: 1000 t3192: 500 drxmax: 4 ctrlAck: 1 bsCVmax: 9 alpha: 10 pcMeasCh: 0 
arfcn: 989 rxLev: -70
$GPGGA,155027.000,4806.8661,N,00139.4284,W,1,04,3.4,6.5,M,48.3,M,,0000*47
arfcn: 1009 rxLev: -71
$GPGSA,M,3,12,19,17,13,,,,,,,,,5.7,3.4,4.6*36
$GPGSV,3,1,11,12,62,224,18,19,37,073,24,17,27,049,32,13,10,146,11*70
$GPGSV,3,2,11,25,22,232,08,33,33,198,,24,82,044,,15,35,169,*74
$GPGSV,3,3,11,10,22,280,,32,18,314,,18,16,249,*4D
$GPRMC,155027.000,A,4806.8661,N,00139.4284,W,1.04,265.18,090218,,,A*75
$GPGGA,155028.000,4806.8660,N,00139.4280,W,0,00,,6.5,M,48.3,M,,0000*61
$GPGSA,M,1,,,,,,,,,,,,,,,*12
$GPRMC,155028.000,V,4806.8660,N,00139.4280,W,,,090218,,,N*6A
arfcn: 124 bsic: 2 rxLev: -72 ber: 0.00 mcc: 208 mnc: 10 lac: 49415 cellId: 43517 cellStatus: CELL_FORBIDDEN numArfcn: 2 arfcn: 112 124 numChannels: 14 array: 76 77 78 80 82 85 114 115 117 118 120 121 122 124 pbcch: 0 nom: 2 rac: 31 spgc: 0 pat: 6 nco: 0 t3168: 1000 t3192: 500 drxmax: 4 ctrlAck: 1 bsCVmax: 9 alpha: 10 pcMeasCh: 0 
arfcn: 980 rxLev: -72
arfcn: 982 rxLev: -74
$GPGGA,155029.000,4806.8658,N,00139.4277,W,0,00,,6.4,M,48.3,M,,0000*62
$GPGSA,M,1,,,,,,,,,,,,,,,*12
$GPRMC,155029.000,V,4806.8658,N,00139.4277,W,,,090218,,,N*68
$GPGGA,155030.052,4806.8657,N,00139.4273,W,0,00,,6.4,M,48.3,M,,0000*66
$GPGSA,M,1,,,,,,,,,,,,,,,*12
$GPRMC,155030.052,V,4806.8657,N,00139.4273,W,,,090218,,,N*6C
arfcn: 8 bsic: 48 rxLev: -76 ber: 0.00 mcc: 208 mnc: 01 lac: 10300 cellId: 6473 cellStatus: CELL_FORBIDDEN numArfcn: 13 arfcn: 8 17 18 19 20 21 22 23 24 25 47 48 49 numChannels: 18 array: 1 2 3 4 5 10 12 13 14 15 512 513 514 515 516 517 605 610 pbcch: 0 nom: 2 rac: 1 spgc: 0 pat: 6 nco: 0 t3168: 1000 t3192: 500 drxmax: 2 ctrlAck: 0 bsCVmax: 9 alpha: 5 pcMeasCh: 1 
arfcn: 793 rxLev: -76
arfcn: 852 rxLev: -76
arfcn: 853 rxLev: -77
arfcn: 850 rxLev: -77
arfcn: 838 rxLev: -77
arfcn: 855 rxLev: -77
$GPGGA,155031.052,4806.8655,N,00139.4269,W,0,00,,6.4,M,48.3,M,,0000*6E
$GPGSA,M,1,,,,,,,,,,,,,,,*12
arfcn: 840 rxLev: -78
arfcn: 794 rxLev: -78
$GPRMC,155031.052,V,4806.8655,N,00139.4269,W,,,090218,,,N*64
arfcn: 797 rxLev: -78
arfcn: 803 rxLev: -78
arfcn: 823 rxLev: -78
arfcn: 821 rxLev: -78
arfcn: 847 rxLev: -78
arfcn: 851 rxLev: -78
arfcn: 849 rxLev: -78
arfcn: 825 rxLev: -78
arfcn: 828 rxLev: -78
arfcn: 858 rxLev: -78
$GPGGA,155032.051,4806.8654,N,00139.4265,W,0,00,,6.3,M,48.3,M,,0000*64
$GPGSA,M,1,,,,,,,,,,,,,,,*12
arfcn: 824 rxLev: -79
arfcn: 837 rxLev: -79
$GPGSV,3,1,11,12,62,224,17,13,10,146,04,17,27,049,32,19,37,073,24*7B
$GPGSV,3,2,11,25,22,232,07,33,33,198,,24,82,044,,15,35,169,*7B
$GPGSV,3,3,11,10,22,280,,32,18,314,,18,16,249,*4D
$GPRMC,155032.051,V,4806.8654,N,00139.4265,W,,,090218,,,N*69
$GPGGA,155033.052,4806.8653,N,00139.4233,W,1,05,1.6,7.7,M,48.3,M,,0000*4A
$GPGSA,M,3,12,19,17,25,13,,,,,,,,2.8,1.6,2.3*3A
$GPRMC,155033.052,A,4806.8653,N,00139.4233,W,2.09,164.98,090218,,,A*7E
arfcn: 5 bsic: 1 rxLev: -79 ber: 0.00 mcc: 208 mnc: 01 lac: 10300 cellId: 40079 cellStatus: CELL_FORBIDDEN numArfcn: 13 arfcn: 5 17 18 19 20 21 22 23 24 25 47 48 49 numChannels: 20 array: 1 2 3 4 5 8 9 10 11 13 14 15 16 512 513 518 604 606 608 610 pbcch: 0 nom: 2 rac: 1 spgc: 0 pat: 6 nco: 0 t3168: 1000 t3192: 500 drxmax: 2 ctrlAck: 0 bsCVmax: 9 alpha: 5 pcMeasCh: 1 
arfcn: 28 rxLev: -79
$GPGGA,155034.052,4806.8651,N,00139.4218,W,1,04,4.7,8.5,M,48.3,M,,0000*4E
$GPGSA,M,3,12,19,17,25,,,,,,,,,5.5,4.7,2.8*3D
$GPRMC,155034.052,A,4806.8651,N,00139.4218,W,2.09,145.63,090218,,,A*75
$GPGGA,155035.000,4806.8649,N,00139.4211,W,0,00,,8.7,M,48.3,M,,0000*62
$GPGSA,M,1,,,,,,,,,,,,,,,*12
$GPRMC,155035.000,V,4806.8649,N,00139.4211,W,,,090218,,,N*65
$GPGGA,155036.000,4806.8648,N,00139.4203,W,1,04,4.7,9.3,M,48.3,M,,0000*4E
$GPGSA,M,3,12,19,17,25,,,,,,,,,5.5,4.7,2.8*3D
$GPRMC,155036.000,A,4806.8648,N,00139.4203,W,1.81,136.04,090218,,,A*74
$GPGGA,155037.051,4806.8645,N,00139.4192,W,1,04,4.7,9.6,M,48.3,M,,0000*48
$GPGSA,M,3,12,19,17,25,,,,,,,,,5.5,4.7,2.8*3D
$GPGSV,3,1,11,12,62,224,17,19,37,073,23,17,27,049,32,25,22,232,09*75
$GPGSV,3,2,11,33,33,198,,24,82,044,,15,35,169,,10,22,280,*73
$GPGSV,3,3,11,32,18,314,,18,16,249,,13,10,146,*46
$GPRMC,155037.051,A,4806.8645,N,00139.4192,W,1.63,135.16,090218,,,A*7B
arfcn: 1017 bsic: 33 rxLev: -79 ber: 0.00 mcc: 208 mnc: 20 lac: 418 cellId: 20104 cellStatus: CELL_SUITABLE numArfcn: 3 arfcn: 986 987 1017 numChannels: 20 array: 788 790 885 975 976 978 979 980 981 982 986 987 1011 1012 1015 1017 1019 1020 1021 1022 pbcch: 0 nom: 2 rac: 7 spgc: 0 pat: 6 nco: 0 t3168: 1500 t3192: 500 drxmax: 4 ctrlAck: 1 bsCVmax: 8 alpha: 6 pcMeasCh: 1 
arfcn: 829 rxLev: -79
arfcn: 848 rxLev: -79
$GPGGA,155038.000,4806.8646,N,00139.4186,W,1,04,4.7,9.6,M,48.3,M,,0000*45
arfcn: 845 rxLev: -79
arfcn: 842 rxLev: -79
$GPGSA,M,3,12,19,17,25,,,,,,,,,5.5,4.7,2.8*3D
arfcn: 857 rxLev: -79
arfcn: 870 rxLev: -79
$GPRMC,155038.000,A,4806.8646,N,00139.4186,W,1.45,133.78,090218,,,A*7C
arfcn: 822 rxLev: -79
arfcn: 798 rxLev: -79
arfcn: 792 rxLev: -80
arfcn: 800 rxLev: -80
arfcn: 841 rxLev: -80
arfcn: 854 rxLev: -80
arfcn: 826 rxLev: -80
arfcn: 839 rxLev: -80
$GPGGA,155039.000,4806.8647,N,00139.4179,W,1,04,4.7,9.8,M,48.3,M,,0000*4B
arfcn: 986 rxLev: -80
$GPGSA,M,3,12,19,17,25,,,,,,,,,5.5,4.7,2.8*3D
arfcn: 29 rxLev: -80
arfcn: 36 rxLev: -80
$GPRMC,155039.000,A,4806.8647,N,00139.4179,W,1.16,133.78,090218,,,A*7A
arfcn: 34 rxLev: -80
arfcn: 35 rxLev: -80
$GPGGA,155040.000,4806.8648,N,00139.4171,W,1,04,4.7,10.1,M,48.3,M,,0000*73
$GPGSA,M,3,12,19,17,25,,,,,,,,,5.5,4.7,2.8*3D
$GPRMC,155040.000,A,4806.8648,N,00139.4171,W,1.08,133.78,090218,,,A*7C
$GPGGA,155041.000,4806.8648,N,00139.4165,W,1,04,4.7,10.5,M,48.3,M,,0000*73
$GPGSA,M,3,12,19,17,25,,,,,,,,,5.5,4.7,2.8*3D
$GPRMC,155041.000,A,4806.8648,N,00139.4165,W,0.78,133.78,090218,,,A*7E
arfcn: 10 bsic: 1 rxLev: -80 ber: 1.01 mcc: 208 mnc: 01 lac: 10300 cellId: 39884 cellStatus: CELL_FORBIDDEN numArfcn: 13 arfcn: 10 17 18 19 20 21 22 23 24 25 47 48 49 numChannels: 16 array: 5 6 7 11 15 16 512 514 516 517 518 604 605 608 609 610 pbcch: 0 nom: 2 rac: 1 spgc: 0 pat: 6 nco: 0 t3168: 1000 t3192: 500 drxmax: 2 ctrlAck: 0 bsCVmax: 9 alpha: 5 pcMeasCh: 1 
arfcn: 836 rxLev: -80
arfcn: 834 rxLev: -80
arfcn: 835 rxLev: -80
arfcn: 844 rxLev: -80
arfcn: 846 rxLev: -80
arfcn: 856 rxLev: -80
arfcn: 860 rxLev: -80
$GPGGA,155042.000,4806.8645,N,00139.4156,W,1,04,4.7,11.1,M,48.3,M,,0000*78
arfcn: 795 rxLev: -80
arfcn: 799 rxLev: -80
$GPGSA,M,3,12,19,17,25,,,,,,,,,5.5,4.7,2.8*3D
arfcn: 796 rxLev: -80
$GPGSV,3,1,11,12,62,224,17,19,37,073,23,17,27,049,32,25,22,232,08*74
arfcn: 820 rxLev: -80
arfcn: 813 rxLev: -81
$GPGSV,3,2,11,33,33,198,,24,82,044,,15,35,169,,10,22,280,*73
arfcn: 801 rxLev: -81
$GPGSV,3,3,11,32,18,314,,18,16,249,,13,10,146,*46
arfcn: 805 rxLev: -81
arfcn: 862 rxLev: -81
$GPRMC,155042.000,A,4806.8645,N,00139.4156,W,0.68,133.78,090218,,,A*71
arfcn: 859 rxLev: -81
arfcn: 876 rxLev: -81
arfcn: 843 rxLev: -81
arfcn: 833 rxLev: -81
$GPGGA,155043.000,4806.8645,N,00139.4153,W,0,00,,11.2,M,48.3,M,,0000*57
arfcn: 827 rxLev: -81
$GPGSA,M,1,,,,,,,,,,,,,,,*12
arfcn: 830 rxLev: -81
$GPRMC,155043.000,V,4806.8645,N,00139.4153,W,,,090218,,,N*6D
arfcn: 30 rxLev: -81
arfcn: 27 rxLev: -81
arfcn: 33 rxLev: -81
arfcn: 37 rxLev: -81
$GPGGA,155044.000,4806.8645,N,00139.4150,W,0,00,,11.3,M,48.3,M,,0000*52
$GPGSA,M,1,,,,,,,,,,,,,,,*12
$GPRMC,155044.000,V,4806.8645,N,00139.4150,W,,,090218,,,N*69
$GPGGA,155045.051,4806.8644,N,00139.4148,W,0,00,,11.5,M,48.3,M,,0000*59
$GPGSA,M,1,,,,,,,,,,,,,,,*12
$GPRMC,155045.051,V,4806.8644,N,00139.4148,W,,,090218,,,N*64
$GPGGA,155046.051,4806.8644,N,00139.4145,W,0,00,,11.6,M,48.3,M,,0000*54
$GPGSA,M,1,,,,,,,,,,,,,,,*12
$GPRMC,155046.051,V,4806.8644,N,00139.4145,W,,,090218,,,N*6A
$GPGGA,155047.051,4806.8644,N,00139.4142,W,0,00,,11.7,M,48.3,M,,0000*53
$GPGSA,M,1,,,,,,,,,,,,,,,*12
$GPGSV,3,1,11,12,62,224,17,17,27,049,32,19,37,073,23,25,22,232,04*78
$GPGSV,3,2,11,37,27,150,,24,82,044,,15,35,169,,10,22,280,*76
$GPGSV,3,3,11,32,18,314,,18,16,249,,13,10,146,*46
$GPRMC,155047.051,V,4806.8644,N,00139.4142,W,,,090218,,,N*6C
$GPGGA,155048.052,4806.8645,N,00139.4136,W,1,04,4.7,13.7,M,48.3,M,,0000*77
$GPGSA,M,3,12,19,17,25,,,,,,,,,5.5,4.7,2.8*3D
$GPRMC,155048.052,A,4806.8645,N,00139.4136,W,1.05,133.78,090218,,,A*70
$GPGGA,155049.052,4806.8649,N,00139.4143,W,1,04,4.7,13.7,M,48.3,M,,0000*78
$GPGSA,M,3,12,19,17,25,,,,,,,,,5.5,4.7,2.8*3D
$GPRMC,155049.052,A,4806.8649,N,00139.4143,W,0.31,133.78,090218,,,A*79
arfcn: 605 bsic: 33 rxLev: -81 ber: 0.05 mcc: 208 mnc: 01 lac: 10300 cellId: 27588 cellStatus: CELL_FORBIDDEN numArfcn: 22 arfcn: 525 526 527 528 529 530 531 532 533 534 535 587 588 589 590 591 592 593 594 595 596 597 numChannels: 18 array: 1 3 5 8 12 15 512 513 514 515 516 517 518 604 605 606 607 609 pbcch: 0 nom: 2 rac: 1 spgc: 0 pat: 6 nco: 0 t3168: 1000 t3192: 500 drxmax: 2 ctrlAck: 0 bsCVmax: 9 alpha: 5 pcMeasCh: 1 
arfcn: 13 rxLev: -81
arfcn: 832 rxLev: -81
arfcn: 872 rxLev: -81
arfcn: 873 rxLev: -81
$GPGGA,155050.000,4806.8643,N,00139.4134,W,1,04,4.7,14.2,M,48.3,M,,0000*7F
$GPGSA,M,3,12,19,17,25,,,,,,,,,5.5,4.7,2.8*3D
arfcn: 861 rxLev: -81
arfcn: 868 rxLev: -81
$GPRMC,155050.000,A,4806.8643,N,00139.4134,W,0.65,133.78,090218,,,A*7D
arfcn: 807 rxLev: -81
arfcn: 802 rxLev: -81
arfcn: 815 rxLev: -81
arfcn: 814 rxLev: -82
arfcn: 817 rxLev: -82
arfcn: 818 rxLev: -82
arfcn: 869 rxLev: -82
arfcn: 871 rxLev: -82
$GPGGA,155051.000,4806.8641,N,00139.4133,W,1,04,4.7,14.9,M,48.3,M,,0000*70
arfcn: 867 rxLev: -82
arfcn: 880 rxLev: -82
$GPGSA,M,3,12,19,17,25,,,,,,,,,5.5,4.7,2.8*3D
arfcn: 831 rxLev: -82
$GPRMC,155051.000,A,4806.8641,N,00139.4133,W,0.69,133.78,090218,,,A*75
$GPGGA,155052.000,4806.8639,N,00139.4128,W,1,04,4.7,15.8,M,48.3,M,,0000*76
$GPGSA,M,3,12,19,17,25,,,,,,,,,5.5,4.7,2.8*3D
$GPGSV,3,1,11,12,62,224,16,19,37,073,23,17,27,049,32,25,22,232,15*79
$GPGSV,3,2,11,37,27,150,,24,82,044,,15,35,169,,10,22,280,*76
$GPGSV,3,3,11,32,18,314,,18,16,249,,13,10,146,*46
$GPRMC,155052.000,A,4806.8639,N,00139.4128,W,0.71,133.78,090218,,,A*7A
$GPGGA,155053.000,4806.8633,N,00139.4121,W,1,04,4.7,17.6,M,48.3,M,,0000*78
$GPGSA,M,3,12,19,17,25,,,,,,,,,5.5,4.7,2.8*3D
arfcn: 515 bsic: 34 rxLev: -82 ber: 0.00 mcc: 208 mnc: 01 lac: 10300 cellId: 27586 cellStatus: CELL_FORBIDDEN numArfcn: 16 arfcn: 519 520 521 522 523 524 525 526 596 597 598 599 600 601 602 603 numChannels: 9 array: 1 8 12 512 513 516 605 606 607 pbcch: 0 nom: 2 rac: 1 spgc: 0 pat: 6 nco: 0 t3168: 1000 t3192: 500 drxmax: 2 ctrlAck: 0 bsCVmax: 9 alpha: 5 pcMeasCh: 1 
arfcn: 984 rxLev: -82
$GPRMC,155053.000,A,4806.8633,N,00139.4121,W,1.06,133.78,090218,,,A*79
arfcn: 31 rxLev: -82
arfcn: 38 rxLev: -82
arfcn: 45 rxLev: -82
arfcn: 875 rxLev: -82
arfcn: 877 rxLev: -82
arfcn: 812 rxLev: -82
arfcn: 809 rxLev: -82
arfcn: 806 rxLev: -82
$GPGGA,155054.000,4806.8629,N,00139.4112,W,1,04,4.7,18.1,M,48.3,M,,0000*7C
arfcn: 804 rxLev: -82
arfcn: 791 rxLev: -82
$GPGSA,M,3,12,19,17,25,,,,,,,,,5.5,4.7,2.8*3D
arfcn: 811 rxLev: -83
$GPRMC,155054.000,A,4806.8629,N,00139.4112,W,0.99,133.78,090218,,,A*72
arfcn: 819 rxLev: -83
arfcn: 816 rxLev: -83
arfcn: 879 rxLev: -83
arfcn: 866 rxLev: -83
arfcn: 864 rxLev: -83
arfcn: 865 rxLev: -83
arfcn: 863 rxLev: -83
arfcn: 43 rxLev: -83
$GPGGA,155055.000,4806.8626,N,00139.4106,W,1,04,4.7,17.9,M,48.3,M,,0000*70
arfcn: 32 rxLev: -83
$GPGSA,M,3,12,19,17,25,,,,,,,,,5.5,4.7,2.8*3D
arfcn: 11 rxLev: -83
arfcn: 39 rxLev: -83
$GPRMC,155055.000,A,4806.8626,N,00139.4106,W,1.25,131.91,090218,,,A*7A
arfcn: 42 rxLev: -83
arfcn: 44 rxLev: -83
arfcn: 98 rxLev: -83
arfcn: 99 rxLev: -83
arfcn: 101 rxLev: -83
arfcn: 874 rxLev: -83
arfcn: 810 rxLev: -83
arfcn: 808 rxLev: -83
$GPGGA,155056.000,4806.8635,N,00139.4110,W,1,04,4.7,20.4,M,48.3,M,,0000*7F
$GPGSA,M,3,12,19,17,25,,,,,,,,,5.5,4.7,2.8*3D
$GPRMC,155056.000,A,4806.8635,N,00139.4110,W,0.82,131.91,090218,,,A*70
$GPGGA,155057.000,4806.8643,N,00139.4116,W,1,04,4.7,21.8,M,48.3,M,,0000*74
$GPGSA,M,3,12,19,17,25,,,,,,,,,5.5,4.7,2.8*3D
$GPGSV,3,1,11,12,62,224,17,19,37,073,22,17,27,049,32,25,22,232,15*79
$GPGSV,3,2,11,37,27,150,,24,82,044,,15,35,169,,10,22,280,*76
$GPGSV,3,3,11,32,18,314,,18,16,249,,13,10,146,*46
$GPRMC,155057.000,A,4806.8643,N,00139.4116,W,0.14,131.91,090218,,,A*79
arfcn: 114 bsic: 6 rxLev: -84 ber: 0.00 mcc: 208 mnc: 10 lac: 49415 cellId: 44202 cellStatus: CELL_FORBIDDEN numArfcn: 2 arfcn: 80 114 numChannels: 20 array: 76 77 78 79 80 84 85 86 113 114 115 116 117 118 119 120 121 122 123 124 pbcch: 0 nom: 2 rac: 31 spgc: 0 pat: 6 nco: 0 t3168: 1000 t3192: 500 drxmax: 4 ctrlAck: 1 bsCVmax: 9 alpha: 10 pcMeasCh: 0 
arfcn: 92 rxLev: -84
arfcn: 93 rxLev: -84
arfcn: 94 rxLev: -84
$GPGGA,155058.000,4806.8648,N,00139.4121,W,1,04,4.7,21.1,M,48.3,M,,0000*7D
arfcn: 95 rxLev: -84
$GPGSA,M,3,12,19,17,25,,,,,,,,,5.5,4.7,2.8*3D
arfcn: 66 rxLev: -84
arfcn: 67 rxLev: -84
$GPRMC,155058.000,A,4806.8648,N,00139.4121,W,0.57,131.91,090218,,,A*7E
arfcn: 40 rxLev: -84
arfcn: 41 rxLev: -84
$GPGGA,155059.000,4806.8643,N,00139.4112,W,1,04,4.7,20.8,M,48.3,M,,0000*7F
$GPGSA,M,3,12,19,17,25,,,,,,,,,5.5,4.7,2.8*3D
$GPRMC,155059.000,A,4806.8643,N,00139.4112,W,0.33,131.91,090218,,,A*76
$GPGGA,155100.000,4806.8642,N,00139.4108,W,1,04,4.7,20.8,M,48.3,M,,0000*78
$GPGSA,M,3,12,19,17,25,,,,,,,,,5.5,4.7,2.8*3D
$GPRMC,155100.000,A,4806.8642,N,00139.4108,W,0.32,131.91,090218,,,A*70
arfcn: 14 bsic: 35 rxLev: -84 ber: 0.08 mcc: 208 mnc: 01 lac: 10300 cellId: 39250 cellStatus: CELL_FORBIDDEN numArfcn: 13 arfcn: 14 17 18 19 20 21 22 23 24 25 47 48 49 numChannels: 14 array: 1 3 4 6 8 10 12 14 512 513 514 517 604 608 pbcch: 0 nom: 2 rac: 1 spgc: 1 pat: 6 nco: 0 t3168: 1000 t3192: 500 drxmax: 4 ctrlAck: 1 bsCVmax: 9 alpha: 7 pcMeasCh: 0 
arfcn: 26 rxLev: -84
arfcn: 64 rxLev: -84
arfcn: 65 rxLev: -84
$GPGGA,155101.000,4806.8640,N,00139.4105,W,1,04,4.7,21.2,M,48.3,M,,0000*7D
$GPGSA,M,3,12,19,17,25,,,,,,,,,5.5,4.7,2.8*3D
$GPRMC,155101.000,A,4806.8640,N,00139.4105,W,0.44,131.91,090218,,,A*7F
$GPGGA,155102.000,4806.8640,N,00139.4101,W,1,04,4.7,21.9,M,48.3,M,,0000*71
$GPGSA,M,3,12,19,17,25,,,,,,,,,5.5,4.7,2.8*3D
arfcn: 78 bsic: 2 rxLev: -84 ber: 0.00 mcc: 208 mnc: 10 lac: 49415 cellId: 45280 cellStatus: CELL_FORBIDDEN numArfcn: 2 arfcn: 78 116 numChannels: 20 array: 76 77 78 79 80 82 83 84 85 86 114 115 116 117 118 120 121 122 123 124 pbcch: 0 nom: 2 rac: 31 spgc: 0 pat: 6 nco: 0 t3168: 1000 t3192: 500 drxmax: 4 ctrlAck: 1 bsCVmax: 9 alpha: 10 pcMeasCh: 0 
arfcn: 100 rxLev: -84
$GPGSV,3,1,11,12,62,224,16,19,37,073,23,17,27,049,32,25,22,232,16*7A
arfcn: 102 rxLev: -84
$GPGSV,3,2,11,37,27,150,,24,82,044,,15,35,169,,10,22,280,*76
arfcn: 96 rxLev: -84
arfcn: 97 rxLev: -84
$GPGSV,3,3,11,32,18,314,,18,16,249,,13,10,146,*46
arfcn: 105 rxLev: -84
arfcn: 106 rxLev: -84
$GPRMC,155102.000,A,4806.8640,N,00139.4101,W,0.50,131.91,090218,,,A*7D
$GPGGA,155103.000,4806.8638,N,00139.4094,W,1,04,4.7,22.0,M,48.3,M,,0000*78
$GPGSA,M,3,12,19,17,25,,,,,,,,,5.5,4.7,2.8*3D
$GPRMC,155103.000,A,4806.8638,N,00139.4094,W,0.82,131.91,090218,,,A*71
$GPGGA,155104.000,4806.8640,N,00139.4094,W,1,04,4.7,21.2,M,48.3,M,,0000*71
$GPGSA,M,3,12,19,17,25,,,,,,,,,5.5,4.7,2.8*3D
$GPRMC,155104.000,A,4806.8640,N,00139.4094,W,0.88,131.91,090218,,,A*73
$GPGGA,155105.000,4806.8644,N,00139.4095,W,1,04,4.7,21.4,M,48.3,M,,0000*73
$GPGSA,M,3,12,19,17,25,,,,,,,,,5.5,4.7,2.8*3D
$GPRMC,155105.000,A,4806.8644,N,00139.4095,W,0.91,131.91,090218,,,A*7F
$GPGGA,155106.000,4806.8658,N,00139.4107,W,1,04,4.7,23.0,M,48.3,M,,0000*71
arfcn: 979 bsic: 19 rxLev: -84 ber: 0.02 mcc: 208 mnc: 20 lac: 418 cellId: 20718 cellStatus: CELL_SUITABLE numArfcn: 1 arfcn: 979 numChannels: 22 array: 788 789 790 792 793 795 878 882 884 977 981 983 984 985 986 987 1012 1013 1014 1017 1019 1020 pbcch: 0 nom: 2 rac: 6 spgc: 0 pat: 6 nco: 0 t3168: 1500 t3192: 500 drxmax: 0 ctrlAck: 0 bsCVmax: 8 alpha: 6 pcMeasCh: 1 
arfcn: 878 rxLev: -84
$GPGSA,M,3,12,19,17,25,,,,,,,,,5.5,4.7,2.8*3D
arfcn: 881 rxLev: -84
$GPRMC,155106.000,A,4806.8658,N,00139.4107,W,1.29,103.32,090218,,,A*71
$GPGGA,155107.000,4806.8669,N,00139.4114,W,1,04,4.7,24.5,M,48.3,M,,0000*72
$GPGSA,M,3,12,19,17,25,,,,,,,,,5.5,4.7,2.8*3D
$GPGSV,3,1,11,12,62,224,15,19,37,073,23,17,27,049,31,25,22,232,16*7A
$GPGSV,3,2,11,37,27,150,,24,82,044,,15,35,169,,10,22,280,*76
$GPGSV,3,3,11,32,18,314,,18,16,249,,13,10,146,*46
$GPRMC,155107.000,A,4806.8669,N,00139.4114,W,1.89,75.49,090218,,,A*46
$GPGGA,155108.000,4806.8676,N,00139.4114,W,1,04,4.7,25.1,M,48.3,M,,0000*76
$GPGSA,M,3,12,19,17,25,,,,,,,,,5.5,4.7,2.8*3D
$GPRMC,155108.000,A,4806.8676,N,00139.4114,W,2.02,65.01,090218,,,A*4A
$GPGGA,155109.000,4806.8675,N,00139.4107,W,1,04,4.7,24.5,M,48.3,M,,0000*73
$GPGSA,M,3,12,19,17,25,,,,,,,,,5.5,4.7,2.8*3D
$GPRMC,155109.000,A,4806.8675,N,00139.4107,W,1.89,61.30,090218,,,A*4C
arfcn: 978 bsic: 19 rxLev: -85 ber: 0.01 mcc: 208 mnc: 20 lac: 418 cellId: 18480 cellStatus: CELL_SUITABLE numArfcn: 2 arfcn: 978 1023 numChannels: 24 array: 788 790 794 880 883 975 976 977 979 980 981 982 983 985 986 1011 1012 1014 1016 1017 1018 1019 1020 1021 pbcch: 0 nom: 2 rac: 6 spgc: 0 pat: 6 nco: 0 t3168: 1500 t3192: 500 drxmax: 4 ctrlAck: 1 bsCVmax: 8 alpha: 6 pcMeasCh: 1 
arfcn: 107 rxLev: -85
arfcn: 104 rxLev: -85
$GPGGA,155110.000,4806.8678,N,00139.4105,W,1,04,4.7,25.5,M,48.3,M,,0000*75
arfcn: 108 rxLev: -85
$GPGSA,M,3,12,19,17,25,,,,,,,,,5.5,4.7,2.8*3D
arfcn: 103 rxLev: -85
$GPRMC,155110.000,A,4806.8678,N,00139.4105,W,1.74,58.60,090218,,,A*46
$GPGGA,155111.000,4806.8690,N,00139.4111,W,1,04,4.7,27.0,M,48.3,M,,0000*70
$GPGSA,M,3,12,19,17,25,,,,,,,,,5.5,4.7,2.8*3D
$GPRMC,155111.000,A,4806.8690,N,00139.4111,W,1.83,53.66,090218,,,A*41
arfcn: 117 bsic: 12 rxLev: -85 ber: 0.00 mcc: 208 mnc: 10 lac: 49415 cellId: 3568 cellStatus: CELL_FORBIDDEN numArfcn: 2 arfcn: 82 117 numChannels: 17 array: 76 77 78 79 80 83 84 85 87 113 114 116 117 120 122 123 124 pbcch: 0 nom: 2 rac: 31 spgc: 0 pat: 6 nco: 0 t3168: 1000 t3192: 500 drxmax: 4 ctrlAck: 1 bsCVmax: 9 alpha: 10 pcMeasCh: 0 
$GPGGA,155112.000,4806.8687,N,00139.4105,W,1,04,4.7,27.7,M,48.3,M,,0000*77
$GPGSA,M,3,12,19,17,25,,,,,,,,,5.5,4.7,2.8*3D
$GPGSV,3,1,11,12,62,224,14,19,37,073,23,17,27,049,31,25,22,232,16*7B
$GPGSV,3,2,11,37,27,150,,24,82,044,,15,35,169,,10,22,280,*76
$GPGSV,3,3,11,32,18,314,,18,16,249,,13,10,146,*46
$GPRMC,155112.000,A,4806.8687,N,00139.4105,W,1.33,51.76,090218,,,A*49
$GPGGA,155113.000,4806.8694,N,00139.4113,W,1,04,4.7,28.5,M,48.3,M,,0000*7E
$GPGSA,M,3,12,19,17,25,,,,,,,,,5.5,4.7,2.8*3D
$GPRMC,155113.000,A,4806.8694,N,00139.4113,W,1.06,51.76,090218,,,A*4B
arfcn: 122 bsic: 3 rxLev: -85 ber: 0.00 mcc: 208 mnc: 10 lac: 49415 cellId: 33517 cellStatus: CELL_FORBIDDEN numArfcn: 3 arfcn: 77 88 122 numChannels: 17 array: 77 78 79 80 82 84 85 86 114 115 117 118 119 120 122 123 124 pbcch: 0 nom: 2 rac: 31 spgc: 0 pat: 6 nco: 0 t3168: 1000 t3192: 500 drxmax: 4 ctrlAck: 1 bsCVmax: 9 alpha: 10 pcMeasCh: 0 
arfcn: 68 rxLev: -85
$GPGGA,155114.000,4806.8701,N,00139.4120,W,1,04,4.7,29.8,M,48.3,M,,0000*78
arfcn: 81 rxLev: -85
$GPGSA,M,3,12,19,17,25,,,,,,,,,5.5,4.7,2.8*3D
arfcn: 63 rxLev: -85
$GPRMC,155114.000,A,4806.8701,N,00139.4120,W,0.68,51.76,090218,,,A*48
$GPGGA,155115.000,4806.8711,N,00139.4131,W,1,04,4.7,31.2,M,48.3,M,,0000*7B
$GPGSA,M,3,12,19,17,25,,,,,,,,,5.5,4.7,2.8*3D
$GPRMC,155115.000,A,4806.8711,N,00139.4131,W,0.84,51.76,090218,,,A*4A
arfcn: 1 bsic: 44 rxLev: -85 ber: 2.08 mcc: 208 mnc: 01 lac: 10300 cellId: 6468 cellStatus: CELL_FORBIDDEN numArfcn: 13 arfcn: 1 17 18 19 20 21 22 23 24 25 47 48 49 numChannels: 24 array: 2 4 5 6 7 8 9 10 11 12 15 512 513 514 515 516 517 518 605 606 607 608 609 610 pbcch: 0 nom: 2 rac: 1 spgc: 0 pat: 6 nco: 0 t3168: 1000 t3192: 500 drxmax: 2 ctrlAck: 0 bsCVmax: 9 alpha: 5 pcMeasCh: 1 
arfcn: 79 rxLev: -85
$GPGGA,155116.000,4806.8713,N,00139.4132,W,0,00,,31.7,M,48.3,M,,0000*54
$GPGSA,M,1,,,,,,,,,,,,,,,*12
$GPRMC,155116.000,V,4806.8713,N,00139.4132,W,,,090218,,,N*69
$GPGGA,155117.000,4806.8715,N,00139.4133,W,0,00,,32.2,M,48.3,M,,0000*54
$GPGSA,M,1,,,,,,,,,,,,,,,*12
arfcn: 512 bsic: 25 rxLev: -85 ber: 0.00 mcc: 208 mnc: 01 lac: 10300 cellId: 40155 cellStatus: CELL_FORBIDDEN numArfcn: 16 arfcn: 519 520 521 522 523 524 525 526 596 597 598 599 600 601 602 603 numChannels: 16 array: 2 3 5 8 10 11 12 15 16 517 518 604 605 606 609 610 pbcch: 0 nom: 2 rac: 1 spgc: 0 pat: 6 nco: 0 t3168: 1000 t3192: 500 drxmax: 2 ctrlAck: 0 bsCVmax: 9 alpha: 5 pcMeasCh: 1 
$GPGSV,3,1,11,12,62,224,07,17,27,049,31,19,37,073,23,25,22,232,16*79
$GPGSV,3,2,11,39,31,144,,24,82,044,,15,35,169,,10,22,280,*7A
$GPGSV,3,3,11,32,18,314,,18,16,249,,13,10,146,*46
$GPRMC,155117.000,V,4806.8715,N,00139.4133,W,,,090218,,,N*6F
$GPGGA,155118.052,4806.8718,N,00139.4133,W,0,00,,32.7,M,48.3,M,,0000*54
$GPGSA,M,1,,,,,,,,,,,,,,,*12
$GPRMC,155118.052,V,4806.8718,N,00139.4133,W,,,090218,,,N*6A
$GPGGA,155119.052,4806.8720,N,00139.4134,W,0,00,,33.2,M,48.3,M,,0000*5D
$GPGSA,M,1,,,,,,,,,,,,,,,*12
$GPRMC,155119.052,V,4806.8720,N,00139.4134,W,,,090218,,,N*67
$GPGGA,155120.052,4806.8722,N,00139.4134,W,0,00,,33.7,M,48.3,M,,0000*50
$GPGSA,M,1,,,,,,,,,,,,,,,*12
arfcn: 1020 bsic: 39 rxLev: -86 ber: 0.00 mcc: 208 mnc: 20 lac: 418 cellId: 38980 cellStatus: CELL_SUITABLE numArfcn: 1 arfcn: 1020 numChannels: 26 array: 787 788 790 791 793 795 796 879 884 885 978 979 981 982 983 985 986 987 1011 1012 1013 1014 1015 1017 1019 1022 pbcch: 0 nom: 2 rac: 6 spgc: 0 pat: 6 nco: 0 t3168: 1500 t3192: 500 drxmax: 0 ctrlAck: 0 bsCVmax: 8 alpha: 6 pcMeasCh: 1 
$GPRMC,155120.052,V,4806.8722,N,00139.4134,W,,,090218,,,N*6F
$GPGGA,155121.052,4806.8725,N,00139.4135,W,0,00,,34.2,M,48.3,M,,0000*55
$GPGSA,M,1,,,,,,,,,,,,,,,*12
$GPRMC,155121.052,V,4806.8725,N,00139.4135,W,,,090218,,,N*68
$GPGGA,155122.051,4806.8727,N,00139.4136,W,0,00,,34.7,M,48.3,M,,0000*51
$GPGSA,M,1,,,,,,,,,,,,,,,*12
$GPGSV,3,1,11,12,62,224,04,17,27,049,31,19,37,073,23,25,22,232,16*7A
arfcn: 76 bsic: 5 rxLev: -86 ber: 0.03 mcc: 208 mnc: 10 lac: 49415 cellId: 44813 cellStatus: CELL_FORBIDDEN numArfcn: 2 arfcn: 76 121 numChannels: 16 array: 76 77 78 79 80 82 84 85 86 113 114 117 118 121 123 124 pbcch: 0 nom: 2 rac: 31 spgc: 0 pat: 6 nco: 0 t3168: 1000 t3192: 500 drxmax: 4 ctrlAck: 1 bsCVmax: 9 alpha: 10 pcMeasCh: 0 
arfcn: 69 rxLev: -86
$GPGSV,3,2,11,39,31,144,,24,82,044,,15,35,169,,10,22,280,*7A
arfcn: 86 rxLev: -86
arfcn: 89 rxLev: -86
$GPGSV,3,3,11,32,18,314,,18,16,249,,13,10,146,*46
arfcn: 91 rxLev: -86
$GPRMC,155122.051,V,4806.8727,N,00139.4136,W,,,090218,,,N*69
$GPGGA,155123.052,4806.8729,N,00139.4136,W,0,00,,35.2,M,48.3,M,,0000*59
$GPGSA,M,1,,,,,,,,,,,,,,,*12
$GPRMC,155123.052,V,4806.8729,N,00139.4136,W,,,090218,,,N*65
$GPGGA,155124.052,4806.8731,N,00139.4137,W,0,00,,35.7,M,48.3,M,,0000*53
$GPGSA,M,1,,,,,,,,,,,,,,,*12
$GPRMC,155124.052,V,4806.8731,N,00139.4137,W,,,090218,,,N*6A
arfcn: 120 bsic: 59 rxLev: -86 ber: 0.00 mcc: 208 mnc: 10 lac: 49415 cellId: 13571 cellStatus: CELL_FORBIDDEN numArfcn: 2 arfcn: 111 120 numChannels: 14 array: 76 77 79 80 83 84 85 114 115 116 117 120 122 124 pbcch: 0 nom: 2 rac: 31 spgc: 0 pat: 6 nco: 0 t3168: 1000 t3192: 500 drxmax: 4 ctrlAck: 1 bsCVmax: 9 alpha: 10 pcMeasCh: 0 
arfcn: 62 rxLev: -86
arfcn: 46 rxLev: -86
arfcn: 109 rxLev: -87
$GPGGA,155125.052,4806.8734,N,00139.4138,W,0,00,,36.2,M,48.3,M,,0000*5E
arfcn: 84 rxLev: -87
$GPGSA,M,1,,,,,,,,,,,,,,,*12
$GPRMC,155125.052,V,4806.8734,N,00139.4138,W,,,090218,,,N*61
$GPGGA,155126.052,4806.8736,N,00139.4138,W,0,00,,36.7,M,48.3,M,,0000*5A
$GPGSA,M,1,,,,,,,,,,,,,,,*12
$GPRMC,155126.052,V,4806.8736,N,00139.4138,W,,,090218,,,N*60
$GPGGA,155127.052,4806.8738,N,00139.4139,W,0,00,,37.2,M,48.3,M,,0000*50
$GPGSA,M,1,,,,,,,,,,,,,,,*12
$GPGSV,3,1,11,12,62,224,04,15,35,169,15,17,27,049,30,19,37,073,23*70
$GPGSV,3,2,11,25,22,232,16,39,31,144,,24,82,044,,10,22,280,*75
arfcn: 1014 bsic: 31 rxLev: -87 ber: 0.01 mcc: 208 mnc: 20 lac: 418 cellId: 20649 cellStatus: CELL_SUITABLE numArfcn: 1 arfcn: 1014 numChannels: 25 array: 788 789 790 791 793 795 796 879 884 977 978 979 980 981 982 983 984 985 987 1012 1013 1017 1020 1021 1022 pbcch: 0 nom: 2 rac: 6 spgc: 0 pat: 6 nco: 0 t3168: 1500 t3192: 500 drxmax: 0 ctrlAck: 0 bsCVmax: 8 alpha: 6 pcMeasCh: 1 
arfcn: 606 rxLev: -87
$GPGSV,3,3,11,32,18,314,,18,16,249,,13,10,146,*46
arfcn: 123 rxLev: -88
arfcn: 57 rxLev: -88
$GPRMC,155127.052,V,4806.8738,N,00139.4139,W,,,090218,,,N*6E
arfcn: 53 rxLev: -88
$GPGGA,155128.052,4806.8741,N,00139.4140,W,0,00,,37.7,M,48.3,M,,0000*5A
$GPGSA,M,1,,,,,,,,,,,,,,,*12
$GPRMC,155128.052,V,4806.8741,N,00139.4140,W,,,090218,,,N*61
$GPGGA,155129.052,4806.8743,N,00139.4140,W,0,00,,38.2,M,48.3,M,,0000*53
$GPGSA,M,1,,,,,,,,,,,,,,,*12
$GPRMC,155129.052,V,4806.8743,N,00139.4140,W,,,090218,,,N*62
$GPGGA,155130.052,,,,,0,04,1.9,,M,0.0,M,,0000*70
$GPGSA,M,1,,,,,,,,,,,,,,,*12
$GPRMC,155130.052,V,,,,,,,090218,,,N*4B
arfcn: 4 bsic: 54 rxLev: -88 ber: 0.02 mcc: 208 mnc: 01 lac: 10300 cellId: 43768 cellStatus: CELL_FORBIDDEN numArfcn: 13 arfcn: 4 17 18 19 20 21 22 23 24 25 47 48 49 numChannels: 20 array: 1 3 5 6 7 8 12 13 14 513 514 515 517 518 601 605 606 608 609 610 pbcch: 0 nom: 2 rac: 1 spgc: 0 pat: 6 nco: 0 t3168: 1000 t3192: 500 drxmax: 2 ctrlAck: 0 bsCVmax: 9 alpha: 5 pcMeasCh: 1 
arfcn: 58 rxLev: -88
arfcn: 59 rxLev: -88
$GPGGA,155131.052,,,,,0,04,1.9,,M,0.0,M,,0000*71
arfcn: 60 rxLev: -88
$GPGSA,M,1,,,,,,,,,,,,,,,*12
arfcn: 61 rxLev: -88
$GPRMC,155131.052,V,,,,,,,090218,,,N*4A
$GPGGA,155132.000,,,,,0,04,1.9,,M,0.0,M,,0000*75
$GPGSA,M,1,,,,,,,,,,,,,,,*12
$GPGSV,3,1,11,19,37,073,22,15,35,169,15,17,27,049,30,25,22,232,16*75
$GPGSV,3,2,11,39,31,144,,24,82,044,,12,62,224,,10,22,280,*75
$GPGSV,3,3,11,32,18,314,,18,16,249,,13,10,146,*46
$GPRMC,155132.000,V,,,,,,,090218,,,N*4E
$GPGGA,155133.000,,,,,0,04,1.9,,M,0.0,M,,0000*74
$GPGSA,M,1,,,,,,,,,,,,,,,*12
$GPRMC,155133.000,V,,,,,,,090218,,,N*4F
arfcn: 604 bsic: 20 rxLev: -88 ber: 0.01 mcc: 208 mnc: 01 lac: 10300 cellId: 39915 cellStatus: CELL_FORBIDDEN numArfcn: 16 arfcn: 519 520 521 522 523 524 525 526 596 597 598 599 600 601 602 603 numChannels: 13 array: 5 6 10 15 16 512 514 516 517 518 608 609 610 pbcch: 0 nom: 2 rac: 1 spgc: 0 pat: 6 nco: 0 t3168: 1000 t3192: 500 drxmax: 2 ctrlAck: 0 bsCVmax: 9 alpha: 5 pcMeasCh: 1 
arfcn: 56 rxLev: -89
arfcn: 54 rxLev: -89
arfcn: 90 rxLev: -89
$GPGGA,155134.000,,,,,0,04,1.9,,M,0.0,M,,0000*73
$GPGSA,M,1,,,,,,,,,,,,,,,*12
$GPRMC,155134.000,V,,,,,,,090218,,,N*48
$GPGGA,155135.000,4806.8694,N,00139.4139,W,1,04,1.9,3.8,M,48.3,M,,0000*4D
$GPGSA,M,3,19,15,17,25,,,,,,,,,3.6,1.9,3.1*3C
$GPRMC,155135.000,A,4806.8694,N,00139.4139,W,1.70,11.78,090218,,,A*4C
$GPGGA,155136.000,4806.8695,N,00139.4148,W,1,04,1.9,3.2,M,48.3,M,,0000*43
$GPGSA,M,3,19,15,17,25,,,,,,,,,3.6,1.9,3.1*3C
$GPRMC,155136.000,A,4806.8695,N,00139.4148,W,1.63,6.56,090218,,,A*70
$GPGGA,155137.000,4806.8698,N,00139.4154,W,1,04,1.9,2.8,M,48.3,M,,0000*49
$GPGSA,M,3,19,15,17,25,,,,,,,,,3.6,1.9,3.1*3C
$GPGSV,3,1,11,19,37,073,22,15,35,169,14,17,27,049,30,25,22,232,16*74
$GPGSV,3,2,11,39,31,144,,24,82,044,,12,62,224,,10,22,280,*75
$GPGSV,3,3,11,32,18,314,,18,16,249,,13,10,146,*46
$GPRMC,155137.000,A,4806.8698,N,00139.4154,W,1.49,4.25,090218,,,A*7F
$GPGGA,155138.000,4806.8701,N,00139.4158,W,1,04,1.9,2.4,M,48.3,M,,0000*47
$GPGSA,M,3,19,15,17,25,,,,,,,,,3.6,1.9,3.1*3C
$GPRMC,155138.000,A,4806.8701,N,00139.4158,W,1.51,2.80,090218,,,A*7D
arfcn: 3 bsic: 0 rxLev: -89 ber: 2.09 mcc: 208 mnc: 01 lac: 10300 cellId: 2686 cellStatus: CELL_FORBIDDEN numArfcn: 13 arfcn: 3 17 18 19 20 21 22 23 24 25 47 48 49 numChannels: 13 array: 1 5 6 7 10 12 14 512 515 517 604 606 608 pbcch: 0 nom: 2 rac: 1 spgc: 0 pat: 6 nco: 0 t3168: 1000 t3192: 500 drxmax: 2 ctrlAck: 0 bsCVmax: 9 alpha: 5 pcMeasCh: 1 
arfcn: 52 rxLev: -90
arfcn: 70 rxLev: -90
$GPGGA,155139.000,4806.8700,N,00139.4159,W,1,04,1.9,2.0,M,48.3,M,,0000*42
$GPGSA,M,3,19,15,17,25,,,,,,,,,3.6,1.9,3.1*3C
$GPRMC,155139.000,A,4806.8700,N,00139.4159,W,1.39,3.23,090218,,,A*7A
$GPGGA,155140.000,4806.8688,N,00139.4148,W,1,04,1.9,1.7,M,48.3,M,,0000*49
$GPGSA,M,3,19,15,17,25,,,,,,,,,3.6,1.9,3.1*3C
$GPRMC,155140.000,A,4806.8688,N,00139.4148,W,0.90,3.23,090218,,,A*77
$GPGGA,155141.000,4806.8689,N,00139.4145,W,0,00,,1.3,M,48.3,M,,0000*63
$GPGSA,M,1,,,,,,,,,,,,,,,*12
$GPRMC,155141.000,V,4806.8689,N,00139.4145,W,,,090218,,,N*69
arfcn: 983 bsic: 21 rxLev: -90 ber: 3.07 mcc: 208 mnc: 20 lac: 418 cellId: 21809 cellStatus: CELL_SUITABLE numArfcn: 1 arfcn: 983 numChannels: 24 array: 788 790 792 793 795 796 878 882 884 976 977 979 981 985 986 987 1012 1013 1014 1016 1017 1019 1020 1022 pbcch: 0 nom: 2 rac: 6 spgc: 0 pat: 6 nco: 0 t3168: 1500 t3192: 500 drxmax: 0 ctrlAck: 0 bsCVmax: 8 alpha: 6 pcMeasCh: 1 
$GPGGA,155142.000,4806.8691,N,00139.4142,W,0,00,,0.9,M,48.3,M,,0000*65
$GPGSA,M,1,,,,,,,,,,,,,,,*12
$GPGSV,3,1,11,13,10,146,15,15,35,169,07,17,27,049,30,19,37,073,22*71
$GPGSV,3,2,11,25,22,232,15,39,31,144,,24,82,044,,12,62,224,*7E
$GPGSV,3,3,11,10,22,280,,32,18,314,,18,16,249,*4D
$GPRMC,155142.000,V,4806.8691,N,00139.4142,W,,,090218,,,N*64
$GPGGA,155143.052,4806.8692,N,00139.4139,W,0,00,,0.6,M,48.3,M,,0000*63
$GPGSA,M,1,,,,,,,,,,,,,,,*12
$GPRMC,155143.052,V,4806.8692,N,00139.4139,W,,,090218,,,N*6D
$GPGGA,155144.051,4806.8694,N,00139.4136,W,0,00,,0.2,M,48.3,M,,0000*6A
$GPGSA,M,1,,,,,,,,,,,,,,,*12
$GPRMC,155144.051,V,4806.8694,N,00139.4136,W,,,090218,,,N*60
arfcn: 1016 bsic: 41 rxLev: -90 ber: 2.02 mcc: 208 mnc: 20 lac: 418 cellId: 23623 cellStatus: CELL_SUITABLE numArfcn: 1 arfcn: 1016 numChannels: 28 array: 787 788 791 792 793 794 795 879 880 883 884 975 977 978 979 981 982 983 986 987 1011 1012 1017 1018 1019 1020 1021 1022 pbcch: 0 nom: 2 rac: 6 spgc: 0 pat: 6 nco: 0 t3168: 1500 t3192: 500 drxmax: 4 ctrlAck: 1 bsCVmax: 8 alpha: 6 pcMeasCh: 1 
arfcn: 55 rxLev: -90
arfcn: 9 rxLev: -90
arfcn: 25 rxLev: -91
arfcn: 744 rxLev: -91
arfcn: 751 rxLev: -91
arfcn: 724 rxLev: -91
$GPGGA,155145.052,4806.8698,N,00139.4150,W,1,04,2.1,-0.1,M,48.3,M,,0000*62
arfcn: 730 rxLev: -91
$GPGSA,M,3,19,17,25,13,,,,,,,,,6.0,2.1,5.6*33
arfcn: 718 rxLev: -91
$GPRMC,155145.052,A,4806.8698,N,00139.4150,W,0.27,3.23,090218,,,A*71
arfcn: 719 rxLev: -91
arfcn: 110 rxLev: -91
$GPGGA,155146.052,4806.8703,N,00139.4174,W,1,04,2.1,-0.9,M,48.3,M,,0000*6C
$GPGSA,M,3,19,17,25,13,,,,,,,,,6.0,2.1,5.6*33
$GPRMC,155146.052,A,4806.8703,N,00139.4174,W,0.68,3.23,090218,,,A*7C
$GPGGA,155147.000,4806.8697,N,00139.4180,W,1,04,2.1,-1.7,M,48.3,M,,0000*62
$GPGSA,M,3,19,17,25,13,,,,,,,,,6.0,2.1,5.6*33
$GPGSV,3,1,11,19,37,071,22,17,27,048,30,25,23,233,15,13,09,147,14*71
$GPGSV,3,2,11,15,33,169,06,33,33,198,,24,82,054,,12,64,225,*7D
$GPGSV,3,3,11,10,22,279,,32,19,314,,18,16,248,*4B
$GPRMC,155147.000,A,4806.8697,N,00139.4180,W,1.35,324.95,090218,,,A*7F
$GPGGA,155148.000,4806.8697,N,00139.4195,W,1,04,2.1,-1.6,M,48.3,M,,0000*68
$GPGSA,M,3,19,17,25,13,,,,,,,,,6.0,2.1,5.6*33
$GPRMC,155148.000,A,4806.8697,N,00139.4195,W,1.85,274.89,090218,,,A*76
$GPGGA,155149.000,4806.8695,N,00139.4209,W,1,04,2.1,-1.4,M,48.3,M,,0000*6F
$GPGSA,M,3,19,17,25,13,,,,,,,,,6.0,2.1,5.6*33
$GPRMC,155149.000,A,4806.8695,N,00139.4209,W,1.99,254.25,090218,,,A*7A
arfcn: 1021 bsic: 35 rxLev: -91 ber: 3.05 mcc: 208 mnc: 20 lac: 418 cellId: 20102 cellStatus: CELL_SUITABLE numArfcn: 3 arfcn: 975 982 1021 numChannels: 21 array: 788 790 880 885 975 976 977 978 980 981 982 986 987 1011 1012 1015 1017 1019 1020 1021 1022 pbcch: 0 nom: 2 rac: 7 spgc: 0 pat: 6 nco: 0 t3168: 1500 t3192: 500 drxmax: 4 ctrlAck: 1 bsCVmax: 8 alpha: 6 pcMeasCh: 1 
arfcn: 112 rxLev: -92
arfcn: 717 rxLev: -92
arfcn: 735 rxLev: -92
arfcn: 736 rxLev: -92
arfcn: 723 rxLev: -92
arfcn: 725 rxLev: -92
arfcn: 752 rxLev: -92
$GPGGA,155150.000,4806.8691,N,00139.4223,W,1,05,1.4,-1.7,M,48.3,M,,0000*6F
arfcn: 749 rxLev: -92
$GPGSA,M,3,19,15,17,25,13,,,,,,,,3.6,1.4,3.3*31
arfcn: 745 rxLev: -92
arfcn: 746 rxLev: -92
$GPRMC,155150.000,A,4806.8691,N,00139.4223,W,1.91,248.31,090218,,,A*7E
arfcn: 743 rxLev: -92
arfcn: 741 rxLev: -92
arfcn: 742 rxLev: -92
arfcn: 739 rxLev: -92
arfcn: 740 rxLev: -92
arfcn: 737 rxLev: -92
arfcn: 738 rxLev: -92
arfcn: 747 rxLev: -92
$GPGGA,155151.000,4806.8685,N,00139.4230,W,1,04,1.9,-1.7,M,48.3,M,,0000*65
arfcn: 748 rxLev: -92
arfcn: 726 rxLev: -92
$GPGSA,M,3,19,15,17,25,,,,,,,,,3.6,1.9,3.1*3C
arfcn: 727 rxLev: -92
arfcn: 721 rxLev: -92
$GPRMC,155151.000,A,4806.8685,N,00139.4230,W,1.56,245.85,090218,,,A*71
arfcn: 722 rxLev: -92
arfcn: 734 rxLev: -92
arfcn: 720 rxLev: -92
arfcn: 715 rxLev: -92
arfcn: 716 rxLev: -92
arfcn: 753 rxLev: -92
$GPGGA,155152.000,4806.8679,N,00139.4241,W,1,05,1.4,-1.0,M,48.3,M,,0000*68
arfcn: 758 rxLev: -92
$GPGSA,M,3,19,15,17,25,13,,,,,,,,3.6,1.4,3.3*31
$GPGSV,3,1,11,19,37,071,22,15,33,169,12,17,27,048,29,25,23,233,08*70
$GPGSV,3,2,11,13,09,147,09,33,33,198,,24,82,054,,12,64,225,*71
$GPGSV,3,3,11,10,22,279,,32,19,314,,18,16,248,*4B
$GPRMC,155152.000,A,4806.8679,N,00139.4241,W,1.47,245.88,090218,,,A*7A
$GPGGA,155153.000,4806.8677,N,00139.4249,W,1,04,4.6,-0.4,M,48.3,M,,0000*6C
$GPGSA,M,3,19,15,17,13,,,,,,,,,6.2,4.6,4.2*36
$GPRMC,155153.000,A,4806.8677,N,00139.4249,W,1.37,248.12,090218,,,A*74
arfcn: 82 bsic: 63 rxLev: -92 ber: 3.05 mcc: 208 mnc: 10 lac: 49415 cellId: 53517 cellStatus: CELL_FORBIDDEN numArfcn: 2 arfcn: 82 84 numChannels: 17 array: 76 77 78 79 80 82 85 86 114 115 118 119 120 121 122 123 124 pbcch: 0 nom: 2 rac: 31 spgc: 0 pat: 6 nco: 0 t3168: 1000 t3192: 500 drxmax: 4 ctrlAck: 1 bsCVmax: 9 alpha: 10 pcMeasCh: 0 
arfcn: 1012 rxLev: -92
$GPGGA,155154.000,4806.8671,N,00139.4251,W,1,04,4.6,0.3,M,48.3,M,,0000*4E
$GPGSA,M,3,19,15,17,13,,,,,,,,,6.2,4.6,4.2*36
$GPRMC,155154.000,A,4806.8671,N,00139.4251,W,1.32,251.98,090218,,,A*73
$GPGGA,155155.000,4806.8669,N,00139.4257,W,1,04,4.6,0.2,M,48.3,M,,0000*41
$GPGSA,M,3,19,15,17,13,,,,,,,,,6.2,4.6,4.2*36
$GPRMC,155155.000,A,4806.8669,N,00139.4257,W,1.52,258.27,090218,,,A*76
arfcn: 115 bsic: 43 rxLev: -93 ber: 0.00 mcc: 208 mnc: 10 lac: 49415 cellId: 55710 cellStatus: CELL_FORBIDDEN numArfcn: 2 arfcn: 87 115 numChannels: 22 array: 76 77 78 79 80 82 83 84 85 86 113 114 115 116 117 118 119 120 121 122 123 124 pbcch: 0 nom: 2 rac: 31 spgc: 0 pat: 6 nco: 0 t3168: 1000 t3192: 500 drxmax: 4 ctrlAck: 1 bsCVmax: 9 alpha: 10 pcMeasCh: 0 
arfcn: 6 rxLev: -93
arfcn: 754 rxLev: -93
arfcn: 729 rxLev: -93
arfcn: 731 rxLev: -93
arfcn: 732 rxLev: -93
arfcn: 733 rxLev: -93
$GPGGA,155156.000,4806.8665,N,00139.4268,W,1,04,4.6,1.9,M,48.3,M,,0000*48
arfcn: 728 rxLev: -93
$GPGSA,M,3,19,15,17,13,,,,,,,,,6.2,4.6,4.2*36
arfcn: 760 rxLev: -93
arfcn: 763 rxLev: -93
$GPRMC,155156.000,A,4806.8665,N,00139.4268,W,1.86,263.89,090218,,,A*70
arfcn: 776 rxLev: -93
arfcn: 7 rxLev: -93
arfcn: 2 rxLev: -93
arfcn: 15 rxLev: -93
arfcn: 71 rxLev: -93
arfcn: 47 rxLev: -94
arfcn: 772 rxLev: -94
arfcn: 778 rxLev: -94
