$GPGSA,M,1,,,,,,,,,,,,,,,*12
$GPRMC,030606.859,V,,,,,,,060218,,,N*47
Survey start at #CCLK: "18/02/06,04:06:08+04"
at#csurv
Network survey started ...
Survey end at #CCLK: "18/02/06,04:06:08+04"
Survey duration: 0 seconds, 0 bases detected over 0 freqs scanned.
$GPGGA,030607.859,,,,,0,00,,,M,0.0,M,,0000*50
$GPGSA,M,1,,,,,,,,,,,,,,,*12
$GPRMC,030607.859,V,,,,,,,060218,,,N*46
$GPGGA,030608.859,,,,,0,00,,,M,0.0,M,,0000*5F
$GPGSA,M,1,,,,,,,,,,,,,,,*12
$GPGSV,3,1,10,08,61,159,17,14,29,107,29,27,23,142,17,11,67,292,*70
$GPGSV,3,2,10,01,57,286,,22,49,212,,32,33,080,,28,32,298,*7B
$GPGSV,3,3,10,03,28,216,,10,20,049,*7A
$GPRMC,030608.859,V,,,,,,,060218,,,N*49
$GPGGA,030609.859,,,,,0,00,,,M,0.0,M,,0000*5E
$GPGSA,M,1,,,,,,,,,,,,,,,*12
Survey start at #CCLK: "18/02/06,04:06:10+04"
$GPRMC,030609.859,V,,,,,,,060218,,,N*48
at#csurv
Network survey started ...
$GPGGA,030610.859,,,,,0,00,,,M,0.0,M,,0000*56
$GPGSA,M,1,,,,,,,,,,,,,,,*12
$GPRMC,030610.859,V,,,,,,,060218,,,N*40
$GPGGA,030611.859,,,,,0,00,,,M,0.0,M,,0000*57
$GPGSA,M,1,,,,,,,,,,,,,,,*12
$GPRMC,030611.859,V,,,,,,,060218,,,N*41
$GPGGA,030612.859,,,,,0,00,,,M,0.0,M,,0000*54
$GPGSA,M,1,,,,,,,,,,,,,,,*12
$GPRMC,030612.859,V,,,,,,,060218,,,N*42
$GPGGA,030613.859,,,,,0,00,,,M,0.0,M,,0000*55
$GPGSA,M,1,,,,,,,,,,,,,,,*12
$GPGSV,3,1,10,08,61,159,19,14,29,107,29,27,23,142,16,11,67,292,*7F
$GPGSV,3,2,10,01,57,286,,22,49,212,,32,33,080,,28,32,298,*7B
$GPGSV,3,3,10,03,28,216,,10,20,049,*7A
$GPRMC,030613.859,V,,,,,,,060218,,,N*43
$GPGGA,030614.859,,,,,0,00,,,M,0.0,M,,0000*52
$GPGSA,M,1,,,,,,,,,,,,,,,*12
$GPRMC,030614.859,V,,,,,,,060218,,,N*44
$GPGGA,030615.259,,,,,0,04,2.7,,M,0.0,M,,0000*76
$GPGSA,M,1,,,,,,,,,,,,,,,*12
$GPRMC,030615.259,V,,,,,,,060218,,,N*4F
$GPGGA,030615.859,,,,,0,04,2.7,,M,0.0,M,,0000*7C
$GPGSA,M,1,,,,,,,,,,,,,,,*12
$GPRMC,030615.859,V,,,,,,,060218,,,N*45
$GPGGA,030616.364,,,,,0,04,2.7,,M,0.0,M,,0000*7A
$GPGSA,M,1,,,,,,,,,,,,,,,*12
$GPRMC,030616.364,V,,,,,,,060218,,,N*43
$GPGGA,030617.000,,,,,0,04,2.7,,M,0.0,M,,0000*7A
$GPGSA,M,1,,,,,,,,,,,,,,,*12
$GPGSV,3,1,11,08,61,159,20,01,57,286,12,14,30,107,29,27,22,142,16*79
$GPGSV,3,2,11,33,33,198,,11,68,292,,22,50,212,,32,33,080,*72
$GPGSV,3,3,11,28,32,297,,03,28,216,,10,20,049,*4C
$GPRMC,030617.000,V,,,,,,,060218,,,N*43
$GPGGA,030618.000,,,,,0,04,2.7,,M,0.0,M,,0000*75
$GPGSA,M,1,,,,,,,,,,,,,,,*12
$GPRMC,030618.000,V,,,,,,,060218,,,N*4C
$GPGGA,030619.000,4806.8413,N,00139.4087,W,1,04,2.7,149.2,M,48.3,M,,0000*47
$GPGSA,M,3,08,01,14,27,,,,,,,,,3.6,2.7,2.4*31
$GPRMC,030619.000,A,4806.8413,N,00139.4087,W,2.71,5.43,060218,,,A*7E
$GPGGA,030620.000,4806.8409,N,00139.4098,W,1,04,2.7,149.2,M,48.3,M,,0000*48
$GPGSA,M,3,08,01,14,27,,,,,,,,,3.6,2.7,2.4*31
$GPRMC,030620.000,A,4806.8409,N,00139.4098,W,2.98,0.94,060218,,,A*79
$GPGGA,030621.000,4806.8404,N,00139.4104,W,1,04,2.7,149.5,M,48.3,M,,0000*47
$GPGSA,M,3,08,01,14,27,,,,,,,,,3.6,2.7,2.4*31
$GPRMC,030621.000,A,4806.8404,N,00139.4104,W,2.89,356.91,060218,,,A*74
$GPGGA,030622.000,4806.8406,N,00139.4108,W,1,04,2.7,149.5,M,48.3,M,,0000*4A
$GPGSA,M,3,08,01,14,27,,,,,,,,,3.6,2.7,2.4*31
$GPGSV,3,1,11,08,61,159,21,01,57,286,12,14,30,107,29,27,22,142,15*7B
$GPGSV,3,2,11,32,33,080,15,33,33,198,,11,68,292,,22,50,212,*76
$GPGSV,3,3,11,28,32,297,,03,28,216,,10,20,049,*4C
$GPRMC,030622.000,A,4806.8406,N,00139.4108,W,3.03,356.20,060218,,,A*70
$GPGGA,030623.000,4806.8401,N,00139.4110,W,1,04,2.7,149.7,M,48.3,M,,0000*47
$GPGSA,M,3,08,01,14,27,,,,,,,,,3.6,2.7,2.4*31
$GPRMC,030623.000,A,4806.8401,N,00139.4110,W,3.02,356.15,060218,,,A*78
$GPGGA,030624.000,4806.8398,N,00139.4114,W,1,04,2.7,149.8,M,48.3,M,,0000*4C
$GPGSA,M,3,08,01,14,27,,,,,,,,,3.6,2.7,2.4*31
$GPRMC,030624.000,A,4806.8398,N,00139.4114,W,2.94,356.36,060218,,,A*73
$GPGGA,030625.000,4806.8406,N,00139.4105,W,1,05,1.8,149.9,M,48.3,M,,0000*41
$GPGSA,M,3,08,01,32,14,27,,,,,,,,3.0,1.8,2.4*3A
$GPRMC,030625.000,A,4806.8406,N,00139.4105,W,2.56,359.46,060218,,,A*74
$GPGGA,030626.000,4806.8413,N,00139.4103,W,1,05,1.8,150.0,M,48.3,M,,0000*41
$GPGSA,M,3,08,01,32,14,27,,,,,,,,3.0,1.8,2.4*3A
$GPRMC,030626.000,A,4806.8413,N,00139.4103,W,2.37,358.88,060218,,,A*71
$GPGGA,030627.000,4806.8416,N,00139.4103,W,1,05,1.8,150.0,M,48.3,M,,0000*45
$GPGSA,M,3,08,01,32,14,27,,,,,,,,3.0,1.8,2.4*3A
$GPGSV,3,1,11,08,61,159,22,01,57,286,16,32,33,080,16,14,30,107,29*74
$GPGSV,3,2,11,27,22,142,13,33,33,198,,11,68,292,,22,50,212,*7B
$GPGSV,3,3,11,28,32,297,,03,28,216,,10,20,049,*4C
$GPRMC,030627.000,A,4806.8416,N,00139.4103,W,2.30,359.33,060218,,,A*73
arfcn: 981 bsic: 46 rxLev: -53 ber: 0.00 mcc: 208 mnc: 20 lac: 418 cellId: 21807 cellStatus: CELL_SUITABLE numArfcn: 1 arfcn: 981 numChannels: 9 array: 979 982 983 985 1012 1014 1017 1019 1020 pbcch: 0 nom: 2 rac: 6 spgc: 0 pat: 6 nco: 0 t3168: 1500 t3192: 500 drxmax: 0 ctrlAck: 0 bsCVmax: 8 alpha: 6 pcMeasCh: 1 
arfcn: 985 bsic: 44 rxLev: -55 ber: 0.00 mcc: 208 mnc: 20 lac: 418 cellId: 21808 cellStatus: CELL_SUITABLE numArfcn: 1 arfcn: 985 numChannels: 25 array: 975 977 978 979 980 981 982 983 1011 1012 1014 1015 1017 1019 1020 1021 1022 787 788 790 793 795 796 879 884 pbcch: 0 nom: 2 rac: 6 spgc: 0 pat: 6 nco: 0 t3168: 1500 t3192: 500 drxmax: 0 ctrlAck: 0 bsCVmax: 8 alpha: 6 pcMeasCh: 1 
arfcn: 991 rxLev: -62
arfcn: 992 rxLev: -62
$GPGGA,030628.000,4806.8417,N,00139.4104,W,1,05,1.8,150.1,M,48.3,M,,0000*4D
arfcn: 1001 rxLev: -62
$GPGSA,M,3,08,01,32,14,27,,,,,,,,3.0,1.8,2.4*3A
arfcn: 1002 rxLev: -62
$GPRMC,030628.000,A,4806.8417,N,00139.4104,W,2.00,358.89,060218,,,A*79
arfcn: 1004 rxLev: -62
arfcn: 1005 rxLev: -62
arfcn: 994 rxLev: -62
arfcn: 995 rxLev: -62
arfcn: 997 rxLev: -62
arfcn: 998 rxLev: -62
arfcn: 990 rxLev: -62
arfcn: 996 rxLev: -63
arfcn: 993 rxLev: -63
$GPGGA,030629.000,4806.8420,N,00139.4107,W,1,05,1.8,150.5,M,48.3,M,,0000*4F
arfcn: 1003 rxLev: -63
$GPGSA,M,3,08,01,32,14,27,,,,,,,,3.0,1.8,2.4*3A
arfcn: 999 rxLev: -63
$GPRMC,030629.000,A,4806.8420,N,00139.4107,W,1.99,358.29,060218,,,A*76
arfcn: 1000 rxLev: -63
arfcn: 1006 rxLev: -63
arfcn: 1007 rxLev: -63
arfcn: 1008 rxLev: -63
arfcn: 989 rxLev: -71
arfcn: 982 rxLev: -71
$GPGGA,030630.000,4806.8423,N,00139.4107,W,1,05,1.8,150.8,M,48.3,M,,0000*49
$GPGSA,M,3,08,01,32,14,27,,,,,,,,3.0,1.8,2.4*3A
$GPRMC,030630.000,A,4806.8423,N,00139.4107,W,2.22,357.94,060218,,,A*77
$GPGGA,030631.000,4806.8428,N,00139.4109,W,1,05,1.8,151.2,M,48.3,M,,0000*46
$GPGSA,M,3,08,01,32,14,27,,,,,,,,3.0,1.8,2.4*3A
$GPRMC,030631.000,A,4806.8428,N,00139.4109,W,2.62,356.54,060218,,,A*7A
arfcn: 12 bsic: 0 rxLev: -71 ber: 0.00 mcc: 208 mnc: 01 lac: 10300 cellId: 6467 cellStatus: CELL_FORBIDDEN numArfcn: 13 arfcn: 12 17 18 19 20 21 22 23 24 25 47 48 49 numChannels: 15 array: 1 2 3 8 9 10 14 512 513 514 515 518 605 606 608 pbcch: 0 nom: 2 rac: 1 spgc: 0 pat: 6 nco: 0 t3168: 1000 t3192: 500 drxmax: 2 ctrlAck: 0 bsCVmax: 9 alpha: 5 pcMeasCh: 1 
arfcn: 1009 rxLev: -72
arfcn: 980 rxLev: -72
$GPGGA,030632.000,4806.8426,N,00139.4102,W,1,05,1.8,151.4,M,48.3,M,,0000*46
arfcn: 986 rxLev: -73
$GPGSA,M,3,08,01,32,14,27,,,,,,,,3.0,1.8,2.4*3A
$GPGSV,3,1,11,08,61,159,23,01,57,286,15,32,33,080,17,14,30,107,29*77
$GPGSV,3,2,11,27,22,142,12,33,33,198,,11,68,292,,22,50,212,*7A
$GPGSV,3,3,11,28,32,297,,03,28,216,,10,20,049,*4C
$GPRMC,030632.000,A,4806.8426,N,00139.4102,W,1.90,358.74,060218,,,A*7E
$GPGGA,030633.000,4806.8429,N,00139.4097,W,1,05,1.8,151.4,M,48.3,M,,0000*45
$GPGSA,M,3,08,01,32,14,27,,,,,,,,3.0,1.8,2.4*3A
$GPRMC,030633.000,A,4806.8429,N,00139.4097,W,1.33,357.34,060218,,,A*7F
arfcn: 80 bsic: 47 rxLev: -73 ber: 0.00 mcc: 208 mnc: 10 lac: 49415 cellId: 23568 cellStatus: CELL_FORBIDDEN numArfcn: 2 arfcn: 80 89 numChannels: 19 array: 76 77 78 80 82 83 84 85 113 114 115 116 117 118 119 120 122 123 124 pbcch: 0 nom: 2 rac: 31 spgc: 0 pat: 6 nco: 0 t3168: 1000 t3192: 500 drxmax: 4 ctrlAck: 1 bsCVmax: 9 alpha: 10 pcMeasCh: 0 
arfcn: 984 rxLev: -74
$GPGGA,030634.000,4806.8433,N,00139.4095,W,1,05,1.8,151.3,M,48.3,M,,0000*4C
$GPGSA,M,3,08,01,32,14,27,,,,,,,,3.0,1.8,2.4*3A
$GPRMC,030634.000,A,4806.8433,N,00139.4095,W,1.52,356.52,060218,,,A*77
$GPGGA,030635.000,4806.8441,N,00139.4088,W,1,05,1.8,151.3,M,48.3,M,,0000*44
$GPGSA,M,3,08,01,32,14,27,,,,,,,,3.0,1.8,2.4*3A
$GPRMC,030635.000,A,4806.8441,N,00139.4088,W,1.68,356.87,060218,,,A*7E
arfcn: 78 bsic: 2 rxLev: -76 ber: 0.00 mcc: 208 mnc: 10 lac: 49415 cellId: 45280 cellStatus: CELL_FORBIDDEN numArfcn: 2 arfcn: 78 116 numChannels: 20 array: 76 77 78 79 80 82 83 84 85 86 114 115 116 117 118 120 121 122 123 124 pbcch: 0 nom: 2 rac: 31 spgc: 0 pat: 6 nco: 0 t3168: 1000 t3192: 500 drxmax: 4 ctrlAck: 1 bsCVmax: 9 alpha: 10 pcMeasCh: 0 
$GPGGA,030636.000,4806.8443,N,00139.4084,W,1,05,1.8,151.2,M,48.3,M,,0000*48
$GPGSA,M,3,08,01,32,14,27,,,,,,,,3.0,1.8,2.4*3A
$GPRMC,030636.000,A,4806.8443,N,00139.4084,W,1.14,356.87,060218,,,A*78
$GPGGA,030637.000,4806.8442,N,00139.4083,W,1,05,1.8,151.2,M,48.3,M,,0000*4F
$GPGSA,M,3,08,01,32,14,27,,,,,,,,3.0,1.8,2.4*3A
$GPGSV,3,1,11,08,61,159,22,01,57,286,15,32,33,080,17,14,30,107,29*76
arfcn: 8 bsic: 48 rxLev: -77 ber: 0.00 mcc: 208 mnc: 01 lac: 10300 cellId: 6473 cellStatus: CELL_FORBIDDEN numArfcn: 13 arfcn: 8 17 18 19 20 21 22 23 24 25 47 48 49 numChannels: 18 array: 1 2 3 4 5 10 12 13 14 15 512 513 514 515 516 517 605 610 pbcch: 0 nom: 2 rac: 1 spgc: 0 pat: 6 nco: 0 t3168: 1000 t3192: 500 drxmax: 2 ctrlAck: 0 bsCVmax: 9 alpha: 5 pcMeasCh: 1 
$GPGSV,3,2,11,27,22,142,12,33,33,198,,11,68,292,,22,50,212,*7A
$GPGSV,3,3,11,28,32,297,,03,28,216,,10,20,049,*4C
$GPRMC,030637.000,A,4806.8442,N,00139.4083,W,0.92,356.87,060218,,,A*70
$GPGGA,030638.000,4806.8442,N,00139.4077,W,1,05,1.8,151.3,M,48.3,M,,0000*4A
$GPGSA,M,3,08,01,32,14,27,,,,,,,,3.0,1.8,2.4*3A
$GPRMC,030638.000,A,4806.8442,N,00139.4077,W,0.85,356.87,060218,,,A*72
$GPGGA,030639.000,4806.8445,N,00139.4069,W,1,05,1.8,151.6,M,48.3,M,,0000*46
$GPGSA,M,3,08,01,32,14,27,,,,,,,,3.0,1.8,2.4*3A
arfcn: 10 bsic: 45 rxLev: -77 ber: 3.09 mcc: 208 mnc: 01 lac: 10301 cellId: 6461 cellStatus: CELL_FORBIDDEN numArfcn: 13 arfcn: 10 17 18 19 20 21 22 23 24 25 47 48 49 numChannels: 17 array: 1 3 4 5 6 8 12 14 512 513 514 516 517 604 605 606 608 pbcch: 0 nom: 2 rac: 1 spgc: 0 pat: 6 nco: 0 t3168: 1000 t3192: 500 drxmax: 2 ctrlAck: 0 bsCVmax: 9 alpha: 5 pcMeasCh: 1 
$GPRMC,030639.000,A,4806.8445,N,00139.4069,W,0.98,356.87,060218,,,A*77
$GPGGA,030640.000,4806.8450,N,00139.4059,W,1,05,1.8,151.8,M,48.3,M,,0000*41
$GPGSA,M,3,08,01,32,14,27,,,,,,,,3.0,1.8,2.4*3A
$GPRMC,030640.000,A,4806.8450,N,00139.4059,W,0.79,356.87,060218,,,A*71
$GPGGA,030641.000,4806.8458,N,00139.4047,W,1,04,2.5,151.9,M,48.3,M,,0000*49
$GPGSA,M,3,08,01,32,14,,,,,,,,,3.8,2.5,2.9*34
arfcn: 85 bsic: 0 rxLev: -78 ber: 0.00 mcc: 208 mnc: 10 lac: 49415 cellId: 44814 cellStatus: CELL_FORBIDDEN numArfcn: 2 arfcn: 85 119 numChannels: 20 array: 76 77 78 79 80 82 83 85 86 114 115 116 117 118 119 120 121 122 123 124 pbcch: 0 nom: 2 rac: 31 spgc: 0 pat: 6 nco: 0 t3168: 1000 t3192: 500 drxmax: 4 ctrlAck: 1 bsCVmax: 9 alpha: 10 pcMeasCh: 0 
arfcn: 824 rxLev: -79
$GPRMC,030641.000,A,4806.8458,N,00139.4047,W,0.69,356.87,060218,,,A*76
arfcn: 844 rxLev: -80
arfcn: 835 rxLev: -80
arfcn: 850 rxLev: -80
arfcn: 823 rxLev: -80
arfcn: 793 rxLev: -80
$GPGGA,030642.000,4806.8472,N,00139.4033,W,1,05,1.9,152.1,M,48.3,M,,0000*44
$GPGSA,M,3,08,01,32,14,10,,,,,,,,3.5,1.9,2.9*37
$GPGSV,3,1,11,08,61,159,22,01,57,286,15,32,33,080,17,14,30,107,29*76
$GPGSV,3,2,11,10,20,049,15,27,22,142,07,33,33,198,,11,68,292,*70
$GPGSV,3,3,11,22,50,212,,28,32,297,,03,28,216,*46
$GPRMC,030642.000,A,4806.8472,N,00139.4033,W,0.38,356.87,060218,,,A*7A
$GPGGA,030643.000,4806.8470,N,00139.4022,W,1,06,1.7,152.6,M,48.3,M,,0000*4D
$GPGSA,M,3,08,01,32,14,27,10,,,,,,,3.7,1.7,3.3*35
$GPRMC,030643.000,A,4806.8470,N,00139.4022,W,0.74,356.87,060218,,,A*71
arfcn: 983 bsic: 21 rxLev: -80 ber: 0.00 mcc: 208 mnc: 20 lac: 418 cellId: 21809 cellStatus: CELL_SUITABLE numArfcn: 1 arfcn: 983 numChannels: 24 array: 788 790 792 793 795 796 878 882 884 976 977 979 981 985 986 987 1012 1013 1014 1016 1017 1019 1020 1022 pbcch: 0 nom: 2 rac: 6 spgc: 0 pat: 6 nco: 0 t3168: 1500 t3192: 500 drxmax: 0 ctrlAck: 0 bsCVmax: 8 alpha: 6 pcMeasCh: 1 
arfcn: 800 rxLev: -81
arfcn: 825 rxLev: -81
$GPGGA,030644.000,4806.8473,N,00139.4005,W,1,06,1.7,152.7,M,48.3,M,,0000*4D
$GPGSA,M,3,08,01,32,14,27,10,,,,,,,3.7,1.7,3.3*35
arfcn: 846 rxLev: -81
arfcn: 838 rxLev: -81
$GPRMC,030644.000,A,4806.8473,N,00139.4005,W,1.23,22.24,060218,,,A*4A
arfcn: 803 rxLev: -81
arfcn: 801 rxLev: -82
arfcn: 826 rxLev: -82
arfcn: 832 rxLev: -82
arfcn: 822 rxLev: -82
arfcn: 797 rxLev: -82
arfcn: 837 rxLev: -82
arfcn: 845 rxLev: -82
arfcn: 865 rxLev: -82
$GPGGA,030645.000,4806.8475,N,00139.3997,W,1,06,1.7,151.6,M,48.3,M,,0000*4D
arfcn: 873 rxLev: -82
$GPGSA,M,3,08,01,32,14,27,10,,,,,,,3.7,1.7,3.3*35
arfcn: 869 rxLev: -82
arfcn: 871 rxLev: -82
$GPRMC,030645.000,A,4806.8475,N,00139.3997,W,1.14,22.24,060218,,,A*4C
arfcn: 840 rxLev: -82
arfcn: 836 rxLev: -82
arfcn: 834 rxLev: -82
arfcn: 851 rxLev: -82
arfcn: 857 rxLev: -82
arfcn: 798 rxLev: -82
arfcn: 799 rxLev: -82
arfcn: 795 rxLev: -82
arfcn: 820 rxLev: -82
$GPGGA,030646.000,4806.8479,N,00139.3990,W,1,06,1.7,151.3,M,48.3,M,,0000*40
arfcn: 805 rxLev: -82
$GPGSA,M,3,08,01,32,14,27,10,,,,,,,3.7,1.7,3.3*35
$GPRMC,030646.000,A,4806.8479,N,00139.3990,W,0.85,22.24,060218,,,A*4D
arfcn: 807 rxLev: -82
arfcn: 809 rxLev: -82
arfcn: 811 rxLev: -82
$GPGGA,030647.000,4806.8488,N,00139.3984,W,1,05,1.9,151.1,M,48.3,M,,0000*45
$GPGSA,M,3,08,01,32,14,10,,,,,,,,3.5,1.9,2.9*37
$GPGSV,3,1,11,08,61,159,22,01,57,286,15,32,33,080,17,14,30,107,29*76
$GPGSV,3,2,11,10,20,049,16,27,22,142,08,37,27,150,,11,68,292,*79
$GPGSV,3,3,11,22,50,212,,28,32,297,,03,28,216,*46
$GPRMC,030647.000,A,4806.8488,N,00139.3984,W,0.71,22.24,060218,,,A*4C
$GPGGA,030648.000,4806.8496,N,00139.3968,W,1,05,1.9,150.9,M,48.3,M,,0000*4E
$GPGSA,M,3,08,01,32,14,10,,,,,,,,3.5,1.9,2.9*37
$GPRMC,030648.000,A,4806.8496,N,00139.3968,W,1.33,36.41,060218,,,A*4F
arfcn: 5 bsic: 1 rxLev: -82 ber: 0.00 mcc: 208 mnc: 01 lac: 10300 cellId: 40079 cellStatus: CELL_FORBIDDEN numArfcn: 13 arfcn: 5 17 18 19 20 21 22 23 24 25 47 48 49 numChannels: 20 array: 1 2 3 4 5 8 9 10 11 13 14 15 16 512 513 518 604 606 608 610 pbcch: 0 nom: 2 rac: 1 spgc: 0 pat: 6 nco: 0 t3168: 1000 t3192: 500 drxmax: 2 ctrlAck: 0 bsCVmax: 9 alpha: 5 pcMeasCh: 1 
$GPGGA,030649.000,4806.8495,N,00139.3956,W,1,06,1.7,150.9,M,48.3,M,,0000*4C
$GPGSA,M,3,08,01,32,14,27,10,,,,,,,3.7,1.7,3.3*35
$GPRMC,030649.000,A,4806.8495,N,00139.3956,W,1.50,52.18,060218,,,A*4B
$GPGGA,030650.000,4806.8497,N,00139.3942,W,1,06,1.7,151.0,M,48.3,M,,0000*4B
$GPGSA,M,3,08,01,32,14,27,10,,,,,,,3.7,1.7,3.3*35
arfcn: 512 bsic: 25 rxLev: -83 ber: 0.00 mcc: 208 mnc: 01 lac: 10300 cellId: 40155 cellStatus: CELL_FORBIDDEN numArfcn: 16 arfcn: 519 520 521 522 523 524 525 526 596 597 598 599 600 601 602 603 numChannels: 16 array: 2 3 5 8 10 11 12 15 16 517 518 604 605 606 609 610 pbcch: 0 nom: 2 rac: 1 spgc: 0 pat: 6 nco: 0 t3168: 1000 t3192: 500 drxmax: 2 ctrlAck: 0 bsCVmax: 9 alpha: 5 pcMeasCh: 1 
arfcn: 812 rxLev: -83
arfcn: 810 rxLev: -83
$GPRMC,030650.000,A,4806.8497,N,00139.3942,W,1.96,68.20,060218,,,A*4C
arfcn: 813 rxLev: -83
arfcn: 815 rxLev: -83
arfcn: 816 rxLev: -83
arfcn: 819 rxLev: -83
arfcn: 817 rxLev: -83
arfcn: 818 rxLev: -83
arfcn: 821 rxLev: -83
$GPGGA,030651.000,4806.8495,N,00139.3931,W,1,06,1.7,151.0,M,48.3,M,,0000*4C
arfcn: 830 rxLev: -83
arfcn: 828 rxLev: -83
$GPGSA,M,3,08,01,32,14,27,10,,,,,,,3.7,1.7,3.3*35
arfcn: 794 rxLev: -83
arfcn: 859 rxLev: -83
$GPRMC,030651.000,A,4806.8495,N,00139.3931,W,2.13,81.89,060218,,,A*41
arfcn: 856 rxLev: -83
arfcn: 848 rxLev: -83
arfcn: 842 rxLev: -83
arfcn: 867 rxLev: -83
arfcn: 866 rxLev: -83
arfcn: 872 rxLev: -83
arfcn: 870 rxLev: -83
arfcn: 875 rxLev: -83
$GPGGA,030652.000,4806.8492,N,00139.3923,W,1,06,1.7,150.9,M,48.3,M,,0000*43
arfcn: 877 rxLev: -83
arfcn: 858 rxLev: -83
$GPGSA,M,3,08,01,32,14,27,10,,,,,,,3.7,1.7,3.3*35
arfcn: 861 rxLev: -83
arfcn: 864 rxLev: -83
$GPGSV,3,1,11,08,61,159,22,01,57,286,15,32,33,080,17,14,30,107,29*76
arfcn: 814 rxLev: -83
$GPGSV,3,2,11,27,22,142,08,10,20,049,17,37,27,150,,11,68,292,*78
$GPGSV,3,3,11,22,50,212,,28,32,297,,03,28,216,*46
$GPRMC,030652.000,A,4806.8492,N,00139.3923,W,1.83,88.54,060218,,,A*45
$GPGGA,030653.000,4806.8488,N,00139.3918,W,1,06,1.7,150.9,M,48.3,M,,0000*41
$GPGSA,M,3,08,01,32,14,27,10,,,,,,,3.7,1.7,3.3*35
$GPRMC,030653.000,A,4806.8488,N,00139.3918,W,1.35,95.03,060218,,,A*44
arfcn: 604 bsic: 20 rxLev: -83 ber: 0.00 mcc: FFF mnc: FF lac: 65535 cellId: 0 cellStatus: CELL_OTHER numArfcn: 0 arfcn: numChannels: 0 array:
arfcn: 808 rxLev: -84
$GPGGA,030654.000,4806.8482,N,00139.3910,W,1,06,1.7,150.9,M,48.3,M,,0000*44
arfcn: 827 rxLev: -84
$GPGSA,M,3,08,01,32,14,27,10,,,,,,,3.7,1.7,3.3*35
arfcn: 829 rxLev: -84
arfcn: 831 rxLev: -84
$GPRMC,030654.000,A,4806.8482,N,00139.3910,W,1.69,106.57,060218,,,A*72
arfcn: 791 rxLev: -84
arfcn: 792 rxLev: -84
arfcn: 863 rxLev: -84
arfcn: 852 rxLev: -84
arfcn: 849 rxLev: -84
arfcn: 841 rxLev: -84
arfcn: 843 rxLev: -84
$GPGGA,030655.000,4806.8484,N,00139.3900,W,1,05,1.9,150.7,M,48.3,M,,0000*41
arfcn: 833 rxLev: -84
$GPGSA,M,3,08,01,32,14,10,,,,,,,,3.5,1.9,2.9*37
arfcn: 855 rxLev: -84
arfcn: 853 rxLev: -84
$GPRMC,030655.000,A,4806.8484,N,00139.3900,W,1.98,117.75,060218,,,A*7A
arfcn: 854 rxLev: -84
arfcn: 860 rxLev: -84
arfcn: 879 rxLev: -84
arfcn: 796 rxLev: -84
arfcn: 806 rxLev: -84
arfcn: 802 rxLev: -84
arfcn: 804 rxLev: -84
$GPGGA,030656.000,4806.8486,N,00139.3890,W,1,05,1.9,150.6,M,48.3,M,,0000*49
$GPGSA,M,3,08,01,32,14,10,,,,,,,,3.5,1.9,2.9*37
$GPRMC,030656.000,A,4806.8486,N,00139.3890,W,2.05,123.59,060218,,,A*7D
$GPGGA,030657.000,4806.8485,N,00139.3883,W,1,05,1.9,150.5,M,48.3,M,,0000*4A
$GPGSA,M,3,08,01,32,14,10,,,,,,,,3.5,1.9,2.9*37
$GPGSV,3,1,11,08,61,159,22,01,57,286,16,32,33,080,17,14,30,107,28*74
$GPGSV,3,2,11,10,20,049,17,27,22,142,06,37,27,150,,11,68,292,*76
$GPGSV,3,3,11,22,50,212,,28,32,297,,03,28,216,*46
$GPRMC,030657.000,A,4806.8485,N,00139.3883,W,2.25,129.76,060218,,,A*78
$GPGGA,030658.000,4806.8476,N,00139.3882,W,1,06,1.7,150.5,M,48.3,M,,0000*45
$GPGSA,M,3,08,01,32,14,27,10,,,,,,,3.7,1.7,3.3*35
$GPRMC,030658.000,A,4806.8476,N,00139.3882,W,2.35,141.72,060218,,,A*71
$GPGGA,030659.000,4806.8467,N,00139.3880,W,1,06,1.7,150.4,M,48.3,M,,0000*47
$GPGSA,M,3,08,01,32,14,27,10,,,,,,,3.7,1.7,3.3*35
$GPRMC,030659.000,A,4806.8467,N,00139.3880,W,2.34,149.17,060218,,,A*78
arfcn: 606 bsic: 57 rxLev: -84 ber: 1.10 mcc: FFF mnc: FF lac: 65535 cellId: 0 cellStatus: CELL_OTHER numArfcn: 16 arfcn: 519 520 521 522 523 524 525 526 596 597 598 599 600 601 602 603 numChannels: 0 array:
arfcn: 31 rxLev: -85
arfcn: 32 rxLev: -85
arfcn: 34 rxLev: -85
arfcn: 880 rxLev: -85
$GPGGA,030700.000,4806.8460,N,00139.3877,W,1,06,1.7,150.4,M,48.3,M,,0000*45
arfcn: 874 rxLev: -85
arfcn: 839 rxLev: -85
$GPGSA,M,3,08,01,32,14,27,10,,,,,,,3.7,1.7,3.3*35
arfcn: 847 rxLev: -85
arfcn: 862 rxLev: -85
$GPRMC,030700.000,A,4806.8460,N,00139.3877,W,1.96,151.93,060218,,,A*74
arfcn: 878 rxLev: -85
arfcn: 33 rxLev: -85
arfcn: 36 rxLev: -85
arfcn: 43 rxLev: -85
$GPGGA,030701.000,4806.8460,N,00139.3876,W,1,05,1.9,150.3,M,48.3,M,,0000*4F
$GPGSA,M,3,08,01,32,14,10,,,,,,,,3.5,1.9,2.9*37
$GPRMC,030701.000,A,4806.8460,N,00139.3876,W,1.97,154.91,060218,,,A*72
$GPGGA,030702.000,4806.8460,N,00139.3871,W,1,05,1.9,150.2,M,48.3,M,,0000*4A
$GPGSA,M,3,08,01,32,14,10,,,,,,,,3.5,1.9,2.9*37
$GPGSV,3,1,11,08,61,159,22,01,57,286,17,32,33,080,17,14,30,107,28*75
$GPGSV,3,2,11,10,20,049,17,27,22,142,07,37,27,150,,11,68,292,*77
$GPGSV,3,3,11,22,50,212,,28,32,297,,03,28,216,*46
arfcn: 117 bsic: 12 rxLev: -85 ber: 0.00 mcc: 208 mnc: 10 lac: 49415 cellId: 3568 cellStatus: CELL_FORBIDDEN numArfcn: 2 arfcn: 82 117 numChannels: 17 array: 76 77 78 79 80 83 84 85 87 113 114 116 117 120 122 123 124 pbcch: 0 nom: 2 rac: 31 spgc: 0 pat: 6 nco: 0 t3168: 1000 t3192: 500 drxmax: 4 ctrlAck: 1 bsCVmax: 9 alpha: 10 pcMeasCh: 0 
arfcn: 44 rxLev: -86
$GPRMC,030702.000,A,4806.8460,N,00139.3871,W,1.94,155.88,060218,,,A*7C
arfcn: 35 rxLev: -86
arfcn: 30 rxLev: -86
arfcn: 876 rxLev: -86
arfcn: 868 rxLev: -86
$GPGGA,030703.000,4806.8459,N,00139.3868,W,1,05,1.9,150.1,M,48.3,M,,0000*4A
arfcn: 881 rxLev: -86
$GPGSA,M,3,08,01,32,14,10,,,,,,,,3.5,1.9,2.9*37
arfcn: 37 rxLev: -86
$GPRMC,030703.000,A,4806.8459,N,00139.3868,W,2.21,159.46,060218,,,A*7C
arfcn: 45 rxLev: -86
arfcn: 42 rxLev: -87
arfcn: 41 rxLev: -87
arfcn: 13 rxLev: -87
$GPGGA,030704.000,4806.8459,N,00139.3865,W,1,05,1.9,150.0,M,48.3,M,,0000*41
$GPGSA,M,3,08,01,32,14,10,,,,,,,,3.5,1.9,2.9*37
$GPRMC,030704.000,A,4806.8459,N,00139.3865,W,2.17,159.83,060218,,,A*7A
$GPGGA,030705.000,4806.8452,N,00139.3861,W,1,06,1.7,150.0,M,48.3,M,,0000*42
$GPGSA,M,3,08,01,32,14,27,10,,,,,,,3.7,1.7,3.3*35
$GPRMC,030705.000,A,4806.8452,N,00139.3861,W,2.20,159.12,060218,,,A*78
$GPGGA,030706.000,4806.8443,N,00139.3858,W,1,06,1.7,150.0,M,48.3,M,,0000*4B
$GPGSA,M,3,08,01,32,14,27,10,,,,,,,3.7,1.7,3.3*35
$GPRMC,030706.000,A,4806.8443,N,00139.3858,W,2.83,160.36,060218,,,A*74
$GPGGA,030707.000,4806.8439,N,00139.3856,W,1,06,1.7,149.9,M,48.3,M,,0000*48
$GPGSA,M,3,08,01,32,14,27,10,,,,,,,3.7,1.7,3.3*35
arfcn: 605 bsic: 33 rxLev: -87 ber: 0.00 mcc: 208 mnc: 01 lac: 10300 cellId: 27588 cellStatus: CELL_FORBIDDEN numArfcn: 22 arfcn: 525 526 527 528 529 530 531 532 533 534 535 587 588 589 590 591 592 593 594 595 596 597 numChannels: 18 array: 1 3 5 8 12 15 512 513 514 515 516 517 518 604 605 606 607 609 pbcch: 0 nom: 2 rac: 1 spgc: 0 pat: 6 nco: 0 t3168: 1000 t3192: 500 drxmax: 2 ctrlAck: 0 bsCVmax: 9 alpha: 5 pcMeasCh: 1 
$GPGSV,3,1,11,08,61,159,22,01,57,286,17,32,33,080,16,14,30,107,28*74
$GPGSV,3,2,11,27,22,142,09,10,20,049,17,37,27,150,,11,68,292,*79
$GPGSV,3,3,11,22,50,212,,28,32,297,,03,28,216,*46
$GPRMC,030707.000,A,4806.8439,N,00139.3856,W,2.31,162.47,060218,,,A*7B
$GPGGA,030708.000,4806.8436,N,00139.3856,W,1,06,1.7,149.9,M,48.3,M,,0000*48
$GPGSA,M,3,08,01,32,14,27,10,,,,,,,3.7,1.7,3.3*35
$GPRMC,030708.000,A,4806.8436,N,00139.3856,W,1.89,164.24,060218,,,A*78
$GPGGA,030709.000,4806.8438,N,00139.3856,W,1,06,1.7,149.9,M,48.3,M,,0000*47
$GPGSA,M,3,08,01,32,14,27,10,,,,,,,3.7,1.7,3.2*34
arfcn: 514 bsic: 1 rxLev: -87 ber: 0.00 mcc: 208 mnc: 01 lac: 10300 cellId: 39259 cellStatus: CELL_FORBIDDEN numArfcn: 17 arfcn: 514 519 520 521 522 523 524 525 526 596 597 598 599 600 601 602 603 numChannels: 14 array: 1 6 8 10 12 14 512 513 514 517 604 605 606 608 pbcch: 0 nom: 2 rac: 1 spgc: 1 pat: 6 nco: 0 t3168: 1000 t3192: 500 drxmax: 4 ctrlAck: 1 bsCVmax: 9 alpha: 7 pcMeasCh: 0 
arfcn: 1 rxLev: -87
$GPRMC,030709.000,A,4806.8438,N,00139.3856,W,1.00,164.24,060218,,,A*76
$GPGGA,030710.000,4806.8438,N,00139.3853,W,1,06,1.7,149.9,M,48.3,M,,0000*4A
$GPGSA,M,3,08,01,32,14,27,10,,,,,,,3.7,1.7,3.2*34
$GPRMC,030710.000,A,4806.8438,N,00139.3853,W,1.07,164.24,060218,,,A*7C
$GPGGA,030711.000,4806.8437,N,00139.3849,W,1,06,1.7,149.9,M,48.3,M,,0000*4F
$GPGSA,M,3,08,01,32,14,27,10,,,,,,,3.7,1.7,3.2*34
$GPRMC,030711.000,A,4806.8437,N,00139.3849,W,1.06,164.24,060218,,,A*78
arfcn: 2 bsic: 54 rxLev: -87 ber: 0.00 mcc: 208 mnc: 01 lac: 10300 cellId: 42646 cellStatus: CELL_FORBIDDEN numArfcn: 13 arfcn: 2 17 18 19 20 21 22 23 24 25 47 48 49 numChannels: 22 array: 1 5 6 7 8 10 12 13 15 16 512 514 515 516 517 518 604 606 607 608 609 610 pbcch: 0 nom: 2 rac: 1 spgc: 0 pat: 6 nco: 0 t3168: 1000 t3192: 500 drxmax: 2 ctrlAck: 0 bsCVmax: 9 alpha: 5 pcMeasCh: 1 
arfcn: 39 rxLev: -87
arfcn: 28 rxLev: -87
arfcn: 29 rxLev: -87
$GPGGA,030712.000,4806.8436,N,00139.3849,W,1,06,1.7,149.9,M,48.3,M,,0000*4D
$GPGSA,M,3,08,01,32,14,27,10,,,,,,,3.7,1.7,3.2*34
$GPGSV,3,1,11,08,61,159,23,01,57,286,17,32,33,080,16,14,30,107,29*74
$GPGSV,3,2,11,27,22,142,09,10,20,049,17,37,27,150,,11,68,292,*79
$GPGSV,3,3,11,22,50,212,,28,32,297,,03,28,216,*46
$GPRMC,030712.000,A,4806.8436,N,00139.3849,W,0.70,164.24,060218,,,A*7A
$GPGGA,030713.000,4806.8434,N,00139.3849,W,1,06,1.7,149.9,M,48.3,M,,0000*4E
arfcn: 124 bsic: 2 rxLev: -87 ber: 3.09 mcc: 208 mnc: 10 lac: 49415 cellId: 43517 cellStatus: CELL_FORBIDDEN numArfcn: 2 arfcn: 112 124 numChannels: 14 array: 76 77 78 80 82 85 114 115 117 118 120 121 122 124 pbcch: 0 nom: 2 rac: 31 spgc: 0 pat: 6 nco: 0 t3168: 1000 t3192: 500 drxmax: 4 ctrlAck: 1 bsCVmax: 9 alpha: 10 pcMeasCh: 0 
$GPGSA,M,3,08,01,32,14,27,10,,,,,,,3.7,1.7,3.2*34
$GPRMC,030713.000,A,4806.8434,N,00139.3849,W,0.86,164.24,060218,,,A*70
$GPGGA,030714.000,4806.8434,N,00139.3848,W,1,06,1.7,149.9,M,48.3,M,,0000*48
$GPGSA,M,3,08,01,32,14,27,10,,,,,,,3.7,1.7,3.2*34
$GPRMC,030714.000,A,4806.8434,N,00139.3848,W,0.52,164.24,060218,,,A*7F
arfcn: 122 bsic: 3 rxLev: -88 ber: 0.00 mcc: 208 mnc: 10 lac: 49415 cellId: 33517 cellStatus: CELL_FORBIDDEN numArfcn: 3 arfcn: 77 88 122 numChannels: 17 array: 77 78 79 80 82 84 85 86 114 115 117 118 119 120 122 123 124 pbcch: 0 nom: 2 rac: 31 spgc: 0 pat: 6 nco: 0 t3168: 1000 t3192: 500 drxmax: 4 ctrlAck: 1 bsCVmax: 9 alpha: 10 pcMeasCh: 0 
arfcn: 38 rxLev: -88
$GPGGA,030715.000,4806.8433,N,00139.3846,W,1,06,1.7,149.9,M,48.3,M,,0000*40
$GPGSA,M,3,08,01,32,14,27,10,,,,,,,3.7,1.7,3.2*34
$GPRMC,030715.000,A,4806.8433,N,00139.3846,W,0.87,164.24,060218,,,A*7F
$GPGGA,030716.000,4806.8433,N,00139.3843,W,1,06,1.7,149.8,M,48.3,M,,0000*47
$GPGSA,M,3,08,01,32,14,27,10,,,,,,,3.7,1.7,3.2*34
$GPRMC,030716.000,A,4806.8433,N,00139.3843,W,0.95,164.24,060218,,,A*7A
$GPGGA,030717.000,4806.8435,N,00139.3837,W,1,06,1.7,149.8,M,48.3,M,,0000*43
arfcn: 3 bsic: 0 rxLev: -88 ber: 0.02 mcc: 208 mnc: 01 lac: 10300 cellId: 2686 cellStatus: CELL_FORBIDDEN numArfcn: 13 arfcn: 3 17 18 19 20 21 22 23 24 25 47 48 49 numChannels: 13 array: 1 5 6 7 10 12 14 512 515 517 604 606 608 pbcch: 0 nom: 2 rac: 1 spgc: 0 pat: 6 nco: 0 t3168: 1000 t3192: 500 drxmax: 2 ctrlAck: 0 bsCVmax: 9 alpha: 5 pcMeasCh: 1 
$GPGSA,M,3,08,01,32,14,27,10,,,,,,,3.7,1.7,3.2*34
arfcn: 11 rxLev: -88
arfcn: 40 rxLev: -88
$GPGSV,3,1,11,08,61,159,23,01,57,286,17,32,33,080,15,14,30,107,29*77
arfcn: 27 rxLev: -89
$GPGSV,3,2,11,27,22,142,11,10,20,049,17,28,32,297,13,39,31,144,*7E
$GPGSV,3,3,11,11,68,292,,22,50,212,,03,28,216,*46
$GPRMC,030717.000,A,4806.8435,N,00139.3837,W,1.06,164.24,060218,,,A*75
$GPGGA,030718.000,4806.8436,N,00139.3837,W,1,06,1.7,149.8,M,48.3,M,,0000*4F
$GPGSA,M,3,08,01,32,14,27,10,,,,,,,3.7,1.7,3.2*34
$GPRMC,030718.000,A,4806.8436,N,00139.3837,W,0.81,164.24,060218,,,A*77
$GPGGA,030719.000,4806.8438,N,00139.3839,W,1,06,1.7,149.7,M,48.3,M,,0000*41
$GPGSA,M,3,08,01,32,14,27,10,,,,,,,3.7,1.7,3.2*34
$GPRMC,030719.000,A,4806.8438,N,00139.3839,W,0.57,164.24,060218,,,A*7D
$GPGGA,030720.000,4806.8439,N,00139.3842,W,1,06,1.7,149.7,M,48.3,M,,0000*46
$GPGSA,M,3,08,01,32,14,27,10,,,,,,,3.7,1.7,3.2*34
$GPRMC,030720.000,A,4806.8439,N,00139.3842,W,0.51,164.24,060218,,,A*7C
arfcn: 979 bsic: 19 rxLev: -89 ber: 0.08 mcc: 208 mnc: 20 lac: 418 cellId: 20718 cellStatus: CELL_SUITABLE numArfcn: 1 arfcn: 979 numChannels: 22 array: 788 789 790 792 793 795 878 882 884 977 981 983 984 985 986 987 1012 1013 1014 1017 1019 1020 pbcch: 0 nom: 2 rac: 6 spgc: 0 pat: 6 nco: 0 t3168: 1500 t3192: 500 drxmax: 0 ctrlAck: 0 bsCVmax: 8 alpha: 6 pcMeasCh: 1 
$GPGGA,030721.000,4806.8441,N,00139.3844,W,1,07,1.2,149.7,M,48.3,M,,0000*4A
$GPGSA,M,3,08,01,32,28,14,27,10,,,,,,2.7,1.2,2.4*3D
$GPRMC,030721.000,A,4806.8441,N,00139.3844,W,0.51,164.24,060218,,,A*74
arfcn: 76 bsic: 5 rxLev: -89 ber: 0.00 mcc: 208 mnc: 10 lac: 49415 cellId: 44813 cellStatus: CELL_FORBIDDEN numArfcn: 2 arfcn: 76 121 numChannels: 16 array: 76 77 78 79 80 82 84 85 86 113 114 117 118 121 123 124 pbcch: 0 nom: 2 rac: 31 spgc: 0 pat: 6 nco: 0 t3168: 1000 t3192: 500 drxmax: 4 ctrlAck: 1 bsCVmax: 9 alpha: 10 pcMeasCh: 0 
arfcn: 93 rxLev: -89
arfcn: 94 rxLev: -89
$GPGGA,030722.000,4806.8441,N,00139.3846,W,1,07,1.2,149.7,M,48.3,M,,0000*4B
arfcn: 95 rxLev: -89
$GPGSA,M,3,08,01,32,28,14,27,10,,,,,,2.7,1.2,2.4*3D
arfcn: 103 rxLev: -89
$GPGSV,3,1,11,08,61,159,23,01,57,286,16,32,33,080,15,28,32,297,14*7F
arfcn: 105 rxLev: -89
$GPGSV,3,2,11,14,30,107,29,27,22,142,16,10,20,049,15,39,31,144,*75
$GPGSV,3,3,11,11,68,292,,22,50,212,,03,28,216,*46
$GPRMC,030722.000,A,4806.8441,N,00139.3846,W,0.97,164.24,060218,,,A*7F
$GPGGA,030723.000,4806.8437,N,00139.3849,W,1,07,1.2,149.7,M,48.3,M,,0000*44
$GPGSA,M,3,08,01,32,28,14,27,10,,,,,,2.7,1.2,2.4*3D
$GPRMC,030723.000,A,4806.8437,N,00139.3849,W,1.81,172.03,060218,,,A*74
$GPGGA,030724.000,4806.8439,N,00139.3851,W,1,07,1.2,149.7,M,48.3,M,,0000*44
$GPGSA,M,3,08,01,32,28,14,27,10,,,,,,2.7,1.2,2.4*3D
$GPRMC,030724.000,A,4806.8439,N,00139.3851,W,1.23,173.62,060218,,,A*7A
$GPGGA,030725.000,4806.8441,N,00139.3855,W,1,07,1.2,149.7,M,48.3,M,,0000*4E
$GPGSA,M,3,08,01,32,28,14,27,10,,,,,,2.7,1.2,2.4*3D
$GPRMC,030725.000,A,4806.8441,N,00139.3855,W,0.92,173.62,060218,,,A*7B
arfcn: 608 bsic: 46 rxLev: -89 ber: 0.00 mcc: 208 mnc: 01 lac: 10300 cellId: 36733 cellStatus: CELL_FORBIDDEN numArfcn: 16 arfcn: 519 520 521 522 523 524 525 526 596 597 598 599 600 601 602 603 numChannels: 15 array: 1 3 6 7 10 12 14 512 513 514 515 517 604 605 606 pbcch: 0 nom: 2 rac: 1 spgc: 0 pat: 6 nco: 0 t3168: 1000 t3192: 500 drxmax: 2 ctrlAck: 0 bsCVmax: 9 alpha: 5 pcMeasCh: 1 
arfcn: 92 rxLev: -89
arfcn: 96 rxLev: -89
arfcn: 97 rxLev: -89
arfcn: 79 rxLev: -89
arfcn: 46 rxLev: -89
$GPGGA,030726.000,4806.8445,N,00139.3857,W,1,07,1.2,149.7,M,48.3,M,,0000*4B
arfcn: 56 rxLev: -90
$GPGSA,M,3,08,01,32,28,14,27,10,,,,,,2.7,1.2,2.4*3D
arfcn: 104 rxLev: -90
arfcn: 106 rxLev: -90
$GPRMC,030726.000,A,4806.8445,N,00139.3857,W,0.75,173.62,060218,,,A*77
arfcn: 107 rxLev: -90
arfcn: 102 rxLev: -90
arfcn: 100 rxLev: -90
arfcn: 101 rxLev: -90
arfcn: 98 rxLev: -90
arfcn: 99 rxLev: -90
arfcn: 91 rxLev: -90
$GPGGA,030727.000,4806.8449,N,00139.3858,W,1,07,1.2,149.7,M,48.3,M,,0000*49
arfcn: 108 rxLev: -90
arfcn: 64 rxLev: -90
$GPGSA,M,3,08,01,32,28,14,27,10,,,,,,2.7,1.2,2.4*3D
arfcn: 67 rxLev: -90
$GPGSV,3,1,11,08,61,159,22,01,57,286,16,32,33,080,16,28,32,297,15*7C
$GPGSV,3,2,11,14,30,107,29,27,22,142,18,10,20,049,14,39,31,144,*7A
$GPGSV,3,3,11,11,68,292,,22,50,212,,03,28,216,*46
$GPRMC,030727.000,A,4806.8449,N,00139.3858,W,0.64,173.62,060218,,,A*75
$GPGGA,030728.000,4806.8456,N,00139.3856,W,1,07,1.2,149.7,M,48.3,M,,0000*46
$GPGSA,M,3,08,01,32,28,14,27,10,,,,,,2.7,1.2,2.4*3D
$GPRMC,030728.000,A,4806.8456,N,00139.3856,W,0.64,173.62,060218,,,A*7A
$GPGGA,030729.000,4806.8464,N,00139.3851,W,1,07,1.2,149.7,M,48.3,M,,0000*41
$GPGSA,M,3,08,01,32,28,14,27,10,,,,,,2.7,1.2,2.4*3D
$GPRMC,030729.000,A,4806.8464,N,00139.3851,W,1.19,155.32,060218,,,A*77
$GPGGA,030730.000,4806.8466,N,00139.3849,W,1,06,1.5,149.7,M,48.3,M,,0000*44
$GPGSA,M,3,08,01,32,28,14,27,,,,,,,2.9,1.5,2.5*34
$GPRMC,030730.000,A,4806.8466,N,00139.3849,W,1.13,155.32,060218,,,A*7E
arfcn: 1017 bsic: 33 rxLev: -90 ber: 0.00 mcc: 208 mnc: 20 lac: 418 cellId: 20104 cellStatus: CELL_SUITABLE numArfcn: 3 arfcn: 986 987 1017 numChannels: 20 array: 788 790 885 975 976 978 979 980 981 982 986 987 1011 1012 1015 1017 1019 1020 1021 1022 pbcch: 0 nom: 2 rac: 7 spgc: 0 pat: 6 nco: 0 t3168: 1500 t3192: 500 drxmax: 4 ctrlAck: 1 bsCVmax: 8 alpha: 6 pcMeasCh: 1 
arfcn: 66 rxLev: -91
arfcn: 62 rxLev: -91
$GPGGA,030731.000,4806.8464,N,00139.3849,W,1,06,1.5,149.7,M,48.3,M,,0000*47
arfcn: 63 rxLev: -91
$GPGSA,M,3,08,01,32,28,14,27,,,,,,,2.9,1.5,2.5*34
arfcn: 57 rxLev: -91
arfcn: 55 rxLev: -91
$GPRMC,030731.000,A,4806.8464,N,00139.3849,W,0.95,155.32,060218,,,A*72
arfcn: 81 rxLev: -91
$GPGGA,030732.000,4806.8464,N,00139.3847,W,1,06,1.5,149.7,M,48.3,M,,0000*4A
$GPGSA,M,3,08,01,32,28,14,27,,,,,,,2.9,1.5,2.5*34
$GPGSV,3,1,11,08,61,159,22,01,57,286,17,32,33,080,17,28,32,297,16*7F
$GPGSV,3,2,11,14,30,107,28,27,22,142,19,39,31,144,,11,68,292,*76
$GPGSV,3,3,11,22,50,212,,03,28,216,,10,20,049,*4F
$GPRMC,030732.000,A,4806.8464,N,00139.3847,W,1.07,155.32,060218,,,A*75
$GPGGA,030733.000,4806.8467,N,00139.3846,W,1,06,1.5,149.7,M,48.3,M,,0000*49
$GPGSA,M,3,08,01,32,28,14,27,,,,,,,2.9,1.5,2.5*34
arfcn: 114 bsic: 6 rxLev: -91 ber: 0.04 mcc: 208 mnc: 10 lac: 49415 cellId: 44202 cellStatus: CELL_FORBIDDEN numArfcn: 2 arfcn: 80 114 numChannels: 20 array: 76 77 78 79 80 84 85 86 113 114 115 116 117 118 119 120 121 122 123 124 pbcch: 0 nom: 2 rac: 31 spgc: 0 pat: 6 nco: 0 t3168: 1000 t3192: 500 drxmax: 4 ctrlAck: 1 bsCVmax: 9 alpha: 10 pcMeasCh: 0 
arfcn: 65 rxLev: -91
$GPRMC,030733.000,A,4806.8467,N,00139.3846,W,1.06,155.32,060218,,,A*77
arfcn: 26 rxLev: -91
arfcn: 9 rxLev: -92
$GPGGA,030734.000,4806.8466,N,00139.3845,W,1,06,1.5,149.7,M,48.3,M,,0000*4C
$GPGSA,M,3,08,01,32,28,14,27,,,,,,,2.9,1.5,2.5*34
$GPRMC,030734.000,A,4806.8466,N,00139.3845,W,1.18,144.19,060218,,,A*74
$GPGGA,030735.000,4806.8461,N,00139.3844,W,1,06,1.5,149.6,M,48.3,M,,0000*4A
$GPGSA,M,3,08,01,32,28,14,27,,,,,,,2.9,1.5,2.5*34
$GPRMC,030735.000,A,4806.8461,N,00139.3844,W,1.46,140.25,060218,,,A*73
$GPGGA,030736.000,4806.8458,N,00139.3843,W,1,06,1.5,149.6,M,48.3,M,,0000*44
$GPGSA,M,3,08,01,32,28,14,27,,,,,,,2.9,1.5,2.5*34
arfcn: 14 bsic: 35 rxLev: -92 ber: 0.04 mcc: 208 mnc: 01 lac: 10300 cellId: 39250 cellStatus: CELL_FORBIDDEN numArfcn: 13 arfcn: 14 17 18 19 20 21 22 23 24 25 47 48 49 numChannels: 14 array: 1 3 4 6 8 10 12 14 512 513 514 517 604 608 pbcch: 0 nom: 2 rac: 1 spgc: 1 pat: 6 nco: 0 t3168: 1000 t3192: 500 drxmax: 4 ctrlAck: 1 bsCVmax: 9 alpha: 7 pcMeasCh: 0 
arfcn: 58 rxLev: -92
$GPRMC,030736.000,A,4806.8458,N,00139.3843,W,1.60,139.67,060218,,,A*71
arfcn: 59 rxLev: -92
arfcn: 60 rxLev: -92
arfcn: 61 rxLev: -92
arfcn: 68 rxLev: -92
arfcn: 54 rxLev: -92
arfcn: 109 rxLev: -92
$GPGGA,030737.000,4806.8454,N,00139.3843,W,1,06,1.5,149.5,M,48.3,M,,0000*4A
$GPGSA,M,3,08,01,32,28,14,27,,,,,,,2.9,1.5,2.5*34
$GPGSV,3,1,11,08,61,159,22,01,57,286,18,32,33,080,18,28,32,297,15*7C
$GPGSV,3,2,11,14,30,107,28,27,22,142,19,39,31,144,,11,68,292,*76
$GPGSV,3,3,11,22,50,212,,03,28,216,,10,20,049,*4F
$GPRMC,030737.000,A,4806.8454,N,00139.3843,W,1.78,140.92,060218,,,A*71
$GPGGA,030738.000,4806.8453,N,00139.3846,W,1,06,1.5,149.4,M,48.3,M,,0000*46
$GPGSA,M,3,08,01,32,28,14,27,,,,,,,2.9,1.5,2.5*34
$GPRMC,030738.000,A,4806.8453,N,00139.3846,W,1.06,140.92,060218,,,A*75
$GPGGA,030739.000,4806.8446,N,00139.3848,W,1,06,1.5,149.4,M,48.3,M,,0000*4D
$GPGSA,M,3,08,01,32,28,14,27,,,,,,,2.9,1.5,2.5*34
$GPRMC,030739.000,A,4806.8446,N,00139.3848,W,1.60,149.89,060218,,,A*7D
$GPGGA,030740.000,4806.8443,N,00139.3849,W,1,06,1.5,149.4,M,48.3,M,,0000*47
$GPGSA,M,3,08,01,32,28,14,27,,,,,,,2.9,1.5,2.5*34
arfcn: 513 bsic: 27 rxLev: -92 ber: 9.03 mcc: 208 mnc: 01 lac: 10300 cellId: 27587 cellStatus: CELL_FORBIDDEN numArfcn: 16 arfcn: 519 520 521 522 523 524 525 526 596 597 598 599 600 601 602 603 numChannels: 14 array: 1 4 8 12 512 513 515 516 517 518 605 606 607 609 pbcch: 0 nom: 2 rac: 1 spgc: 0 pat: 6 nco: 0 t3168: 1000 t3192: 500 drxmax: 2 ctrlAck: 0 bsCVmax: 9 alpha: 5 pcMeasCh: 1 
$GPRMC,030740.000,A,4806.8443,N,00139.3849,W,1.51,154.14,060218,,,A*7D
$GPGGA,030741.000,4806.8440,N,00139.3853,W,1,06,1.5,149.3,M,48.3,M,,0000*49
$GPGSA,M,3,08,01,32,28,14,27,,,,,,,2.9,1.5,2.5*34
$GPRMC,030741.000,A,4806.8440,N,00139.3853,W,1.47,160.88,060218,,,A*71
$GPGGA,030742.000,4806.8436,N,00139.3856,W,1,06,1.5,149.3,M,48.3,M,,0000*4E
$GPGSA,M,3,08,01,32,28,14,27,,,,,,,2.9,1.5,2.5*34
$GPGSV,3,1,11,08,61,159,21,01,57,286,17,32,33,080,19,28,32,297,15*71
$GPGSV,3,2,11,14,30,107,28,27,22,142,20,39,31,144,,11,68,292,*7C
$GPGSV,3,3,11,22,50,212,,03,28,216,,10,20,049,*4F
$GPRMC,030742.000,A,4806.8436,N,00139.3856,W,1.48,164.14,060218,,,A*78
$GPGGA,030743.000,4806.8433,N,00139.3857,W,1,06,1.5,149.3,M,48.3,M,,0000*4B
$GPGSA,M,3,08,01,32,28,14,27,,,,,,,2.9,1.5,2.5*34
arfcn: 1016 bsic: 41 rxLev: -92 ber: 0.03 mcc: 208 mnc: 20 lac: 418 cellId: 23623 cellStatus: CELL_SUITABLE numArfcn: 1 arfcn: 1016 numChannels: 28 array: 787 788 791 792 793 794 795 879 880 883 884 975 977 978 979 981 982 983 986 987 1011 1012 1017 1018 1019 1020 1021 1022 pbcch: 0 nom: 2 rac: 6 spgc: 0 pat: 6 nco: 0 t3168: 1500 t3192: 500 drxmax: 4 ctrlAck: 1 bsCVmax: 8 alpha: 6 pcMeasCh: 1 
$GPRMC,030743.000,A,4806.8433,N,00139.3857,W,1.49,165.16,060218,,,A*7F
$GPGGA,030744.000,4806.8431,N,00139.3861,W,1,06,1.5,149.2,M,48.3,M,,0000*4A
$GPGSA,M,3,08,01,32,28,14,27,,,,,,,2.9,1.5,2.5*34
$GPRMC,030744.000,A,4806.8431,N,00139.3861,W,1.09,165.16,060218,,,A*7B
$GPGGA,030745.000,4806.8429,N,00139.3864,W,1,06,1.5,149.3,M,48.3,M,,0000*46
$GPGSA,M,3,08,01,32,28,14,27,,,,,,,2.9,1.5,2.5*34
$GPRMC,030745.000,A,4806.8429,N,00139.3864,W,1.10,165.16,060218,,,A*7E
$GPGGA,030746.000,4806.8425,N,00139.3864,W,1,06,1.5,149.2,M,48.3,M,,0000*48
$GPGSA,M,3,08,01,32,28,14,27,,,,,,,2.9,1.5,2.5*34
$GPRMC,030746.000,A,4806.8425,N,00139.3864,W,1.30,164.91,060218,,,A*7D
arfcn: 1014 bsic: 31 rxLev: -92 ber: 1.06 mcc: 208 mnc: 20 lac: 418 cellId: 20649 cellStatus: CELL_SUITABLE numArfcn: 1 arfcn: 1014 numChannels: 25 array: 788 789 790 791 793 795 796 879 884 977 978 979 980 981 982 983 984 985 987 1012 1013 1017 1020 1021 1022 pbcch: 0 nom: 2 rac: 6 spgc: 0 pat: 6 nco: 0 t3168: 1500 t3192: 500 drxmax: 0 ctrlAck: 0 bsCVmax: 8 alpha: 6 pcMeasCh: 1 
arfcn: 69 rxLev: -92
arfcn: 70 rxLev: -92
$GPGGA,030747.000,4806.8423,N,00139.3861,W,1,05,1.8,149.2,M,48.3,M,,0000*44
$GPGSA,M,3,08,01,32,14,27,,,,,,,,3.0,1.8,2.4*3A
$GPGSV,3,1,11,08,61,159,20,01,57,286,17,32,33,080,20,14,30,107,28*73
$GPGSV,3,2,11,27,22,142,20,28,32,297,05,33,33,198,,11,68,292,*7D
$GPGSV,3,3,11,22,50,212,,03,28,216,,10,20,049,*4F
$GPRMC,030747.000,A,4806.8423,N,00139.3861,W,1.17,162.31,060218,,,A*76
$GPGGA,030748.000,4806.8420,N,00139.3861,W,1,05,1.8,149.2,M,48.3,M,,0000*48
$GPGSA,M,3,08,01,32,14,27,,,,,,,,3.0,1.8,2.4*3A
$GPRMC,030748.000,A,4806.8420,N,00139.3861,W,0.84,162.31,060218,,,A*71
arfcn: 4 bsic: 54 rxLev: -92 ber: 1.08 mcc: FFF mnc: FF lac: 65535 cellId: 0 cellStatus: CELL_OTHER numArfcn: 0 arfcn: numChannels: 0 array:
arfcn: 53 rxLev: -93
$GPGGA,030749.000,4806.8417,N,00139.3862,W,1,05,1.8,149.1,M,48.3,M,,0000*4D
$GPGSA,M,3,08,01,32,14,27,,,,,,,,3.0,1.8,2.4*3A
$GPRMC,030749.000,A,4806.8417,N,00139.3862,W,0.82,162.31,060218,,,A*71
$GPGGA,030750.000,4806.8415,N,00139.3862,W,1,04,2.0,149.1,M,48.3,M,,0000*4D
$GPGSA,M,3,01,32,14,27,,,,,,,,,3.7,2.0,3.1*3A
arfcn: 115 bsic: 43 rxLev: -93 ber: 0.00 mcc: 208 mnc: 10 lac: 49415 cellId: 55710 cellStatus: CELL_FORBIDDEN numArfcn: 2 arfcn: 87 115 numChannels: 22 array: 76 77 78 79 80 82 83 84 85 86 113 114 115 116 117 118 119 120 121 122 123 124 pbcch: 0 nom: 2 rac: 31 spgc: 0 pat: 6 nco: 0 t3168: 1000 t3192: 500 drxmax: 4 ctrlAck: 1 bsCVmax: 9 alpha: 10 pcMeasCh: 0 
arfcn: 6 rxLev: -93
arfcn: 7 rxLev: -94
$GPRMC,030750.000,A,4806.8415,N,00139.3862,W,0.76,162.31,060218,,,A*70
$GPGGA,030751.000,4806.8413,N,00139.3861,W,1,04,2.0,149.1,M,48.3,M,,0000*49
$GPGSA,M,3,01,32,14,27,,,,,,,,,3.7,2.0,3.1*3A
$GPRMC,030751.000,A,4806.8413,N,00139.3861,W,0.75,162.31,060218,,,A*77
$GPGGA,030752.000,4806.8415,N,00139.3856,W,1,04,2.0,149.1,M,48.3,M,,0000*48
$GPGSA,M,3,01,32,14,27,,,,,,,,,3.7,2.0,3.1*3A
$GPGSV,3,1,11,01,57,286,15,32,33,080,21,14,30,107,28,27,22,142,20*70
$GPGSV,3,2,11,08,61,159,04,28,32,297,07,33,33,198,,11,68,292,*79
$GPGSV,3,3,11,22,50,212,,03,28,216,,10,20,049,*4F
$GPRMC,030752.000,A,4806.8415,N,00139.3856,W,0.74,162.31,060218,,,A*77
$GPGGA,030753.000,4806.8413,N,00139.3851,W,1,04,2.0,149.0,M,48.3,M,,0000*49
$GPGSA,M,3,01,32,14,27,,,,,,,,,3.7,2.0,3.1*3A
$GPRMC,030753.000,A,4806.8413,N,00139.3851,W,0.98,162.31,060218,,,A*75
$GPGGA,030754.000,4806.8412,N,00139.3847,W,1,05,1.5,149.0,M,48.3,M,,0000*4F
$GPGSA,M,3,01,32,14,27,10,,,,,,,,3.0,1.5,2.6*3C
$GPRMC,030754.000,A,4806.8412,N,00139.3847,W,1.00,162.31,060218,,,A*74
$GPGGA,030755.000,4806.8409,N,00139.3830,W,1,05,1.5,149.0,M,48.3,M,,0000*44
$GPGSA,M,3,01,32,14,27,10,,,,,,,,3.0,1.5,2.6*3C
$GPRMC,030755.000,A,4806.8409,N,00139.3830,W,2.00,136.02,060218,,,A*7D
arfcn: 123 bsic: 1 rxLev: -94 ber: 2.01 mcc: 208 mnc: 10 lac: 49415 cellId: 41634 cellStatus: CELL_FORBIDDEN numArfcn: 2 arfcn: 87 123 numChannels: 18 array: 76 77 78 79 80 83 84 85 86 113 114 116 117 118 119 121 123 124 pbcch: 0 nom: 2 rac: 31 spgc: 0 pat: 6 nco: 0 t3168: 1000 t3192: 500 drxmax: 4 ctrlAck: 1 bsCVmax: 9 alpha: 10 pcMeasCh: 0 
arfcn: 120 rxLev: -94
arfcn: 77 rxLev: -94
arfcn: 86 rxLev: -94
arfcn: 90 rxLev: -94
arfcn: 978 rxLev: -94
arfcn: 71 rxLev: -94
arfcn: 47 rxLev: -95
arfcn: 110 rxLev: -95
$GPGGA,030756.000,4806.8412,N,00139.3826,W,1,05,1.5,149.0,M,48.3,M,,0000*4A
arfcn: 52 rxLev: -95
$GPGSA,M,3,01,32,14,27,10,,,,,,,,3.0,1.5,2.6*3C
$GPRMC,030756.000,A,4806.8412,N,00139.3826,W,1.47,125.18,060218,,,A*7A
$GPGGA,030757.000,4806.8413,N,00139.3821,W,1,05,1.5,149.0,M,48.3,M,,0000*4D
$GPGSA,M,3,01,32,14,27,10,,,,,,,,3.0,1.5,2.6*3C
$GPGSV,3,1,11,01,57,286,14,32,33,080,22,14,30,107,28,27,22,142,20*72
$GPGSV,3,2,11,10,20,049,18,08,61,159,04,28,32,297,07,33,33,198,*79
$GPGSV,3,3,11,11,68,292,,22,50,212,,03,28,216,*46
$GPRMC,030757.000,A,4806.8413,N,00139.3821,W,1.33,121.10,060218,,,A*72
$GPGGA,030758.000,4806.8415,N,00139.3814,W,1,05,1.5,148.9,M,48.3,M,,0000*4A
$GPGSA,M,3,01,32,14,27,10,,,,,,,,3.0,1.5,2.6*3C
$GPRMC,030758.000,A,4806.8415,N,00139.3814,W,1.31,116.78,060218,,,A*75
$GPGGA,030759.000,4806.8418,N,00139.3809,W,1,05,1.5,148.9,M,48.3,M,,0000*4A
$GPGSA,M,3,01,32,14,27,10,,,,,,,,3.0,1.5,2.6*3C
arfcn: 1021 bsic: 35 rxLev: -96 ber: 1.01 mcc: 208 mnc: 20 lac: 418 cellId: 20102 cellStatus: CELL_SUITABLE numArfcn: 3 arfcn: 975 982 1021 numChannels: 21 array: 788 790 880 885 975 976 977 978 980 981 982 986 987 1011 1012 1015 1017 1019 1020 1021 1022 pbcch: 0 nom: 2 rac: 7 spgc: 0 pat: 6 nco: 0 t3168: 1500 t3192: 500 drxmax: 4 ctrlAck: 1 bsCVmax: 8 alpha: 6 pcMeasCh: 1 
arfcn: 516 rxLev: -96
arfcn: 72 rxLev: -96
$GPRMC,030759.000,A,4806.8418,N,00139.3809,W,1.29,110.43,060218,,,A*72
arfcn: 84 rxLev: -96
$GPGGA,030800.000,4806.8420,N,00139.3804,W,1,06,1.7,148.9,M,48.3,M,,0000*4E
$GPGSA,M,3,08,01,32,14,27,10,,,,,,,3.6,1.7,3.2*35
$GPRMC,030800.000,A,4806.8420,N,00139.3804,W,1.08,110.43,060218,,,A*74
$GPGGA,030801.000,4806.8421,N,00139.3801,W,1,06,1.7,149.0,M,48.3,M,,0000*43
$GPGSA,M,3,08,01,32,14,27,10,,,,,,,3.6,1.7,3.2*35
$GPRMC,030801.000,A,4806.8421,N,00139.3801,W,0.94,110.43,060218,,,A*75
arfcn: 82 bsic: 63 rxLev: -96 ber: 0.01 mcc: 208 mnc: 10 lac: 49415 cellId: 53517 cellStatus: CELL_FORBIDDEN numArfcn: 2 arfcn: 82 84 numChannels: 17 array: 76 77 78 79 80 82 85 86 114 115 118 119 120 121 122 123 124 pbcch: 0 nom: 2 rac: 31 spgc: 0 pat: 6 nco: 0 t3168: 1000 t3192: 500 drxmax: 4 ctrlAck: 1 bsCVmax: 9 alpha: 10 pcMeasCh: 0 
arfcn: 15 rxLev: -97
$GPGGA,030802.000,4806.8423,N,00139.3798,W,1,06,1.7,148.9,M,48.3,M,,0000*45
$GPGSA,M,3,08,01,32,14,27,10,,,,,,,3.6,1.7,3.2*35
$GPGSV,3,1,11,08,61,159,12,01,57,286,14,32,33,080,23,14,30,107,28*72
$GPGSV,3,2,11,27,22,142,20,10,20,049,19,28,32,297,04,33,33,198,*7D
$GPGSV,3,3,11,11,68,292,,22,50,212,,03,28,216,*46
$GPRMC,030802.000,A,4806.8423,N,00139.3798,W,0.84,110.43,060218,,,A*7A
$GPGGA,030803.000,4806.8424,N,00139.3795,W,1,06,1.7,148.9,M,48.3,M,,0000*4E
$GPGSA,M,3,08,01,32,14,27,10,,,,,,,3.6,1.7,3.2*35
$GPRMC,030803.000,A,4806.8424,N,00139.3795,W,0.73,110.43,060218,,,A*79
arfcn: 1020 bsic: 39 rxLev: -97 ber: 1.06 mcc: 208 mnc: 20 lac: 418 cellId: 38980 cellStatus: CELL_SUITABLE numArfcn: 1 arfcn: 1020 numChannels: 26 array: 787 788 790 791 793 795 796 879 884 885 978 979 981 982 983 985 986 987 1011 1012 1013 1014 1015 1017 1019 1022 pbcch: 0 nom: 2 rac: 6 spgc: 0 pat: 6 nco: 0 t3168: 1500 t3192: 500 drxmax: 0 ctrlAck: 0 bsCVmax: 8 alpha: 6 pcMeasCh: 1 
arfcn: 729 rxLev: -97
$GPGGA,030804.000,4806.8425,N,00139.3796,W,1,06,1.7,148.9,M,48.3,M,,0000*4B
$GPGSA,M,3,08,01,32,14,27,10,,,,,,,3.6,1.7,3.2*35
$GPRMC,030804.000,A,4806.8425,N,00139.3796,W,0.52,110.43,060218,,,A*7F
$GPGGA,030805.000,4806.8427,N,00139.3799,W,1,06,1.7,148.8,M,48.3,M,,0000*46
$GPGSA,M,3,08,01,32,14,27,10,,,,,,,3.6,1.7,3.2*35
$GPRMC,030805.000,A,4806.8427,N,00139.3799,W,0.17,110.43,060218,,,A*72
$GPGGA,030806.000,4806.8429,N,00139.3803,W,1,05,1.5,148.8,M,48.3,M,,0000*46
$GPGSA,M,3,01,32,14,27,10,,,,,,,,3.0,1.5,2.6*3C
$GPRMC,030806.000,A,4806.8429,N,00139.3803,W,0.23,110.43,060218,,,A*74
arfcn: 1015 bsic: 59 rxLev: -97 ber: 3.01 mcc: 208 mnc: 20 lac: 418 cellId: 22494 cellStatus: CELL_SUITABLE numArfcn: 1 arfcn: 1015 numChannels: 24 array: 788 789 790 792 794 880 883 884 885 976 978 979 980 981 982 986 987 1013 1014 1017 1018 1019 1020 1021 pbcch: 0 nom: 2 rac: 7 spgc: 0 pat: 6 nco: 0 t3168: 1500 t3192: 500 drxmax: 0 ctrlAck: 0 bsCVmax: 8 alpha: 6 pcMeasCh: 1 
arfcn: 517 rxLev: -97
$GPGGA,030807.000,4806.8431,N,00139.3812,W,1,06,1.3,148.8,M,48.3,M,,0000*4B
$GPGSA,M,3,01,32,28,14,27,10,,,,,,,3.4,1.3,3.1*32
$GPGSV,3,1,11,01,57,286,08,32,33,080,23,28,32,297,12,14,30,107,29*7B
$GPGSV,3,2,11,27,22,142,20,10,20,049,20,08,61,159,04,33,33,198,*72
$GPGSV,3,3,11,11,68,292,,22,50,212,,03,28,216,*46
$GPRMC,030807.000,A,4806.8431,N,00139.3812,W,0.65,110.43,060218,,,A*7E
$GPGGA,030808.000,4806.8434,N,00139.3814,W,1,06,1.3,148.8,M,48.3,M,,0000*47
$GPGSA,M,3,01,32,28,14,27,10,,,,,,,3.4,1.3,3.1*32
arfcn: 610 bsic: 1 rxLev: -97 ber: 0.03 mcc: FFF mnc: FF lac: 65535 cellId: 0 cellStatus: CELL_OTHER numArfcn: 0 arfcn: numChannels: 0 array:
arfcn: 609 rxLev: -98
$GPRMC,030808.000,A,4806.8434,N,00139.3814,W,0.34,110.43,060218,,,A*76
$GPGGA,030809.000,4806.8437,N,00139.3817,W,1,05,1.3,148.7,M,48.3,M,,0000*4A
$GPGSA,M,3,32,28,14,27,10,,,,,,,,3.0,1.3,2.7*30
$GPRMC,030809.000,A,4806.8437,N,00139.3817,W,0.50,110.43,060218,,,A*75
$GPGGA,030810.000,4806.8441,N,00139.3820,W,1,05,1.3,148.7,M,48.3,M,,0000*47
$GPGSA,M,3,32,28,14,27,10,,,,,,,,3.0,1.3,2.7*30
$GPRMC,030810.000,A,4806.8441,N,00139.3820,W,0.48,110.43,060218,,,A*71
$GPGGA,030811.000,4806.8441,N,00139.3822,W,1,05,1.3,148.7,M,48.3,M,,0000*44
$GPGSA,M,3,32,28,14,27,10,,,,,,,,3.0,1.3,2.7*30
$GPRMC,030811.000,A,4806.8441,N,00139.3822,W,0.19,110.43,060218,,,A*76
$GPGGA,030812.000,4806.8444,N,00139.3823,W,1,05,1.3,148.7,M,48.3,M,,0000*43
$GPGSA,M,3,32,28,14,27,10,,,,,,,,3.0,1.3,2.7*30
arfcn: 515 bsic: 34 rxLev: -98 ber: 0.00 mcc: 208 mnc: 01 lac: 10300 cellId: 27586 cellStatus: CELL_FORBIDDEN numArfcn: 16 arfcn: 519 520 521 522 523 524 525 526 596 597 598 599 600 601 602 603 numChannels: 9 array: 1 8 12 512 513 516 605 606 607 pbcch: 0 nom: 2 rac: 1 spgc: 0 pat: 6 nco: 0 t3168: 1000 t3192: 500 drxmax: 2 ctrlAck: 0 bsCVmax: 9 alpha: 5 pcMeasCh: 1 
arfcn: 25 rxLev: -98
$GPGSV,3,1,11,32,33,080,23,28,32,297,12,14,30,107,29,27,22,142,20*7C
$GPGSV,3,2,11,10,20,049,20,01,57,286,07,33,33,198,,11,68,292,*7B
$GPGSV,3,3,11,08,61,159,,22,50,212,,03,28,216,*43
$GPRMC,030812.000,A,4806.8444,N,00139.3823,W,0.21,110.43,060218,,,A*7A
$GPGGA,030813.000,4806.8445,N,00139.3825,W,1,05,1.3,148.7,M,48.3,M,,0000*45
$GPGSA,M,3,32,28,14,27,10,,,,,,,,3.0,1.3,2.7*30
$GPRMC,030813.000,A,4806.8445,N,00139.3825,W,0.15,110.43,060218,,,A*7B
$GPGGA,030814.000,4806.8448,N,00139.3824,W,1,06,1.3,148.7,M,48.3,M,,0000*4D
$GPGSA,M,3,01,32,28,14,27,10,,,,,,,3.4,1.3,3.1*32
arfcn: 118 bsic: 3 rxLev: -98 ber: 7.05 mcc: 208 mnc: 10 lac: 49415 cellId: 45270 cellStatus: CELL_FORBIDDEN numArfcn: 2 arfcn: 86 118 numChannels: 22 array: 76 77 78 79 80 81 82 83 84 85 86 114 115 116 117 118 119 120 121 122 123 124 pbcch: 0 nom: 2 rac: 31 spgc: 0 pat: 6 nco: 0 t3168: 1000 t3192: 500 drxmax: 4 ctrlAck: 1 bsCVmax: 9 alpha: 10 pcMeasCh: 0 
$GPRMC,030814.000,A,4806.8448,N,00139.3824,W,0.35,110.43,060218,,,A*72
$GPGGA,030815.000,4806.8451,N,00139.3821,W,1,06,1.3,148.6,M,48.3,M,,0000*40
$GPGSA,M,3,01,32,28,14,27,10,,,,,,,3.4,1.3,3.1*32
$GPRMC,030815.000,A,4806.8451,N,00139.3821,W,0.92,110.43,060218,,,A*73
$GPGGA,030816.000,4806.8453,N,00139.3818,W,1,06,1.3,148.6,M,48.3,M,,0000*4B
$GPGSA,M,3,01,32,28,14,27,10,,,,,,,3.4,1.3,3.1*32
$GPRMC,030816.000,A,4806.8453,N,00139.3818,W,1.07,110.43,060218,,,A*75
$GPGGA,030817.000,4806.8453,N,00139.3818,W,1,06,1.3,148.6,M,48.3,M,,0000*4A
$GPGSA,M,3,01,32,28,14,27,10,,,,,,,3.4,1.3,3.1*32
$GPGSV,3,1,11,01,57,286,08,32,33,080,23,28,32,297,11,14,30,107,28*79
arfcn: 987 bsic: 40 rxLev: -98 ber: 3.09 mcc: 208 mnc: 20 lac: 418 cellId: 22381 cellStatus: CELL_SUITABLE numArfcn: 2 arfcn: 987 1018 numChannels: 25 array: 790 792 793 796 878 882 884 976 977 978 979 981 982 983 984 986 1011 1013 1014 1015 1016 1017 1019 1020 1022 pbcch: 0 nom: 2 rac: 6 spgc: 0 pat: 6 nco: 0 t3168: 1500 t3192: 500 drxmax: 0 ctrlAck: 0 bsCVmax: 8 alpha: 6 pcMeasCh: 1 
$GPGSV,3,2,11,27,22,142,20,10,20,049,20,37,27,150,,11,68,292,*76
$GPGSV,3,3,11,08,61,159,,22,50,212,,03,28,216,*43
$GPRMC,030817.000,A,4806.8453,N,00139.3818,W,0.89,110.43,060218,,,A*73
$GPGGA,030818.000,4806.8454,N,00139.3817,W,1,06,1.3,148.6,M,48.3,M,,0000*4D
$GPGSA,M,3,01,32,28,14,27,10,,,,,,,3.4,1.3,3.1*32
$GPRMC,030818.000,A,4806.8454,N,00139.3817,W,0.61,110.43,060218,,,A*72
$GPGGA,030819.000,4806.8458,N,00139.3817,W,1,06,1.3,148.6,M,48.3,M,,0000*40
$GPGSA,M,3,01,32,28,14,27,10,,,,,,,3.4,1.3,3.1*32
$GPRMC,030819.000,A,4806.8458,N,00139.3817,W,0.55,110.43,060218,,,A*78
arfcn: 1019 bsic: 48 rxLev: -98 ber: 4.10 mcc: 208 mnc: 20 lac: 418 cellId: 20015 cellStatus: CELL_OTHER numArfcn: 2 arfcn: 1010 1019 numChannels: 20 array: 787 789 794 882 976 979 981 982 983 985 986 987 1012 1013 1015 1016 1017 1020 1021 1022 pbcch: 0 nom: 2 rac: 6 spgc: 0 pat: 6 nco: 0 t3168: 1500 t3192: 500 drxmax: 0 ctrlAck: 0 bsCVmax: 8 alpha: 4 pcMeasCh: 1 
arfcn: 617 rxLev: -99
arfcn: 121 rxLev: -99
arfcn: 116 rxLev: -99
arfcn: 75 rxLev: -99
$GPGGA,030820.000,4806.8460,N,00139.3818,W,1,06,1.3,148.5,M,48.3,M,,0000*4D
arfcn: 111 rxLev: -99
$GPGSA,M,3,01,32,28,14,27,10,,,,,,,3.4,1.3,3.1*32
arfcn: 618 rxLev: -99
arfcn: 607 rxLev: -99
$GPRMC,030820.000,A,4806.8460,N,00139.3818,W,0.52,110.43,060218,,,A*71
arfcn: 638 rxLev: -99
arfcn: 650 rxLev: -99
arfcn: 660 rxLev: -99
arfcn: 648 rxLev: -100
arfcn: 661 rxLev: -100
arfcn: 662 rxLev: -100
arfcn: 663 rxLev: -100
arfcn: 669 rxLev: -100
arfcn: 619 rxLev: -100
$GPGGA,030821.000,4806.8462,N,00139.3819,W,1,06,1.3,148.5,M,48.3,M,,0000*4F
arfcn: 620 rxLev: -100
$GPGSA,M,3,01,32,28,14,27,10,,,,,,,3.4,1.3,3.1*32
arfcn: 625 rxLev: -100
arfcn: 975 rxLev: -100
$GPRMC,030821.000,A,4806.8462,N,00139.3819,W,0.46,110.43,060218,,,A*76
arfcn: 83 rxLev: -100
arfcn: 73 rxLev: -100
arfcn: 626 rxLev: -100
arfcn: 628 rxLev: -100
arfcn: 664 rxLev: -100
arfcn: 681 rxLev: -100
$GPGGA,030822.000,4806.8467,N,00139.3816,W,1,05,1.3,148.5,M,48.3,M,,0000*45
arfcn: 682 rxLev: -100
arfcn: 652 rxLev: -100
$GPGSA,M,3,32,28,14,27,10,,,,,,,,3.0,1.3,2.7*30
arfcn: 658 rxLev: -100
arfcn: 631 rxLev: -100
$GPGSV,3,1,11,32,33,080,23,28,32,297,12,14,30,107,28,27,22,142,19*77
arfcn: 632 rxLev: -100
arfcn: 635 rxLev: -100
$GPGSV,3,2,11,10,20,049,21,01,57,286,08,37,27,150,,11,68,292,*70
arfcn: 636 rxLev: -100
$GPGSV,3,3,11,08,61,159,,22,50,212,,03,28,216,*43
arfcn: 758 rxLev: -100
arfcn: 759 rxLev: -101
$GPRMC,030822.000,A,4806.8467,N,00139.3816,W,1.11,110.43,060218,,,A*7C
arfcn: 750 rxLev: -101
arfcn: 730 rxLev: -101
arfcn: 703 rxLev: -101
$GPGGA,030823.000,4806.8470,N,00139.3812,W,1,05,1.3,148.5,M,48.3,M,,0000*46
arfcn: 630 rxLev: -101
arfcn: 640 rxLev: -101
$GPGSA,M,3,32,28,14,27,10,,,,,,,,3.0,1.3,2.7*30
arfcn: 642 rxLev: -101
arfcn: 644 rxLev: -101
$GPRMC,030823.000,A,4806.8470,N,00139.3812,W,1.28,90.88,060218,,,A*4B
arfcn: 659 rxLev: -101
arfcn: 654 rxLev: -101
arfcn: 655 rxLev: -101
arfcn: 651 rxLev: -101
arfcn: 649 rxLev: -101
arfcn: 646 rxLev: -101
arfcn: 683 rxLev: -101
$GPGGA,030824.000,4806.8475,N,00139.3810,W,1,05,1.3,148.4,M,48.3,M,,0000*47
arfcn: 679 rxLev: -101
$GPGSA,M,3,32,28,14,27,10,,,,,,,,3.0,1.3,2.7*30
arfcn: 685 rxLev: -101
arfcn: 665 rxLev: -101
$GPRMC,030824.000,A,4806.8475,N,00139.3810,W,1.38,79.77,060218,,,A*4D
arfcn: 666 rxLev: -101
arfcn: 667 rxLev: -101
arfcn: 621 rxLev: -101
arfcn: 623 rxLev: -101
arfcn: 624 rxLev: -101
arfcn: 603 rxLev: -101
arfcn: 976 rxLev: -101
arfcn: 977 rxLev: -101
arfcn: 622 rxLev: -101
$GPGGA,030825.000,4806.8478,N,00139.3813,W,1,05,1.3,148.4,M,48.3,M,,0000*48
arfcn: 627 rxLev: -101
$GPGSA,M,3,32,28,14,27,10,,,,,,,,3.0,1.3,2.7*30
arfcn: 680 rxLev: -101
arfcn: 677 rxLev: -101
$GPRMC,030825.000,A,4806.8478,N,00139.3813,W,0.84,79.77,060218,,,A*44
arfcn: 645 rxLev: -101
arfcn: 647 rxLev: -101
arfcn: 656 rxLev: -101
arfcn: 653 rxLev: -101
arfcn: 629 rxLev: -101
arfcn: 634 rxLev: -101
arfcn: 706 rxLev: -101
arfcn: 693 rxLev: -101
$GPGGA,030826.000,4806.8478,N,00139.3816,W,1,05,1.3,148.4,M,48.3,M,,0000*4E
arfcn: 696 rxLev: -101
$GPGSA,M,3,32,28,14,27,10,,,,,,,,3.0,1.3,2.7*30
arfcn: 699 rxLev: -101
arfcn: 717 rxLev: -101
$GPRMC,030826.000,A,4806.8478,N,00139.3816,W,0.30,79.77,060218,,,A*4D
arfcn: 749 rxLev: -101
arfcn: 742 rxLev: -101
arfcn: 744 rxLev: -101
arfcn: 746 rxLev: -101
arfcn: 734 rxLev: -102
arfcn: 752 rxLev: -102
arfcn: 725 rxLev: -102
arfcn: 715 rxLev: -102
$GPGGA,030827.000,4806.8480,N,00139.3816,W,1,05,1.3,148.4,M,48.3,M,,0000*48
arfcn: 704 rxLev: -102
arfcn: 633 rxLev: -102
$GPGSA,M,3,32,28,14,27,10,,,,,,,,3.0,1.3,2.7*30
arfcn: 643 rxLev: -102
arfcn: 639 rxLev: -102
$GPGSV,3,1,11,32,33,080,23,28,32,297,12,14,30,107,29,27,22,142,19*76
arfcn: 657 rxLev: -102
$GPGSV,3,2,11,10,20,049,21,01,57,286,06,03,28,216,11,37,27,150,*75
arfcn: 684 rxLev: -102
arfcn: 691 rxLev: -102
$GPGSV,3,3,11,11,68,292,,08,61,159,,22,50,212,*48
arfcn: 668 rxLev: -102
arfcn: 670 rxLev: -102
$GPRMC,030827.000,A,4806.8480,N,00139.3816,W,0.49,79.77,060218,,,A*45
arfcn: 671 rxLev: -102
arfcn: 672 rxLev: -102
$GPGGA,030828.000,4806.8482,N,00139.3816,W,1,05,1.3,148.4,M,48.3,M,,0000*45
arfcn: 673 rxLev: -102
$GPGSA,M,3,32,28,14,27,10,,,,,,,,3.0,1.3,2.7*30
arfcn: 674 rxLev: -102
arfcn: 675 rxLev: -102
$GPRMC,030828.000,A,4806.8482,N,00139.3816,W,0.64,79.77,060218,,,A*47
$GPGGA,030829.000,4806.8484,N,00139.3812,W,1,06,1.0,148.4,M,48.3,M,,0000*46
$GPGSA,M,3,32,28,14,03,27,10,,,,,,,5.6,1.0,5.5*35
$GPRMC,030829.000,A,4806.8484,N,00139.3812,W,1.23,84.11,060218,,,A*44
$GPGGA,030830.000,4806.8486,N,00139.3810,W,1,06,1.0,148.4,M,48.3,M,,0000*4E
$GPGSA,M,3,32,28,14,03,27,10,,,,,,,5.5,1.0,5.5*36
$GPRMC,030830.000,A,4806.8486,N,00139.3810,W,0.89,84.11,060218,,,A*4D
$GPGGA,030831.000,4806.8485,N,00139.3808,W,1,06,1.0,148.4,M,48.3,M,,0000*45
arfcn: 1012 bsic: 19 rxLev: -102 ber: 5.04 mcc: 208 mnc: 20 lac: 418 cellId: 20011 cellStatus: CELL_OTHER numArfcn: 2 arfcn: 988 1012 numChannels: 24 array: 787 789 794 882 976 977 978 979 980 981 982 983 985 986 987 1011 1013 1014 1015 1016 1017 1019 1020 1021 pbcch: 0 nom: 2 rac: 6 spgc: 0 pat: 6 nco: 0 t3168: 1500 t3192: 500 drxmax: 0 ctrlAck: 0 bsCVmax: 8 alpha: 4 pcMeasCh: 1 
arfcn: 89 rxLev: -102
$GPGSA,M,3,32,28,14,03,27,10,,,,,,,5.5,1.0,5.4*37
arfcn: 51 rxLev: -102
$GPRMC,030831.000,A,4806.8485,N,00139.3808,W,1.07,84.11,060218,,,A*41
$GPGGA,030832.000,4806.8487,N,00139.3806,W,1,06,1.0,148.4,M,48.3,M,,0000*4A
$GPGSA,M,3,32,28,14,03,27,10,,,,,,,5.5,1.0,5.4*37
$GPGSV,3,1,11,32,33,080,23,28,32,297,13,14,30,107,28,03,28,216,11*70
$GPGSV,3,2,11,27,22,142,19,10,20,049,21,01,57,286,06,37,27,150,*73
$GPGSV,3,3,11,11,68,292,,08,61,159,,22,50,212,*48
$GPRMC,030832.000,A,4806.8487,N,00139.3806,W,0.71,84.11,060218,,,A*4E
$GPGGA,030833.000,4806.8491,N,00139.3801,W,1,06,1.0,148.4,M,48.3,M,,0000*4B
$GPGSA,M,3,32,28,14,03,27,10,,,,,,,5.5,1.0,5.4*37
$GPRMC,030833.000,A,4806.8491,N,00139.3801,W,1.19,85.14,060218,,,A*44
$GPGGA,030834.000,4806.8492,N,00139.3799,W,1,06,1.0,148.3,M,48.3,M,,0000*46
$GPGSA,M,3,32,28,14,03,27,10,,,,,,,5.5,1.0,5.4*37
$GPRMC,030834.000,A,4806.8492,N,00139.3799,W,0.93,85.14,060218,,,A*4D
$GPGGA,030835.000,4806.8492,N,00139.3799,W,1,05,1.3,148.4,M,48.3,M,,0000*40
$GPGSA,M,3,32,28,14,27,10,,,,,,,,3.0,1.3,2.7*30
$GPRMC,030835.000,A,4806.8492,N,00139.3799,W,0.65,85.14,060218,,,A*45
$GPGGA,030836.000,4806.8493,N,00139.3798,W,1,05,1.3,148.3,M,48.3,M,,0000*44
$GPGSA,M,3,32,28,14,27,10,,,,,,,,3.0,1.3,2.7*30
arfcn: 1011 bsic: 26 rxLev: -102 ber: 10.06 mcc: 208 mnc: 20 lac: 418 cellId: 17727 cellStatus: CELL_SUITABLE numArfcn: 1 arfcn: 1011 numChannels: 0 array:
arfcn: 676 rxLev: -102
$GPRMC,030836.000,A,4806.8493,N,00139.3798,W,0.60,85.14,060218,,,A*43
arfcn: 689 rxLev: -102
arfcn: 687 rxLev: -102
arfcn: 678 rxLev: -102
arfcn: 637 rxLev: -102
arfcn: 702 rxLev: -102
arfcn: 705 rxLev: -102
arfcn: 697 rxLev: -102
$GPGGA,030837.000,4806.8494,N,00139.3799,W,1,05,1.3,148.3,M,48.3,M,,0000*43
arfcn: 695 rxLev: -102
arfcn: 731 rxLev: -102
$GPGSA,M,3,32,28,14,27,10,,,,,,,,3.0,1.3,2.7*30
arfcn: 718 rxLev: -102
$GPGSV,3,1,11,32,33,080,23,28,32,297,13,14,30,107,28,27,22,142,20*7C
arfcn: 719 rxLev: -102
arfcn: 740 rxLev: -102
$GPGSV,3,2,11,10,20,049,20,01,57,286,04,03,28,216,04,37,27,150,*72
arfcn: 747 rxLev: -102
arfcn: 748 rxLev: -102
$GPGSV,3,3,11,11,68,292,,08,61,159,,22,50,212,*48
arfcn: 735 rxLev: -103
arfcn: 760 rxLev: -103
$GPRMC,030837.000,A,4806.8494,N,00139.3799,W,0.58,85.14,060218,,,A*4F
arfcn: 727 rxLev: -103
arfcn: 701 rxLev: -103
arfcn: 779 rxLev: -103
$GPGGA,030838.000,4806.8493,N,00139.3800,W,1,05,1.3,148.3,M,48.3,M,,0000*44
arfcn: 641 rxLev: -103
arfcn: 692 rxLev: -103
$GPGSA,M,3,32,28,14,27,10,,,,,,,,3.0,1.3,2.7*30
arfcn: 119 rxLev: -103
arfcn: 0 rxLev: -103
$GPRMC,030838.000,A,4806.8493,N,00139.3800,W,0.66,85.14,060218,,,A*45
arfcn: 1018 rxLev: -103
arfcn: 777 rxLev: -103
arfcn: 768 rxLev: -103
arfcn: 769 rxLev: -103
arfcn: 716 rxLev: -103
arfcn: 694 rxLev: -103
$GPGGA,030839.000,4806.8493,N,00139.3802,W,1,05,1.3,148.3,M,48.3,M,,0000*47
arfcn: 698 rxLev: -103
$GPGSA,M,3,32,28,14,27,10,,,,,,,,3.0,1.3,2.7*30
arfcn: 700 rxLev: -103
arfcn: 726 rxLev: -103
$GPRMC,030839.000,A,4806.8493,N,00139.3802,W,0.38,85.14,060218,,,A*4D
arfcn: 720 rxLev: -103
arfcn: 721 rxLev: -103
arfcn: 722 rxLev: -103
arfcn: 724 rxLev: -103
arfcn: 751 rxLev: -103
arfcn: 754 rxLev: -103
arfcn: 733 rxLev: -103
arfcn: 738 rxLev: -103
arfcn: 745 rxLev: -103
$GPGGA,030840.000,4806.8493,N,00139.3810,W,1,05,1.3,148.3,M,48.3,M,,0000*4A
arfcn: 741 rxLev: -103
$GPGSA,M,3,32,28,14,27,10,,,,,,,,3.0,1.3,2.7*30
arfcn: 743 rxLev: -104
arfcn: 736 rxLev: -104
$GPRMC,030840.000,A,4806.8493,N,00139.3810,W,0.22,85.14,060218,,,A*4B
arfcn: 761 rxLev: -104
arfcn: 762 rxLev: -104
arfcn: 723 rxLev: -104
arfcn: 728 rxLev: -104
arfcn: 732 rxLev: -104
arfcn: 765 rxLev: -104
arfcn: 766 rxLev: -104
$GPGGA,030841.000,4806.8497,N,00139.3820,W,1,05,1.3,148.3,M,48.3,M,,0000*4C
arfcn: 788 rxLev: -104
$GPGSA,M,3,32,28,14,27,10,,,,,,,,3.0,1.3,2.7*30
arfcn: 688 rxLev: -104
arfcn: 686 rxLev: -104
$GPRMC,030841.000,A,4806.8497,N,00139.3820,W,0.92,85.14,060218,,,A*46
arfcn: 690 rxLev: -104
arfcn: 1013 rxLev: -104
arfcn: 988 rxLev: -104
arfcn: 767 rxLev: -104
arfcn: 770 rxLev: -104
arfcn: 771 rxLev: -104
arfcn: 739 rxLev: -104
arfcn: 756 rxLev: -105
arfcn: 772 rxLev: -105
$GPGGA,030842.000,4806.8498,N,00139.3827,W,1,05,1.3,148.2,M,48.3,M,,0000*46
arfcn: 773 rxLev: -105
$GPGSA,M,3,32,28,14,27,10,,,,,,,,3.0,1.3,2.7*30
arfcn: 774 rxLev: -105
arfcn: 776 rxLev: -105
$GPGSV,3,1,11,32,33,080,24,28,32,297,13,14,30,107,28,27,22,142,20*7B
arfcn: 790 rxLev: -105
arfcn: 113 rxLev: -105
$GPGSV,3,2,11,10,20,049,19,01,57,286,04,03,28,216,04,37,27,150,*78
arfcn: 16 rxLev: -105
$GPGSV,3,3,11,11,68,292,,08,61,159,,22,50,212,*48
arfcn: 549 rxLev: -105
$GPRMC,030842.000,A,4806.8498,N,00139.3827,W,1.00,85.14,060218,,,A*47
arfcn: 518 rxLev: -105
arfcn: 74 rxLev: -105
arfcn: 781 rxLev: -105
$GPGGA,030843.000,4806.8501,N,00139.3836,W,1,06,1.3,148.2,M,48.3,M,,0000*45
arfcn: 782 rxLev: -105
$GPGSA,M,3,01,32,28,14,27,10,,,,,,,3.3,1.3,3.1*35
arfcn: 775 rxLev: -105
arfcn: 778 rxLev: -105
$GPRMC,030843.000,A,4806.8501,N,00139.3836,W,1.19,32.82,060218,,,A*4C
arfcn: 753 rxLev: -105
arfcn: 764 rxLev: -105
arfcn: 737 rxLev: -105
arfcn: 763 rxLev: -106
arfcn: 757 rxLev: -106
arfcn: 755 rxLev: -106
arfcn: 780 rxLev: -106
arfcn: 786 rxLev: -106
arfcn: 1023 rxLev: -106
$GPGGA,030844.000,4806.8504,N,00139.3844,W,1,06,1.3,148.2,M,48.3,M,,0000*42
arfcn: 1022 rxLev: -106
$GPGSA,M,3,01,32,28,14,27,10,,,,,,,3.3,1.3,3.1*35
arfcn: 1010 rxLev: -107
arfcn: 789 rxLev: -107
$GPRMC,030844.000,A,4806.8504,N,00139.3844,W,1.42,1.14,060218,,,A*7A
arfcn: 545 rxLev: -107
arfcn: 546 rxLev: -107
arfcn: 48 rxLev: -107
arfcn: 616 rxLev: -108
Network survey ended
Survey end at #CCLK: "18/02/06,04:08:45+04"
Survey duration: 154 seconds, 43 bases detected over 433 freqs scanned.
$GPGGA,030845.000,4806.8509,N,00139.3849,W,1,06,1.3,148.2,M,48.3,M,,0000*43
