$GPGSA,M,3,25,12,24,02,06,,,,,,,,4.4,2.5,3.7*3B
$GPGSV,3,1,12,25,71,285,22,12,59,057,26,24,33,129,18,02,24,089,14*7A
$GPGSV,3,2,12,06,18,052,27,19,03,036,16,33,33,198,,32,45,264,*7F
$GPGSV,3,3,12,14,37,297,,29,36,190,,31,20,303,,04,16,120,*71
$GPRMC,172749.000,A,4806.8664,N,00139.4207,W,0.59,1.33,140218,,,A*7D
Survey start at #CCLK: "18/02/14,18:27:50+04"
at#csurv
Network survey started ...
$GPGGA,172750.000,4806.8670,N,00139.4170,W,1,05,2.5,51.8,M,48.3,M,,0000*73
$GPGSA,M,3,25,12,24,02,06,,,,,,,,4.4,2.5,3.7*3B
$GPRMC,172750.000,A,4806.8670,N,00139.4170,W,0.60,1.33,140218,,,A*79
Survey end at #CCLK: "18/02/14,18:27:50+04"
Survey duration: 0 seconds, 0 bases detected over 0 freqs scanned.
$GPGGA,172751.000,4806.8675,N,00139.4149,W,1,05,2.5,54.6,M,48.3,M,,0000*76
$GPGSA,M,3,25,12,24,02,06,,,,,,,,4.4,2.5,3.7*3B
$GPRMC,172751.000,A,4806.8675,N,00139.4149,W,0.87,1.33,140218,,,A*7E
$GPGGA,172752.000,4806.8675,N,00139.4128,W,1,05,2.5,57.0,M,48.3,M,,0000*77
$GPGSA,M,3,25,12,24,02,06,,,,,,,,4.4,2.5,3.7*3B
$GPRMC,172752.000,A,4806.8675,N,00139.4128,W,1.10,1.33,140218,,,A*75
Survey start at #CCLK: "18/02/14,18:27:52+04"
at#csurv
Network survey started ...
Survey end at #CCLK: "18/02/14,18:27:52+04"
Survey duration: 0 seconds, 0 bases detected over 0 freqs scanned.
$GPGGA,172753.000,4806.8675,N,00139.4117,W,1,05,2.5,57.5,M,48.3,M,,0000*7F
$GPGSA,M,3,25,12,24,02,06,,,,,,,,4.4,2.5,3.7*3B
$GPRMC,172753.000,A,4806.8675,N,00139.4117,W,1.33,41.59,140218,,,A*41
$GPGGA,172754.000,4806.8676,N,00139.4114,W,1,05,2.5,58.6,M,48.3,M,,0000*74
$GPGSA,M,3,25,12,24,02,06,,,,,,,,4.4,2.5,3.7*3B
$GPGSV,3,1,12,25,71,285,21,12,59,057,26,24,33,129,17,02,24,089,13*71
Survey start at #CCLK: "18/02/14,18:27:54+04"
at#csurv
Network survey started ...
$GPGSV,3,2,12,06,18,052,26,19,03,036,20,33,33,198,,32,45,264,*7B
$GPGSV,3,3,12,14,37,297,,29,36,190,,31,20,303,,04,16,120,*71
$GPRMC,172754.000,A,4806.8676,N,00139.4114,W,0.82,41.59,140218,,,A*4D
$GPGGA,172755.000,4806.8674,N,00139.4106,W,1,05,2.5,60.5,M,48.3,M,,0000*7C
$GPGSA,M,3,25,12,24,02,06,,,,,,,,4.4,2.5,3.7*3B
$GPRMC,172755.000,A,4806.8674,N,00139.4106,W,0.71,41.59,140218,,,A*41
$GPGGA,172756.000,4806.8675,N,00139.4094,W,1,05,2.5,61.8,M,48.3,M,,0000*78
$GPGSA,M,3,25,12,24,02,06,,,,,,,,4.4,2.5,3.7*3B
$GPRMC,172756.000,A,4806.8675,N,00139.4094,W,0.90,41.59,140218,,,A*46
$GPGGA,172757.000,4806.8675,N,00139.4089,W,1,05,2.5,62.3,M,48.3,M,,0000*7D
$GPGSA,M,3,25,12,24,02,06,,,,,,,,4.4,2.5,3.7*3B
$GPRMC,172757.000,A,4806.8675,N,00139.4089,W,0.84,41.59,140218,,,A*4E
$GPGGA,172758.000,4806.8674,N,00139.4077,W,1,05,2.5,63.7,M,48.3,M,,0000*77
$GPGSA,M,3,25,12,24,02,06,,,,,,,,4.4,2.5,3.7*3B
$GPRMC,172758.000,A,4806.8674,N,00139.4077,W,1.13,41.59,140218,,,A*4E
$GPGGA,172759.000,4806.8668,N,00139.4057,W,1,05,2.5,65.9,M,48.3,M,,0000*71
$GPGSA,M,3,25,12,24,02,06,,,,,,,,4.4,2.5,3.7*3B
$GPGSV,3,1,12,25,71,285,20,12,59,057,26,24,33,129,17,02,24,089,16*75
$GPGSV,3,2,12,06,18,052,26,19,03,036,19,33,33,198,,32,45,264,*71
$GPGSV,3,3,12,14,37,297,,29,36,190,,31,20,303,,04,16,120,*71
$GPRMC,172759.000,A,4806.8668,N,00139.4057,W,1.61,74.53,140218,,,A*49
$GPGGA,172800.000,4806.8664,N,00139.4040,W,1,05,2.5,68.2,M,48.3,M,,0000*7E
$GPGSA,M,3,25,12,24,02,06,,,,,,,,4.4,2.5,3.7*3B
$GPRMC,172800.000,A,4806.8664,N,00139.4040,W,1.71,86.68,140218,,,A*44
$GPGGA,172801.000,4806.8658,N,00139.4025,W,1,05,2.5,69.8,M,48.3,M,,0000*78
$GPGSA,M,3,25,12,24,02,06,,,,,,,,4.4,2.5,3.7*3B
$GPRMC,172801.000,A,4806.8658,N,00139.4025,W,1.97,98.04,140218,,,A*44
$GPGGA,172802.000,4806.8651,N,00139.4018,W,1,05,2.5,70.0,M,48.3,M,,0000*7C
$GPGSA,M,3,25,12,24,02,06,,,,,,,,4.4,2.5,3.7*3B
$GPRMC,172802.000,A,4806.8651,N,00139.4018,W,1.83,104.06,140218,,,A*73
$GPGGA,172803.000,4806.8639,N,00139.4013,W,1,05,2.5,69.9,M,48.3,M,,0000*79
$GPGSA,M,3,25,12,24,02,06,,,,,,,,4.4,2.5,3.7*3B
$GPRMC,172803.000,A,4806.8639,N,00139.4013,W,1.96,111.84,140218,,,A*7D
arfcn: 981 bsic: 46 rxLev: -57 ber: 0.00 mcc: 208 mnc: 20 lac: 418 cellId: 21807 cellStatus: CELL_SUITABLE numArfcn: 1 arfcn: 981 numChannels: 16 array: 787 790 791 793 796 882 884 979 982 983 985 1012 1014 1017 1019 1020 pbcch: 0 nom: 2 rac: 6 spgc: 0 pat: 6 nco: 0 t3168: 1500 t3192: 500 drxmax: 0 ctrlAck: 0 bsCVmax: 8 alpha: 6 pcMeasCh: 1 
arfcn: 985 bsic: 44 rxLev: -59 ber: 0.00 mcc: 208 mnc: 20 lac: 418 cellId: 21808 cellStatus: CELL_SUITABLE numArfcn: 1 arfcn: 985 numChannels: 25 array: 975 977 978 979 980 981 982 983 1011 1012 1014 1015 1017 1019 1020 1021 1022 787 788 790 793 795 796 879 884 pbcch: 0 nom: 2 rac: 6 spgc: 0 pat: 6 nco: 0 t3168: 1500 t3192: 500 drxmax: 0 ctrlAck: 0 bsCVmax: 8 alpha: 6 pcMeasCh: 1 
$GPGGA,172804.000,4806.8629,N,00139.4011,W,1,05,2.5,69.1,M,48.3,M,,0000*75
$GPGSA,M,3,25,12,24,02,06,,,,,,,,4.4,2.5,3.7*3B
$GPGSV,3,1,12,25,71,285,20,12,59,057,27,24,33,129,16,02,24,089,17*74
$GPGSV,3,2,12,06,18,052,26,19,03,036,19,33,33,198,,32,45,264,*71
$GPGSV,3,3,12,14,37,297,,29,36,190,,31,20,303,,04,16,120,*71
$GPRMC,172804.000,A,4806.8629,N,00139.4011,W,2.11,118.64,140218,,,A*72
$GPGGA,172805.000,4806.8620,N,00139.4013,W,1,05,2.5,68.4,M,48.3,M,,0000*7B
$GPGSA,M,3,25,12,24,02,06,,,,,,,,4.4,2.5,3.7*3B
$GPRMC,172805.000,A,4806.8620,N,00139.4013,W,1.96,125.07,140218,,,A*7F
arfcn: 12 bsic: 0 rxLev: -63 ber: 0.00 mcc: 208 mnc: 01 lac: 10300 cellId: 6467 cellStatus: CELL_FORBIDDEN numArfcn: 13 arfcn: 12 17 18 19 20 21 22 23 24 25 47 48 49 numChannels: 15 array: 1 2 3 8 9 10 14 512 513 514 515 518 605 606 608 pbcch: 0 nom: 2 rac: 1 spgc: 0 pat: 6 nco: 0 t3168: 1000 t3192: 500 drxmax: 2 ctrlAck: 0 bsCVmax: 9 alpha: 5 pcMeasCh: 1 
$GPGGA,172806.000,4806.8611,N,00139.4014,W,1,05,2.5,67.8,M,48.3,M,,0000*7E
$GPGSA,M,3,25,12,24,02,06,,,,,,,,4.4,2.5,3.7*3B
$GPRMC,172806.000,A,4806.8611,N,00139.4014,W,1.94,133.07,140218,,,A*7C
$GPGGA,172807.000,4806.8606,N,00139.4009,W,1,05,2.5,68.0,M,48.3,M,,0000*72
$GPGSA,M,3,25,12,24,02,06,,,,,,,,4.4,2.5,3.7*3B
arfcn: 8 bsic: 48 rxLev: -67 ber: 0.00 mcc: 208 mnc: 01 lac: 10300 cellId: 6473 cellStatus: CELL_FORBIDDEN numArfcn: 13 arfcn: 8 17 18 19 20 21 22 23 24 25 47 48 49 numChannels: 18 array: 1 2 3 4 5 10 12 13 14 15 512 513 514 515 516 517 605 610 pbcch: 0 nom: 2 rac: 1 spgc: 0 pat: 6 nco: 0 t3168: 1000 t3192: 500 drxmax: 2 ctrlAck: 0 bsCVmax: 9 alpha: 5 pcMeasCh: 1 
$GPRMC,172807.000,A,4806.8606,N,00139.4009,W,1.47,136.32,140218,,,A*7A
$GPGGA,172808.000,4806.8604,N,00139.4007,W,1,05,2.5,68.5,M,48.3,M,,0000*74
$GPGSA,M,3,25,12,24,02,06,,,,,,,,4.4,2.5,3.7*3B
$GPRMC,172808.000,A,4806.8604,N,00139.4007,W,0.88,136.32,140218,,,A*7B
arfcn: 78 bsic: 2 rxLev: -73 ber: 0.00 mcc: 208 mnc: 10 lac: 49415 cellId: 45280 cellStatus: CELL_FORBIDDEN numArfcn: 2 arfcn: 78 116 numChannels: 20 array: 76 77 78 79 80 82 83 84 85 86 114 115 116 117 118 120 121 122 123 124 pbcch: 0 nom: 2 rac: 31 spgc: 0 pat: 6 nco: 0 t3168: 1000 t3192: 500 drxmax: 4 ctrlAck: 1 bsCVmax: 9 alpha: 10 pcMeasCh: 0 
arfcn: 994 rxLev: -73
$GPGGA,172809.000,4806.8599,N,00139.4010,W,1,05,2.5,68.8,M,48.3,M,,0000*79
arfcn: 995 rxLev: -74
$GPGSA,M,3,25,12,24,02,06,,,,,,,,4.4,2.5,3.7*3B
arfcn: 992 rxLev: -74
arfcn: 993 rxLev: -74
$GPGSV,3,1,12,25,71,285,20,12,59,057,27,24,33,129,15,02,24,089,19*79
arfcn: 990 rxLev: -74
arfcn: 982 rxLev: -74
$GPGSV,3,2,12,06,18,052,27,19,03,036,19,33,33,198,,32,45,264,*70
arfcn: 997 rxLev: -74
arfcn: 999 rxLev: -74
$GPGSV,3,3,12,14,37,297,,29,36,190,,31,20,303,,04,16,120,*71
arfcn: 998 rxLev: -74
arfcn: 996 rxLev: -74
$GPRMC,172809.000,A,4806.8599,N,00139.4010,W,0.80,136.32,140218,,,A*73
arfcn: 1000 rxLev: -74
arfcn: 991 rxLev: -74
arfcn: 44 rxLev: -74
$GPGGA,172810.000,4806.8597,N,00139.4013,W,1,05,2.5,68.7,M,48.3,M,,0000*73
arfcn: 45 rxLev: -74
$GPGSA,M,3,25,12,24,02,06,,,,,,,,4.4,2.5,3.7*3B
arfcn: 43 rxLev: -75
$GPRMC,172810.000,A,4806.8597,N,00139.4013,W,0.45,136.32,140218,,,A*7F
arfcn: 1001 rxLev: -75
arfcn: 1002 rxLev: -75
arfcn: 1003 rxLev: -75
arfcn: 1008 rxLev: -75
arfcn: 1004 rxLev: -75
arfcn: 1005 rxLev: -75
arfcn: 1006 rxLev: -75
arfcn: 38 rxLev: -75
$GPGGA,172811.000,4806.8590,N,00139.4023,W,1,05,2.5,67.3,M,48.3,M,,0000*7D
arfcn: 36 rxLev: -76
$GPGSA,M,3,25,12,24,02,06,,,,,,,,4.4,2.5,3.7*3B
arfcn: 41 rxLev: -76
arfcn: 42 rxLev: -76
$GPRMC,172811.000,A,4806.8590,N,00139.4023,W,0.80,136.32,140218,,,A*73
$GPGGA,172812.000,4806.8587,N,00139.4031,W,1,05,2.5,67.0,M,48.3,M,,0000*78
$GPGSA,M,3,25,12,24,02,06,,,,,,,,4.4,2.5,3.7*3B
$GPRMC,172812.000,A,4806.8587,N,00139.4031,W,0.57,136.32,140218,,,A*7F
arfcn: 10 bsic: 45 rxLev: -76 ber: 0.02 mcc: 208 mnc: 01 lac: 10301 cellId: 6461 cellStatus: CELL_FORBIDDEN numArfcn: 13 arfcn: 10 17 18 19 20 21 22 23 24 25 47 48 49 numChannels: 17 array: 1 3 4 5 6 8 12 14 512 513 514 516 517 604 605 606 608 pbcch: 0 nom: 2 rac: 1 spgc: 0 pat: 6 nco: 0 t3168: 1000 t3192: 500 drxmax: 2 ctrlAck: 0 bsCVmax: 9 alpha: 5 pcMeasCh: 1 
arfcn: 1007 rxLev: -76
arfcn: 28 rxLev: -76
$GPGGA,172813.000,4806.8587,N,00139.4042,W,1,05,2.5,66.4,M,48.3,M,,0000*78
arfcn: 29 rxLev: -76
$GPGSA,M,3,25,12,24,02,06,,,,,,,,4.4,2.5,3.7*3B
arfcn: 32 rxLev: -76
arfcn: 35 rxLev: -76
$GPRMC,172813.000,A,4806.8587,N,00139.4042,W,0.29,136.32,140218,,,A*73
arfcn: 37 rxLev: -76
$GPGGA,172814.000,4806.8590,N,00139.4053,W,1,05,2.5,65.9,M,48.3,M,,0000*77
$GPGSA,M,3,25,12,24,02,06,,,,,,,,4.4,2.5,3.7*3B
$GPGSV,3,1,12,25,71,285,18,12,59,057,28,24,33,129,09,02,24,089,17*7E
$GPGSV,3,2,12,06,18,052,28,19,03,036,18,33,33,198,,32,45,264,*7E
arfcn: 85 bsic: 0 rxLev: -76 ber: 0.00 mcc: 208 mnc: 10 lac: 49415 cellId: 44814 cellStatus: CELL_FORBIDDEN numArfcn: 2 arfcn: 85 119 numChannels: 20 array: 76 77 78 79 80 82 83 85 86 114 115 116 117 118 119 120 121 122 123 124 pbcch: 0 nom: 2 rac: 31 spgc: 0 pat: 6 nco: 0 t3168: 1000 t3192: 500 drxmax: 4 ctrlAck: 1 bsCVmax: 9 alpha: 10 pcMeasCh: 0 
arfcn: 39 rxLev: -77
$GPGSV,3,3,12,14,37,297,,29,36,190,,31,20,303,,04,16,120,*71
arfcn: 40 rxLev: -77
arfcn: 33 rxLev: -77
$GPRMC,172814.000,A,4806.8590,N,00139.4053,W,0.45,136.32,140218,,,A*78
arfcn: 31 rxLev: -77
arfcn: 30 rxLev: -77
$GPGGA,172815.000,4806.8589,N,00139.4050,W,1,05,2.5,65.9,M,48.3,M,,0000*7D
arfcn: 986 rxLev: -77
$GPGSA,M,3,25,12,24,02,06,,,,,,,,4.4,2.5,3.7*3B
arfcn: 980 rxLev: -77
arfcn: 34 rxLev: -77
$GPRMC,172815.000,A,4806.8589,N,00139.4050,W,0.00,136.32,140218,,,A*73
$GPGGA,172816.000,4806.8589,N,00139.4050,W,1,05,2.5,65.9,M,48.3,M,,0000*7E
$GPGSA,M,3,25,12,24,02,06,,,,,,,,4.4,2.5,3.7*3B
$GPRMC,172816.000,A,4806.8589,N,00139.4050,W,0.00,136.32,140218,,,A*70
arfcn: 124 bsic: 2 rxLev: -77 ber: 0.00 mcc: 208 mnc: 10 lac: 49415 cellId: 43517 cellStatus: CELL_FORBIDDEN numArfcn: 2 arfcn: 112 124 numChannels: 14 array: 76 77 78 80 82 85 114 115 117 118 120 121 122 124 pbcch: 0 nom: 2 rac: 31 spgc: 0 pat: 6 nco: 0 t3168: 1000 t3192: 500 drxmax: 4 ctrlAck: 1 bsCVmax: 9 alpha: 10 pcMeasCh: 0 
arfcn: 46 rxLev: -78
$GPGGA,172817.000,4806.8589,N,00139.4050,W,1,05,2.5,65.9,M,48.3,M,,0000*7F
arfcn: 984 rxLev: -78
$GPGSA,M,3,25,12,24,02,06,,,,,,,,4.4,2.5,3.7*3B
arfcn: 27 rxLev: -78
arfcn: 13 rxLev: -79
$GPRMC,172817.000,A,4806.8589,N,00139.4050,W,0.00,136.32,140218,,,A*71
$GPGGA,172818.000,4806.8591,N,00139.4058,W,1,05,2.5,65.2,M,48.3,M,,0000*7A
$GPGSA,M,3,25,12,24,02,06,,,,,,,,4.4,2.5,3.7*3B
$GPRMC,172818.000,A,4806.8591,N,00139.4058,W,0.21,136.32,140218,,,A*7C
$GPGGA,172819.000,4806.8592,N,00139.4066,W,1,05,2.5,64.5,M,48.3,M,,0000*73
$GPGSA,M,3,25,12,24,02,06,,,,,,,,4.4,2.5,3.7*3B
$GPGSV,3,1,12,25,71,285,17,12,59,057,28,24,33,129,12,02,24,089,16*7A
$GPGSV,3,2,12,06,18,052,29,19,03,036,18,33,33,198,,32,45,264,*7F
$GPGSV,3,3,12,14,37,297,,29,36,190,,31,20,303,,04,16,120,*71
$GPRMC,172819.000,A,4806.8592,N,00139.4066,W,0.11,136.32,140218,,,A*70
$GPGGA,172820.000,4806.8592,N,00139.4066,W,1,05,2.5,64.5,M,48.3,M,,0000*79
$GPGSA,M,3,25,12,24,02,06,,,,,,,,4.4,2.5,3.7*3B
$GPRMC,172820.000,A,4806.8592,N,00139.4066,W,0.00,136.32,140218,,,A*7A
$GPGGA,172821.000,4806.8592,N,00139.4066,W,1,05,2.5,64.5,M,48.3,M,,0000*78
$GPGSA,M,3,25,12,24,02,06,,,,,,,,4.4,2.5,3.7*3B
arfcn: 605 bsic: 33 rxLev: -79 ber: 0.00 mcc: 208 mnc: 01 lac: 10300 cellId: 27588 cellStatus: CELL_FORBIDDEN numArfcn: 22 arfcn: 525 526 527 528 529 530 531 532 533 534 535 587 588 589 590 591 592 593 594 595 596 597 numChannels: 18 array: 1 3 5 8 12 15 512 513 514 515 516 517 518 604 605 606 607 609 pbcch: 0 nom: 2 rac: 1 spgc: 0 pat: 6 nco: 0 t3168: 1000 t3192: 500 drxmax: 2 ctrlAck: 0 bsCVmax: 9 alpha: 5 pcMeasCh: 1 
$GPRMC,172821.000,A,4806.8592,N,00139.4066,W,0.00,136.32,140218,,,A*7B
$GPGGA,172822.000,4806.8592,N,00139.4066,W,1,05,2.5,64.5,M,48.3,M,,0000*7B
$GPGSA,M,3,25,12,24,02,06,,,,,,,,4.4,2.5,3.7*3B
$GPRMC,172822.000,A,4806.8592,N,00139.4066,W,0.00,136.32,140218,,,A*78
$GPGGA,172823.000,4806.8592,N,00139.4066,W,1,05,2.5,64.4,M,48.3,M,,0000*7B
$GPGSA,M,3,25,12,24,02,06,,,,,,,,4.4,2.5,3.7*3B
$GPRMC,172823.000,A,4806.8592,N,00139.4066,W,0.00,136.32,140218,,,A*79
$GPGGA,172824.000,4806.8592,N,00139.4066,W,1,05,2.5,64.4,M,48.3,M,,0000*7C
$GPGSA,M,3,25,12,24,02,06,,,,,,,,4.4,2.5,3.7*3B
arfcn: 983 bsic: 21 rxLev: -80 ber: 0.01 mcc: 208 mnc: 20 lac: 418 cellId: 21809 cellStatus: CELL_SUITABLE numArfcn: 1 arfcn: 983 numChannels: 24 array: 788 790 792 793 795 796 878 882 884 976 977 979 981 985 986 987 1012 1013 1014 1016 1017 1019 1020 1022 pbcch: 0 nom: 2 rac: 6 spgc: 0 pat: 6 nco: 0 t3168: 1500 t3192: 500 drxmax: 0 ctrlAck: 0 bsCVmax: 8 alpha: 6 pcMeasCh: 1 
$GPGSV,3,1,12,25,71,285,15,12,59,057,28,24,33,129,11,02,24,089,16*7B
$GPGSV,3,2,12,06,18,052,30,19,03,036,17,33,33,198,,32,45,264,*78
$GPGSV,3,3,12,14,37,297,,29,36,190,,31,20,303,,04,16,120,*71
$GPRMC,172824.000,A,4806.8592,N,00139.4066,W,0.00,136.32,140218,,,A*7E
$GPGGA,172825.000,4806.8592,N,00139.4066,W,1,05,2.5,64.4,M,48.3,M,,0000*7D
$GPGSA,M,3,25,12,24,02,06,,,,,,,,4.4,2.5,3.7*3B
$GPRMC,172825.000,A,4806.8592,N,00139.4066,W,0.00,136.32,140218,,,A*7F
$GPGGA,172826.000,4806.8592,N,00139.4066,W,1,04,3.3,64.4,M,48.3,M,,0000*78
$GPGSA,M,3,25,12,02,06,,,,,,,,,5.0,3.3,3.8*30
$GPRMC,172826.000,A,4806.8592,N,00139.4066,W,0.00,136.32,140218,,,A*7C
$GPGGA,172827.000,4806.8594,N,00139.4070,W,1,04,3.3,63.7,M,48.3,M,,0000*7C
$GPGSA,M,3,25,12,02,06,,,,,,,,,5.0,3.3,3.8*30
$GPRMC,172827.000,A,4806.8594,N,00139.4070,W,0.14,136.32,140218,,,A*79
arfcn: 1017 bsic: 33 rxLev: -80 ber: 0.00 mcc: 208 mnc: 20 lac: 418 cellId: 20104 cellStatus: CELL_SUITABLE numArfcn: 3 arfcn: 986 987 1017 numChannels: 20 array: 788 790 885 975 976 978 979 980 981 982 986 987 1011 1012 1015 1017 1019 1020 1021 1022 pbcch: 0 nom: 2 rac: 7 spgc: 0 pat: 6 nco: 0 t3168: 1500 t3192: 500 drxmax: 4 ctrlAck: 1 bsCVmax: 8 alpha: 6 pcMeasCh: 1 
$GPGGA,172828.000,4806.8596,N,00139.4073,W,1,04,3.3,63.0,M,48.3,M,,0000*75
$GPGSA,M,3,25,12,02,06,,,,,,,,,5.0,3.3,3.8*30
$GPRMC,172828.000,A,4806.8596,N,00139.4073,W,0.22,136.32,140218,,,A*72
$GPGGA,172829.000,4806.8597,N,00139.4076,W,1,04,3.3,62.3,M,48.3,M,,0000*72
$GPGSA,M,3,25,12,02,06,,,,,,,,,5.0,3.3,3.8*30
$GPGSV,3,1,12,25,71,285,10,12,59,057,27,02,24,089,18,06,18,052,30*78
$GPGSV,3,2,12,19,03,036,18,24,33,129,12,33,33,198,,32,45,264,*73
$GPGSV,3,3,12,14,37,297,,29,36,190,,31,20,303,,04,16,120,*71
$GPRMC,172829.000,A,4806.8597,N,00139.4076,W,0.50,136.32,140218,,,A*72
$GPGGA,172830.000,4806.8597,N,00139.4080,W,1,04,3.3,61.5,M,48.3,M,,0000*76
$GPGSA,M,3,25,12,02,06,,,,,,,,,5.0,3.3,3.8*30
$GPRMC,172830.000,A,4806.8597,N,00139.4080,W,0.36,136.32,140218,,,A*73
arfcn: 1020 bsic: 39 rxLev: -81 ber: 0.00 mcc: 208 mnc: 20 lac: 418 cellId: 38980 cellStatus: CELL_SUITABLE numArfcn: 1 arfcn: 1020 numChannels: 26 array: 787 788 790 791 793 795 796 879 884 885 978 979 981 982 983 985 986 987 1011 1012 1013 1014 1015 1017 1019 1022 pbcch: 0 nom: 2 rac: 6 spgc: 0 pat: 6 nco: 0 t3168: 1500 t3192: 500 drxmax: 0 ctrlAck: 0 bsCVmax: 8 alpha: 6 pcMeasCh: 1 
arfcn: 11 rxLev: -81
arfcn: 9 rxLev: -81
arfcn: 26 rxLev: -81
$GPGGA,172831.000,4806.8599,N,00139.4086,W,1,04,3.3,60.8,M,48.3,M,,0000*73
$GPGSA,M,3,25,12,02,06,,,,,,,,,5.0,3.3,3.8*30
$GPRMC,172831.000,A,4806.8599,N,00139.4086,W,0.09,136.32,140218,,,A*76
$GPGGA,172832.000,4806.8599,N,00139.4087,W,1,04,3.3,60.7,M,48.3,M,,0000*7E
$GPGSA,M,3,25,12,02,06,,,,,,,,,5.0,3.3,3.8*30
$GPRMC,172832.000,A,4806.8599,N,00139.4087,W,0.00,136.32,140218,,,A*7D
$GPGGA,172833.000,4806.8599,N,00139.4087,W,1,04,3.3,60.7,M,48.3,M,,0000*7F
$GPGSA,M,3,25,12,02,06,,,,,,,,,5.0,3.3,3.8*30
$GPRMC,172833.000,A,4806.8599,N,00139.4087,W,0.00,136.32,140218,,,A*7C
arfcn: 515 bsic: 34 rxLev: -82 ber: 0.00 mcc: 208 mnc: 01 lac: 10300 cellId: 27586 cellStatus: CELL_FORBIDDEN numArfcn: 16 arfcn: 519 520 521 522 523 524 525 526 596 597 598 599 600 601 602 603 numChannels: 9 array: 1 8 12 512 513 516 605 606 607 pbcch: 0 nom: 2 rac: 1 spgc: 0 pat: 6 nco: 0 t3168: 1000 t3192: 500 drxmax: 2 ctrlAck: 0 bsCVmax: 9 alpha: 5 pcMeasCh: 1 
arfcn: 989 rxLev: -82
arfcn: 1009 rxLev: -83
$GPGGA,172834.000,4806.8599,N,00139.4087,W,1,04,3.3,60.7,M,48.3,M,,0000*78
$GPGSA,M,3,25,12,02,06,,,,,,,,,5.0,3.3,3.8*30
$GPGSV,3,1,12,25,72,285,16,12,59,058,27,02,24,089,18,06,18,052,30*72
$GPGSV,3,2,12,19,03,036,17,24,33,130,12,33,33,198,,32,45,263,*73
$GPGSV,3,3,12,14,37,297,,29,36,190,,31,20,303,,04,16,120,*71
$GPRMC,172834.000,A,4806.8599,N,00139.4087,W,0.00,136.32,140218,,,A*7B
$GPGGA,172835.000,4806.8601,N,00139.4092,W,1,04,3.3,60.0,M,48.3,M,,0000*78
$GPGSA,M,3,25,12,02,06,,,,,,,,,5.0,3.3,3.8*30
$GPRMC,172835.000,A,4806.8601,N,00139.4092,W,0.03,136.32,140218,,,A*7F
$GPGGA,172836.000,4806.8603,N,00139.4099,W,1,04,3.3,59.3,M,48.3,M,,0000*7B
$GPGSA,M,3,25,12,02,06,,,,,,,,,5.0,3.3,3.8*30
arfcn: 1 bsic: 44 rxLev: -83 ber: 0.08 mcc: 208 mnc: 01 lac: 10300 cellId: 6468 cellStatus: CELL_FORBIDDEN numArfcn: 13 arfcn: 1 17 18 19 20 21 22 23 24 25 47 48 49 numChannels: 24 array: 2 4 5 6 7 8 9 10 11 12 15 512 513 514 515 516 517 518 605 606 607 608 609 610 pbcch: 0 nom: 2 rac: 1 spgc: 0 pat: 6 nco: 0 t3168: 1000 t3192: 500 drxmax: 2 ctrlAck: 0 bsCVmax: 9 alpha: 5 pcMeasCh: 1 
arfcn: 47 rxLev: -84
$GPRMC,172836.000,A,4806.8603,N,00139.4099,W,0.29,136.32,140218,,,A*7D
arfcn: 92 rxLev: -84
arfcn: 93 rxLev: -84
$GPGGA,172837.000,4806.8603,N,00139.4098,W,1,04,3.3,59.3,M,48.3,M,,0000*7B
$GPGSA,M,3,25,12,02,06,,,,,,,,,5.0,3.3,3.8*30
$GPRMC,172837.000,A,4806.8603,N,00139.4098,W,0.00,136.32,140218,,,A*76
$GPGGA,172838.000,4806.8603,N,00139.4098,W,1,04,3.3,59.3,M,48.3,M,,0000*74
$GPGSA,M,3,25,12,02,06,,,,,,,,,5.0,3.3,3.8*30
arfcn: 80 bsic: 47 rxLev: -84 ber: 0.00 mcc: 208 mnc: 10 lac: 49415 cellId: 23568 cellStatus: CELL_FORBIDDEN numArfcn: 2 arfcn: 80 89 numChannels: 19 array: 76 77 78 80 82 83 84 85 113 114 115 116 117 118 119 120 122 123 124 pbcch: 0 nom: 2 rac: 31 spgc: 0 pat: 6 nco: 0 t3168: 1000 t3192: 500 drxmax: 4 ctrlAck: 1 bsCVmax: 9 alpha: 10 pcMeasCh: 0 
$GPRMC,172838.000,A,4806.8603,N,00139.4098,W,0.00,136.32,140218,,,A*79
arfcn: 100 rxLev: -85
arfcn: 7 rxLev: -85
$GPGGA,172839.000,4806.8603,N,00139.4098,W,1,05,2.5,59.3,M,48.3,M,,0000*73
$GPGSA,M,3,25,12,24,02,06,,,,,,,,4.4,2.5,3.7*3B
$GPGSV,3,1,12,25,72,285,19,12,59,058,27,24,33,130,14,02,24,089,19*76
$GPGSV,3,2,12,06,18,052,30,19,03,036,17,32,45,263,21,33,33,198,*7C
$GPGSV,3,3,12,14,37,297,,29,36,190,,31,20,303,,04,16,120,*71
$GPRMC,172839.000,A,4806.8603,N,00139.4098,W,0.00,136.32,140218,,,A*78
$GPGGA,172840.000,4806.8603,N,00139.4098,W,1,05,2.5,59.3,M,48.3,M,,0000*7D
$GPGSA,M,3,25,12,24,02,06,,,,,,,,4.4,2.5,3.7*3B
$GPRMC,172840.000,A,4806.8603,N,00139.4098,W,0.00,136.32,140218,,,A*76
arfcn: 2 bsic: 54 rxLev: -85 ber: 0.00 mcc: 208 mnc: 01 lac: 10300 cellId: 42646 cellStatus: CELL_FORBIDDEN numArfcn: 13 arfcn: 2 17 18 19 20 21 22 23 24 25 47 48 49 numChannels: 22 array: 1 5 6 7 8 10 12 13 15 16 512 514 515 516 517 518 604 606 607 608 609 610 pbcch: 0 nom: 2 rac: 1 spgc: 0 pat: 6 nco: 0 t3168: 1000 t3192: 500 drxmax: 2 ctrlAck: 0 bsCVmax: 9 alpha: 5 pcMeasCh: 1 
$GPGGA,172841.000,4806.8603,N,00139.4098,W,1,05,2.5,59.3,M,48.3,M,,0000*7C
$GPGSA,M,3,25,12,24,02,06,,,,,,,,4.4,2.5,3.7*3B
$GPRMC,172841.000,A,4806.8603,N,00139.4098,W,0.00,136.32,140218,,,A*77
$GPGGA,172842.000,4806.8603,N,00139.4104,W,1,05,2.5,58.7,M,48.3,M,,0000*7E
$GPGSA,M,3,25,12,24,02,06,,,,,,,,4.4,2.5,3.7*3B
$GPRMC,172842.000,A,4806.8603,N,00139.4104,W,0.36,136.32,140218,,,A*75
$GPGGA,172843.000,4806.8617,N,00139.4112,W,1,05,2.5,59.0,M,48.3,M,,0000*7B
$GPGSA,M,3,25,12,24,02,06,,,,,,,,4.4,2.5,3.7*3B
$GPRMC,172843.000,A,4806.8617,N,00139.4112,W,0.50,136.32,140218,,,A*76
$GPGGA,172844.000,4806.8629,N,00139.4118,W,1,05,2.5,59.6,M,48.3,M,,0000*7D
$GPGSA,M,3,25,12,24,02,06,,,,,,,,4.4,2.5,3.7*3B
$GPGSV,3,1,12,25,72,285,20,12,59,058,26,24,33,130,24,02,24,089,19*7E
$GPGSV,3,2,12,06,18,052,30,19,03,036,16,32,45,263,20,39,31,144,*75
arfcn: 14 bsic: 35 rxLev: -85 ber: 1.04 mcc: 208 mnc: 01 lac: 10300 cellId: 39250 cellStatus: CELL_FORBIDDEN numArfcn: 13 arfcn: 14 17 18 19 20 21 22 23 24 25 47 48 49 numChannels: 14 array: 1 3 4 6 8 10 12 14 512 513 514 517 604 608 pbcch: 0 nom: 2 rac: 1 spgc: 1 pat: 6 nco: 0 t3168: 1000 t3192: 500 drxmax: 4 ctrlAck: 1 bsCVmax: 9 alpha: 7 pcMeasCh: 0 
arfcn: 99 rxLev: -85
$GPGSV,3,3,12,14,37,297,,29,36,190,,31,20,303,,04,16,120,*71
arfcn: 98 rxLev: -86
arfcn: 101 rxLev: -86
$GPRMC,172844.000,A,4806.8629,N,00139.4118,W,0.12,136.32,140218,,,A*70
arfcn: 94 rxLev: -86
arfcn: 792 rxLev: -86
arfcn: 793 rxLev: -86
$GPGGA,172845.000,4806.8631,N,00139.4122,W,1,05,2.5,59.8,M,48.3,M,,0000*72
arfcn: 794 rxLev: -86
$GPGSA,M,3,25,12,24,02,06,,,,,,,,4.4,2.5,3.7*3B
arfcn: 95 rxLev: -86
arfcn: 96 rxLev: -86
$GPRMC,172845.000,A,4806.8631,N,00139.4122,W,0.22,136.32,140218,,,A*72
arfcn: 91 rxLev: -86
arfcn: 102 rxLev: -86
arfcn: 97 rxLev: -86
$GPGGA,172846.000,4806.8632,N,00139.4127,W,1,05,2.5,59.6,M,48.3,M,,0000*79
$GPGSA,M,3,25,12,24,02,06,,,,,,,,4.4,2.5,3.7*3B
$GPRMC,172846.000,A,4806.8632,N,00139.4127,W,0.45,136.32,140218,,,A*76
$GPGGA,172847.000,4806.8635,N,00139.4127,W,1,05,2.5,59.8,M,48.3,M,,0000*71
$GPGSA,M,3,25,12,24,02,06,,,,,,,,4.4,2.5,3.7*3B
$GPRMC,172847.000,A,4806.8635,N,00139.4127,W,0.30,136.32,140218,,,A*72
arfcn: 5 bsic: 1 rxLev: -86 ber: 0.00 mcc: FFF mnc: FF lac: 65535 cellId: 0 cellStatus: CELL_OTHER numArfcn: 0 arfcn: numChannels: 0 array:
arfcn: 103 rxLev: -87
arfcn: 104 rxLev: -87
$GPGGA,172848.000,4806.8640,N,00139.4125,W,1,05,2.5,60.0,M,48.3,M,,0000*7C
$GPGSA,M,3,25,12,24,02,06,,,,,,,,4.4,2.5,3.7*3B
$GPRMC,172848.000,A,4806.8640,N,00139.4125,W,0.76,136.32,140218,,,A*7F
$GPGGA,172849.000,4806.8644,N,00139.4129,W,1,05,2.5,59.3,M,48.3,M,,0000*7C
$GPGSA,M,3,25,12,24,02,06,,,,,,,,4.4,2.5,3.7*3B
$GPGSV,3,1,12,25,72,285,21,12,59,058,26,24,33,130,18,02,24,089,18*71
$GPGSV,3,2,12,06,18,052,29,19,03,036,16,32,45,263,19,39,31,144,*77
$GPGSV,3,3,12,14,37,297,,29,36,190,,31,20,303,,04,16,120,*71
$GPRMC,172849.000,A,4806.8644,N,00139.4129,W,0.97,136.32,140218,,,A*79
$GPGGA,172850.000,4806.8645,N,00139.4132,W,1,05,2.5,58.4,M,48.3,M,,0000*79
$GPGSA,M,3,25,12,24,02,06,,,,,,,,4.4,2.5,3.7*3B
$GPRMC,172850.000,A,4806.8645,N,00139.4132,W,0.43,136.32,140218,,,A*73
arfcn: 1021 bsic: 35 rxLev: -87 ber: 2.07 mcc: 208 mnc: 20 lac: 418 cellId: 20102 cellStatus: CELL_SUITABLE numArfcn: 3 arfcn: 975 982 1021 numChannels: 21 array: 788 790 880 885 975 976 977 978 980 981 982 986 987 1011 1012 1015 1017 1019 1020 1021 1022 pbcch: 0 nom: 2 rac: 7 spgc: 0 pat: 6 nco: 0 t3168: 1500 t3192: 500 drxmax: 4 ctrlAck: 1 bsCVmax: 8 alpha: 6 pcMeasCh: 1 
arfcn: 795 rxLev: -87
arfcn: 798 rxLev: -87
$GPGGA,172851.000,4806.8645,N,00139.4131,W,1,05,2.5,58.4,M,48.3,M,,0000*7B
$GPGSA,M,3,25,12,24,02,06,,,,,,,,4.4,2.5,3.7*3B
$GPRMC,172851.000,A,4806.8645,N,00139.4131,W,0.10,136.32,140218,,,A*77
$GPGGA,172852.000,4806.8645,N,00139.4127,W,1,05,2.5,58.3,M,48.3,M,,0000*78
$GPGSA,M,3,25,12,24,02,06,,,,,,,,4.4,2.5,3.7*3B
$GPRMC,172852.000,A,4806.8645,N,00139.4127,W,0.14,136.32,140218,,,A*77
arfcn: 77 bsic: 10 rxLev: -87 ber: 18.03 mcc: FFF mnc: FF lac: 65535 cellId: 0 cellStatus: CELL_OTHER numArfcn: 0 arfcn: numChannels: 0 array:
arfcn: 25 rxLev: -87
arfcn: 64 rxLev: -88
arfcn: 66 rxLev: -88
arfcn: 68 rxLev: -88
arfcn: 105 rxLev: -88
arfcn: 106 rxLev: -88
$GPGGA,172853.000,4806.8646,N,00139.4125,W,1,05,2.5,58.2,M,48.3,M,,0000*79
arfcn: 107 rxLev: -88
$GPGSA,M,3,25,12,24,02,06,,,,,,,,4.4,2.5,3.7*3B
$GPRMC,172853.000,A,4806.8646,N,00139.4125,W,0.34,136.32,140218,,,A*75
$GPGGA,172854.000,4806.8646,N,00139.4120,W,1,05,2.5,58.6,M,48.3,M,,0000*7F
$GPGSA,M,3,25,12,24,02,06,,,,,,,,4.4,2.5,3.7*3B
$GPGSV,3,1,12,25,72,285,22,12,59,058,25,24,33,130,17,02,24,089,20*75
$GPGSV,3,2,12,06,18,052,29,19,03,036,16,32,45,263,19,39,31,144,*77
$GPGSV,3,3,12,14,37,297,,29,36,190,,31,20,303,,04,16,120,*71
$GPRMC,172854.000,A,4806.8646,N,00139.4120,W,0.20,136.32,140218,,,A*72
$GPGGA,172855.000,4806.8646,N,00139.4113,W,1,05,2.5,58.8,M,48.3,M,,0000*70
$GPGSA,M,3,25,12,24,02,06,,,,,,,,4.4,2.5,3.7*3B
$GPRMC,172855.000,A,4806.8646,N,00139.4113,W,0.50,136.32,140218,,,A*74
$GPGGA,172856.000,4806.8648,N,00139.4111,W,1,05,2.5,59.1,M,48.3,M,,0000*77
$GPGSA,M,3,25,12,24,02,06,,,,,,,,4.4,2.5,3.7*3B
$GPRMC,172856.000,A,4806.8648,N,00139.4111,W,0.08,136.32,140218,,,A*76
$GPGGA,172857.000,4806.8650,N,00139.4107,W,1,05,2.5,59.2,M,48.3,M,,0000*7B
arfcn: 122 bsic: 3 rxLev: -88 ber: 0.00 mcc: 208 mnc: 10 lac: 49415 cellId: 33517 cellStatus: CELL_FORBIDDEN numArfcn: 3 arfcn: 77 88 122 numChannels: 17 array: 77 78 79 80 82 84 85 86 114 115 117 118 119 120 122 123 124 pbcch: 0 nom: 2 rac: 31 spgc: 0 pat: 6 nco: 0 t3168: 1000 t3192: 500 drxmax: 4 ctrlAck: 1 bsCVmax: 9 alpha: 10 pcMeasCh: 0 
$GPGSA,M,3,25,12,24,02,06,,,,,,,,4.4,2.5,3.7*3B
$GPRMC,172857.000,A,4806.8650,N,00139.4107,W,0.18,136.32,140218,,,A*78
$GPGGA,172858.000,4806.8652,N,00139.4107,W,1,05,2.5,59.1,M,48.3,M,,0000*75
$GPGSA,M,3,25,12,24,02,06,,,,,,,,4.4,2.5,3.7*3B
$GPRMC,172858.000,A,4806.8652,N,00139.4107,W,0.33,136.32,140218,,,A*7C
$GPGGA,172859.000,4806.8653,N,00139.4100,W,1,05,2.5,59.7,M,48.3,M,,0000*74
$GPGSA,M,3,25,12,24,02,06,,,,,,,,4.4,2.5,3.7*3B
$GPGSV,3,1,12,25,72,285,23,12,59,058,24,24,33,130,18,02,24,089,21*7B
$GPGSV,3,2,12,06,18,052,29,19,03,036,15,32,45,263,19,39,31,144,*74
$GPGSV,3,3,12,14,37,297,,29,36,190,,31,20,303,,04,16,120,*71
$GPRMC,172859.000,A,4806.8653,N,00139.4100,W,0.41,136.32,140218,,,A*7E
$GPGGA,172900.000,4806.8652,N,00139.4097,W,1,05,2.5,59.8,M,48.3,M,,0000*78
$GPGSA,M,3,25,12,24,02,06,,,,,,,,4.4,2.5,3.7*3B
$GPRMC,172900.000,A,4806.8652,N,00139.4097,W,0.27,136.32,140218,,,A*7D
$GPGGA,172901.000,4806.8653,N,00139.4094,W,1,05,2.5,60.3,M,48.3,M,,0000*7A
$GPGSA,M,3,25,12,24,02,06,,,,,,,,4.4,2.5,3.7*3B
$GPRMC,172901.000,A,4806.8653,N,00139.4094,W,0.30,136.32,140218,,,A*78
arfcn: 978 bsic: 19 rxLev: -88 ber: 0.00 mcc: 208 mnc: 20 lac: 418 cellId: 18480 cellStatus: CELL_SUITABLE numArfcn: 2 arfcn: 978 1023 numChannels: 24 array: 788 790 794 880 883 975 976 977 979 980 981 982 983 985 986 1011 1012 1014 1016 1017 1018 1019 1020 1021 pbcch: 0 nom: 2 rac: 6 spgc: 0 pat: 6 nco: 0 t3168: 1500 t3192: 500 drxmax: 4 ctrlAck: 1 bsCVmax: 8 alpha: 6 pcMeasCh: 1 
arfcn: 802 rxLev: -88
arfcn: 805 rxLev: -88
arfcn: 814 rxLev: -88
$GPGGA,172902.000,4806.8654,N,00139.4088,W,1,05,2.5,60.5,M,48.3,M,,0000*75
arfcn: 818 rxLev: -88
$GPGSA,M,3,25,12,24,02,06,,,,,,,,4.4,2.5,3.7*3B
arfcn: 815 rxLev: -88
arfcn: 816 rxLev: -88
$GPRMC,172902.000,A,4806.8654,N,00139.4088,W,0.57,136.32,140218,,,A*70
arfcn: 822 rxLev: -88
arfcn: 813 rxLev: -88
arfcn: 808 rxLev: -88
arfcn: 810 rxLev: -88
arfcn: 803 rxLev: -88
arfcn: 801 rxLev: -88
arfcn: 800 rxLev: -88
arfcn: 796 rxLev: -88
$GPGGA,172903.000,4806.8655,N,00139.4090,W,1,05,2.5,59.7,M,48.3,M,,0000*74
arfcn: 791 rxLev: -88
arfcn: 108 rxLev: -88
$GPGSA,M,3,25,12,24,02,06,,,,,,,,4.4,2.5,3.7*3B
$GPRMC,172903.000,A,4806.8655,N,00139.4090,W,0.64,136.32,140218,,,A*79
$GPGGA,172904.000,4806.8657,N,00139.4092,W,1,05,2.5,59.4,M,48.3,M,,0000*70
$GPGSA,M,3,25,12,24,02,06,,,,,,,,4.4,2.5,3.7*3B
$GPGSV,3,1,12,25,72,285,22,12,59,058,24,24,33,130,18,02,24,089,22*79
$GPGSV,3,2,12,06,18,052,30,19,03,036,15,32,45,263,20,39,31,144,*76
$GPGSV,3,3,12,14,37,297,,29,36,190,,31,20,303,,04,16,120,*71
$GPRMC,172904.000,A,4806.8657,N,00139.4092,W,1.00,136.32,140218,,,A*7D
$GPGGA,172905.000,4806.8658,N,00139.4097,W,1,05,2.5,58.6,M,48.3,M,,0000*78
$GPGSA,M,3,25,12,24,02,06,,,,,,,,4.4,2.5,3.7*3B
arfcn: 76 bsic: 43 rxLev: -88 ber: 0.09 mcc: 208 mnc: 10 lac: 49415 cellId: 55692 cellStatus: CELL_FORBIDDEN numArfcn: 2 arfcn: 76 118 numChannels: 16 array: 76 77 78 80 82 83 85 86 115 116 117 118 119 120 123 124 pbcch: 0 nom: 2 rac: 31 spgc: 0 pat: 6 nco: 0 t3168: 1000 t3192: 500 drxmax: 4 ctrlAck: 1 bsCVmax: 9 alpha: 10 pcMeasCh: 0 
arfcn: 18 rxLev: -88
$GPRMC,172905.000,A,4806.8658,N,00139.4097,W,0.67,136.32,140218,,,A*76
arfcn: 21 rxLev: -88
$GPGGA,172906.000,4806.8659,N,00139.4098,W,1,05,2.5,58.3,M,48.3,M,,0000*70
$GPGSA,M,3,25,12,24,02,06,,,,,,,,4.4,2.5,3.7*3B
$GPRMC,172906.000,A,4806.8659,N,00139.4098,W,0.54,136.32,140218,,,A*7B
$GPGGA,172907.000,4806.8659,N,00139.4099,W,1,05,2.5,58.0,M,48.3,M,,0000*73
arfcn: 604 bsic: 20 rxLev: -88 ber: 0.04 mcc: FFF mnc: FF lac: 65535 cellId: 0 cellStatus: CELL_OTHER numArfcn: 0 arfcn: numChannels: 0 array:
$GPGSA,M,3,25,12,24,02,06,,,,,,,,4.4,2.5,3.7*3B
arfcn: 1014 rxLev: -89
arfcn: 62 rxLev: -89
$GPRMC,172907.000,A,4806.8659,N,00139.4099,W,0.46,136.32,140218,,,A*78
arfcn: 67 rxLev: -89
arfcn: 70 rxLev: -89
arfcn: 799 rxLev: -89
arfcn: 804 rxLev: -89
arfcn: 806 rxLev: -89
arfcn: 821 rxLev: -89
arfcn: 817 rxLev: -89
$GPGGA,172908.000,4806.8661,N,00139.4094,W,1,05,2.5,58.3,M,48.3,M,,0000*79
arfcn: 845 rxLev: -89
arfcn: 843 rxLev: -89
$GPGSA,M,3,25,12,24,02,06,,,,,,,,4.4,2.5,3.7*3B
arfcn: 826 rxLev: -89
$GPRMC,172908.000,A,4806.8661,N,00139.4094,W,0.78,136.32,140218,,,A*7C
arfcn: 834 rxLev: -89
arfcn: 837 rxLev: -89
arfcn: 838 rxLev: -89
arfcn: 860 rxLev: -89
arfcn: 861 rxLev: -89
arfcn: 862 rxLev: -89
arfcn: 863 rxLev: -89
arfcn: 69 rxLev: -89
arfcn: 79 rxLev: -89
$GPGGA,172909.000,4806.8661,N,00139.4093,W,1,05,2.5,58.5,M,48.3,M,,0000*79
arfcn: 90 rxLev: -89
$GPGSA,M,3,25,12,24,02,06,,,,,,,,4.4,2.5,3.7*3B
$GPGSV,3,1,12,25,72,285,23,12,59,058,23,24,33,130,18,02,24,089,23*7E
$GPGSV,3,2,12,06,18,052,30,19,03,036,14,32,45,263,21,39,31,144,*76
$GPGSV,3,3,12,14,37,297,,29,36,190,,31,20,303,,04,16,120,*71
$GPRMC,172909.000,A,4806.8661,N,00139.4093,W,0.37,136.32,140218,,,A*71
$GPGGA,172910.000,4806.8662,N,00139.4094,W,1,05,2.5,58.8,M,48.3,M,,0000*78
$GPGSA,M,3,25,12,24,02,06,,,,,,,,4.4,2.5,3.7*3B
$GPRMC,172910.000,A,4806.8662,N,00139.4094,W,0.20,136.32,140218,,,A*7B
$GPGGA,172911.000,4806.8664,N,00139.4091,W,1,05,2.5,59.3,M,48.3,M,,0000*70
$GPGSA,M,3,25,12,24,02,06,,,,,,,,4.4,2.5,3.7*3B
$GPRMC,172911.000,A,4806.8664,N,00139.4091,W,0.21,136.32,140218,,,A*78
$GPGGA,172912.000,4806.8665,N,00139.4095,W,1,05,2.5,59.8,M,48.3,M,,0000*7D
$GPGSA,M,3,25,12,24,02,06,,,,,,,,4.4,2.5,3.7*3B
$GPRMC,172912.000,A,4806.8665,N,00139.4095,W,0.33,136.32,140218,,,A*7D
$GPGGA,172913.000,4806.8665,N,00139.4095,W,1,05,2.5,60.3,M,48.3,M,,0000*7D
arfcn: 979 bsic: 19 rxLev: -89 ber: 0.01 mcc: 208 mnc: 20 lac: 418 cellId: 20718 cellStatus: CELL_SUITABLE numArfcn: 1 arfcn: 979 numChannels: 22 array: 788 789 790 792 793 795 878 882 884 977 981 983 984 985 986 987 1012 1013 1014 1017 1019 1020 pbcch: 0 nom: 2 rac: 6 spgc: 0 pat: 6 nco: 0 t3168: 1500 t3192: 500 drxmax: 0 ctrlAck: 0 bsCVmax: 8 alpha: 6 pcMeasCh: 1 
arfcn: 58 rxLev: -89
$GPGSA,M,3,25,12,24,02,06,,,,,,,,4.4,2.5,3.7*3B
arfcn: 60 rxLev: -89
arfcn: 3 rxLev: -89
$GPRMC,172913.000,A,4806.8665,N,00139.4095,W,0.31,136.32,140218,,,A*7E
arfcn: 61 rxLev: -90
arfcn: 63 rxLev: -90
arfcn: 109 rxLev: -90
arfcn: 65 rxLev: -90
arfcn: 855 rxLev: -90
arfcn: 823 rxLev: -90
arfcn: 829 rxLev: -90
arfcn: 839 rxLev: -90
$GPGGA,172914.000,4806.8664,N,00139.4096,W,1,05,2.5,60.2,M,48.3,M,,0000*79
arfcn: 841 rxLev: -90
arfcn: 847 rxLev: -90
$GPGSA,M,3,25,12,24,02,06,,,,,,,,4.4,2.5,3.7*3B
$GPGSV,3,1,12,25,72,285,22,12,59,058,23,24,33,130,18,02,24,089,23*7F
arfcn: 849 rxLev: -90
arfcn: 853 rxLev: -90
$GPGSV,3,2,12,06,18,052,30,19,03,036,10,32,45,263,22,33,33,198,*78
arfcn: 812 rxLev: -90
arfcn: 809 rxLev: -90
$GPGSV,3,3,12,14,37,297,,29,36,190,,31,20,303,,04,16,120,*71
arfcn: 807 rxLev: -90
arfcn: 820 rxLev: -90
$GPRMC,172914.000,A,4806.8664,N,00139.4096,W,0.13,136.32,140218,,,A*7B
arfcn: 797 rxLev: -90
arfcn: 827 rxLev: -90
arfcn: 828 rxLev: -90
$GPGGA,172915.000,4806.8665,N,00139.4100,W,1,05,2.5,60.2,M,48.3,M,,0000*77
arfcn: 835 rxLev: -90
$GPGSA,M,3,25,12,24,02,06,,,,,,,,4.4,2.5,3.7*3B
arfcn: 857 rxLev: -90
arfcn: 869 rxLev: -90
$GPRMC,172915.000,A,4806.8665,N,00139.4100,W,0.45,136.32,140218,,,A*76
arfcn: 123 rxLev: -90
$GPGGA,172916.000,4806.8666,N,00139.4102,W,1,05,2.5,60.1,M,48.3,M,,0000*76
$GPGSA,M,3,25,12,24,02,06,,,,,,,,4.4,2.5,3.7*3B
$GPRMC,172916.000,A,4806.8666,N,00139.4102,W,0.24,136.32,140218,,,A*73
arfcn: 114 bsic: 6 rxLev: -90 ber: 0.00 mcc: 208 mnc: 10 lac: 49415 cellId: 44202 cellStatus: CELL_FORBIDDEN numArfcn: 2 arfcn: 80 114 numChannels: 20 array: 76 77 78 79 80 84 85 86 113 114 115 116 117 118 119 120 121 122 123 124 pbcch: 0 nom: 2 rac: 31 spgc: 0 pat: 6 nco: 0 t3168: 1000 t3192: 500 drxmax: 4 ctrlAck: 1 bsCVmax: 9 alpha: 10 pcMeasCh: 0 
$GPGGA,172917.000,4806.8665,N,00139.4101,W,1,05,2.5,60.1,M,48.3,M,,0000*77
$GPGSA,M,3,25,12,24,02,06,,,,,,,,4.4,2.5,3.7*3B
$GPRMC,172917.000,A,4806.8665,N,00139.4101,W,0.40,136.32,140218,,,A*70
$GPGGA,172918.000,4806.8665,N,00139.4102,W,1,05,2.5,60.1,M,48.3,M,,0000*7B
$GPGSA,M,3,25,12,24,02,06,,,,,,,,4.4,2.5,3.7*3B
$GPRMC,172918.000,A,4806.8665,N,00139.4102,W,0.18,136.32,140218,,,A*71
arfcn: 120 bsic: 59 rxLev: -90 ber: 8.08 mcc: FFF mnc: FF lac: 65535 cellId: 0 cellStatus: CELL_OTHER numArfcn: 0 arfcn: numChannels: 0 array:
arfcn: 59 rxLev: -90
arfcn: 57 rxLev: -90
arfcn: 54 rxLev: -90
arfcn: 55 rxLev: -90
arfcn: 56 rxLev: -90
arfcn: 23 rxLev: -90
$GPGGA,172919.000,4806.8664,N,00139.4103,W,1,05,2.5,60.2,M,48.3,M,,0000*79
arfcn: 71 rxLev: -91
$GPGSA,M,3,25,12,24,02,06,,,,,,,,4.4,2.5,3.7*3B
arfcn: 867 rxLev: -91
arfcn: 859 rxLev: -91
$GPGSV,3,1,12,25,72,285,22,12,59,058,22,24,33,130,18,02,24,089,23*7E
arfcn: 872 rxLev: -91
arfcn: 833 rxLev: -91
$GPGSV,3,2,12,06,18,052,30,19,03,036,11,32,45,263,22,33,33,198,*79
arfcn: 830 rxLev: -91
arfcn: 842 rxLev: -91
$GPGSV,3,3,12,14,37,297,,29,36,190,,31,20,303,,04,16,120,*71
arfcn: 840 rxLev: -91
arfcn: 819 rxLev: -91
$GPRMC,172919.000,A,4806.8664,N,00139.4103,W,0.38,136.32,140218,,,A*72
arfcn: 811 rxLev: -91
arfcn: 844 rxLev: -91
arfcn: 851 rxLev: -91
$GPGGA,172920.000,4806.8663,N,00139.4103,W,1,05,2.5,60.2,M,48.3,M,,0000*74
arfcn: 848 rxLev: -91
$GPGSA,M,3,25,12,24,02,06,,,,,,,,4.4,2.5,3.7*3B
arfcn: 824 rxLev: -91
arfcn: 825 rxLev: -91
$GPRMC,172920.000,A,4806.8663,N,00139.4103,W,0.62,136.32,140218,,,A*70
arfcn: 831 rxLev: -91
arfcn: 832 rxLev: -91
arfcn: 871 rxLev: -91
arfcn: 874 rxLev: -91
arfcn: 868 rxLev: -91
arfcn: 866 rxLev: -91
$GPGGA,172921.000,4806.8663,N,00139.4103,W,1,05,2.5,60.3,M,48.3,M,,0000*74
$GPGSA,M,3,25,12,24,02,06,,,,,,,,4.4,2.5,3.7*3B
$GPRMC,172921.000,A,4806.8663,N,00139.4103,W,0.45,136.32,140218,,,A*74
$GPGGA,172922.000,4806.8664,N,00139.4102,W,1,05,2.5,60.4,M,48.3,M,,0000*76
$GPGSA,M,3,25,12,24,02,06,,,,,,,,4.4,2.5,3.7*3B
$GPRMC,172922.000,A,4806.8664,N,00139.4102,W,0.51,136.32,140218,,,A*74
arfcn: 115 bsic: 43 rxLev: -91 ber: 0.00 mcc: 208 mnc: 10 lac: 49415 cellId: 55710 cellStatus: CELL_FORBIDDEN numArfcn: 2 arfcn: 87 115 numChannels: 22 array: 76 77 78 79 80 82 83 84 85 86 113 114 115 116 117 118 119 120 121 122 123 124 pbcch: 0 nom: 2 rac: 31 spgc: 0 pat: 6 nco: 0 t3168: 1000 t3192: 500 drxmax: 4 ctrlAck: 1 bsCVmax: 9 alpha: 10 pcMeasCh: 0 
arfcn: 606 rxLev: -91
$GPGGA,172923.000,4806.8664,N,00139.4104,W,1,05,2.5,60.5,M,48.3,M,,0000*70
$GPGSA,M,3,25,12,24,02,06,,,,,,,,4.4,2.5,3.7*3B
$GPRMC,172923.000,A,4806.8664,N,00139.4104,W,0.72,136.32,140218,,,A*72
$GPGGA,172924.000,4806.8667,N,00139.4107,W,1,05,2.5,60.6,M,48.3,M,,0000*74
$GPGSA,M,3,25,12,24,02,06,,,,,,,,4.4,2.5,3.7*3B
$GPGSV,3,1,12,25,72,285,22,12,59,058,22,24,33,130,19,02,24,089,23*7F
$GPGSV,3,2,12,06,18,052,30,19,03,036,10,32,45,263,22,33,33,198,*78
arfcn: 513 bsic: 27 rxLev: -92 ber: 0.05 mcc: 208 mnc: 01 lac: 10300 cellId: 27587 cellStatus: CELL_FORBIDDEN numArfcn: 16 arfcn: 519 520 521 522 523 524 525 526 596 597 598 599 600 601 602 603 numChannels: 14 array: 1 4 8 12 512 513 515 516 517 518 605 606 607 609 pbcch: 0 nom: 2 rac: 1 spgc: 0 pat: 6 nco: 0 t3168: 1000 t3192: 500 drxmax: 2 ctrlAck: 0 bsCVmax: 9 alpha: 5 pcMeasCh: 1 
arfcn: 53 rxLev: -92
arfcn: 865 rxLev: -92
$GPGSV,3,3,12,14,37,297,,29,36,190,,31,20,303,,04,16,120,*71
arfcn: 870 rxLev: -92
arfcn: 858 rxLev: -92
$GPRMC,172924.000,A,4806.8667,N,00139.4107,W,0.31,136.32,140218,,,A*72
arfcn: 836 rxLev: -92
arfcn: 850 rxLev: -92
$GPGGA,172925.000,4806.8669,N,00139.4107,W,1,05,2.5,60.7,M,48.3,M,,0000*7A
arfcn: 852 rxLev: -92
$GPGSA,M,3,25,12,24,02,06,,,,,,,,4.4,2.5,3.7*3B
arfcn: 854 rxLev: -92
arfcn: 846 rxLev: -92
$GPRMC,172925.000,A,4806.8669,N,00139.4107,W,0.12,136.32,140218,,,A*7C
arfcn: 856 rxLev: -92
arfcn: 864 rxLev: -92
arfcn: 873 rxLev: -92
arfcn: 876 rxLev: -92
arfcn: 879 rxLev: -92
$GPGGA,172926.000,4806.8671,N,00139.4107,W,1,05,2.5,60.8,M,48.3,M,,0000*7F
$GPGSA,M,3,25,12,24,02,06,,,,,,,,4.4,2.5,3.7*3B
$GPRMC,172926.000,A,4806.8671,N,00139.4107,W,0.40,136.32,140218,,,A*71
$GPGGA,172927.000,4806.8674,N,00139.4110,W,1,05,2.5,60.8,M,48.3,M,,0000*7D
$GPGSA,M,3,25,12,24,02,06,,,,,,,,4.4,2.5,3.7*3B
$GPRMC,172927.000,A,4806.8674,N,00139.4110,W,0.18,136.32,140218,,,A*7E
arfcn: 4 bsic: 54 rxLev: -92 ber: 0.10 mcc: 208 mnc: 01 lac: 10300 cellId: 43768 cellStatus: CELL_FORBIDDEN numArfcn: 13 arfcn: 4 17 18 19 20 21 22 23 24 25 47 48 49 numChannels: 20 array: 1 3 5 6 7 8 12 13 14 513 514 515 517 518 601 605 606 608 609 610 pbcch: 0 nom: 2 rac: 1 spgc: 0 pat: 6 nco: 0 t3168: 1000 t3192: 500 drxmax: 2 ctrlAck: 0 bsCVmax: 9 alpha: 5 pcMeasCh: 1 
$GPGGA,172928.000,4806.8678,N,00139.4113,W,1,05,2.5,60.9,M,48.3,M,,0000*7C
$GPGSA,M,3,25,12,24,02,06,,,,,,,,4.4,2.5,3.7*3B
$GPRMC,172928.000,A,4806.8678,N,00139.4113,W,0.44,136.32,140218,,,A*77
$GPGGA,172929.000,4806.8682,N,00139.4118,W,1,05,2.5,61.0,M,48.3,M,,0000*7B
$GPGSA,M,3,25,12,24,02,06,,,,,,,,4.4,2.5,3.6*3A
arfcn: 118 bsic: 3 rxLev: -92 ber: 0.00 mcc: 208 mnc: 10 lac: 49415 cellId: 45270 cellStatus: CELL_FORBIDDEN numArfcn: 2 arfcn: 86 118 numChannels: 22 array: 76 77 78 79 80 81 82 83 84 85 86 114 115 116 117 118 119 120 121 122 123 124 pbcch: 0 nom: 2 rac: 31 spgc: 0 pat: 6 nco: 0 t3168: 1000 t3192: 500 drxmax: 4 ctrlAck: 1 bsCVmax: 9 alpha: 10 pcMeasCh: 0 
$GPGSV,3,1,12,25,72,285,21,12,59,058,22,24,33,130,19,02,24,089,23*7C
$GPGSV,3,2,12,06,18,052,30,19,03,036,10,32,45,263,22,33,33,198,*78
$GPGSV,3,3,12,14,37,297,,29,36,190,,31,20,303,,04,16,120,*71
$GPRMC,172929.000,A,4806.8682,N,00139.4118,W,0.99,136.32,140218,,,A*78
$GPGGA,172930.000,4806.8685,N,00139.4122,W,1,05,2.5,61.0,M,48.3,M,,0000*7D
$GPGSA,M,3,25,12,24,02,06,,,,,,,,4.4,2.5,3.6*3A
$GPRMC,172930.000,A,4806.8685,N,00139.4122,W,0.95,136.32,140218,,,A*72
$GPGGA,172931.000,4806.8685,N,00139.4127,W,1,05,2.5,61.0,M,48.3,M,,0000*79
$GPGSA,M,3,25,12,24,02,06,,,,,,,,4.4,2.5,3.6*3A
$GPRMC,172931.000,A,4806.8685,N,00139.4127,W,1.04,136.32,140218,,,A*7F
$GPGGA,172932.000,4806.8687,N,00139.4135,W,1,05,2.5,61.0,M,48.3,M,,0000*7B
$GPGSA,M,3,25,12,24,02,06,,,,,,,,4.4,2.5,3.6*3A
$GPRMC,172932.000,A,4806.8687,N,00139.4135,W,1.32,232.07,140218,,,A*79
arfcn: 1016 bsic: 41 rxLev: -92 ber: 0.00 mcc: 208 mnc: 20 lac: 418 cellId: 23623 cellStatus: CELL_SUITABLE numArfcn: 1 arfcn: 1016 numChannels: 27 array: 787 791 792 793 794 795 879 880 883 884 975 977 978 979 981 982 983 986 987 1011 1012 1017 1018 1019 1020 1021 1022 pbcch: 0 nom: 2 rac: 6 spgc: 0 pat: 6 nco: 0 t3168: 1500 t3192: 500 drxmax: 4 ctrlAck: 1 bsCVmax: 8 alpha: 6 pcMeasCh: 1 
$GPGGA,172933.000,4806.8687,N,00139.4145,W,1,05,2.5,60.9,M,48.3,M,,0000*75
$GPGSA,M,3,25,12,24,02,06,,,,,,,,4.4,2.5,3.6*3A
$GPRMC,172933.000,A,4806.8687,N,00139.4145,W,1.91,252.56,140218,,,A*74
$GPGGA,172934.000,4806.8687,N,00139.4152,W,1,05,2.5,60.9,M,48.3,M,,0000*74
$GPGSA,M,3,25,12,24,02,06,,,,,,,,4.4,2.5,3.6*3A
$GPGSV,3,1,12,25,72,285,19,12,59,058,21,24,33,130,19,02,24,089,23*74
$GPGSV,3,2,12,06,18,052,30,19,03,036,09,32,45,263,22,33,33,198,*70
$GPGSV,3,3,12,14,37,297,,29,36,190,,31,20,303,,04,16,120,*71
$GPRMC,172934.000,A,4806.8687,N,00139.4152,W,1.74,259.27,140218,,,A*73
$GPGGA,172935.000,4806.8686,N,00139.4157,W,1,05,2.5,60.7,M,48.3,M,,0000*7F
$GPGSA,M,3,25,12,24,02,06,,,,,,,,4.4,2.5,3.6*3A
$GPRMC,172935.000,A,4806.8686,N,00139.4157,W,1.37,259.32,140218,,,A*75
$GPGGA,172936.000,4806.8685,N,00139.4160,W,1,05,2.5,60.5,M,48.3,M,,0000*79
arfcn: 608 bsic: 46 rxLev: -93 ber: 1.09 mcc: 208 mnc: 01 lac: 10300 cellId: 36733 cellStatus: CELL_FORBIDDEN numArfcn: 16 arfcn: 519 520 521 522 523 524 525 526 596 597 598 599 600 601 602 603 numChannels: 15 array: 1 3 6 7 10 12 14 512 513 514 515 517 604 605 606 pbcch: 0 nom: 2 rac: 1 spgc: 0 pat: 6 nco: 0 t3168: 1000 t3192: 500 drxmax: 2 ctrlAck: 0 bsCVmax: 9 alpha: 5 pcMeasCh: 1 
arfcn: 627 rxLev: -93
arfcn: 635 rxLev: -93
$GPGSA,M,3,25,12,24,02,06,,,,,,,,4.4,2.5,3.6*3A
arfcn: 636 rxLev: -93
$GPRMC,172936.000,A,4806.8685,N,00139.4160,W,0.86,259.32,140218,,,A*7A
arfcn: 638 rxLev: -93
arfcn: 84 rxLev: -93
$GPGGA,172937.000,4806.8681,N,00139.4161,W,1,05,2.5,60.1,M,48.3,M,,0000*79
$GPGSA,M,3,25,12,24,02,06,,,,,,,,4.4,2.5,3.6*3A
$GPRMC,172937.000,A,4806.8681,N,00139.4161,W,0.90,259.32,140218,,,A*79
$GPGGA,172938.000,4806.8679,N,00139.4163,W,1,05,2.5,59.9,M,48.3,M,,0000*71
$GPGSA,M,3,25,12,24,02,06,,,,,,,,4.4,2.5,3.6*3A
$GPRMC,172938.000,A,4806.8679,N,00139.4163,W,0.58,259.32,140218,,,A*77
arfcn: 6 bsic: 2 rxLev: -93 ber: 2.05 mcc: 208 mnc: 01 lac: 10301 cellId: 6463 cellStatus: CELL_FORBIDDEN numArfcn: 13 arfcn: 6 17 18 19 20 21 22 23 24 25 47 48 49 numChannels: 16 array: 1 2 3 4 5 10 11 12 14 15 512 513 517 604 606 607 pbcch: 0 nom: 2 rac: 1 spgc: 0 pat: 6 nco: 0 t3168: 1000 t3192: 500 drxmax: 2 ctrlAck: 0 bsCVmax: 9 alpha: 5 pcMeasCh: 1 
arfcn: 880 rxLev: -93
arfcn: 875 rxLev: -93
arfcn: 878 rxLev: -93
arfcn: 877 rxLev: -93
arfcn: 768 rxLev: -93
$GPGGA,172939.000,4806.8678,N,00139.4164,W,1,05,2.5,59.8,M,48.3,M,,0000*77
$GPGSA,M,3,25,12,24,02,06,,,,,,,,4.4,2.5,3.6*3A
$GPGSV,3,1,12,25,72,285,18,12,59,058,21,24,33,130,18,02,24,089,22*75
$GPGSV,3,2,12,06,18,052,30,19,03,036,09,29,36,190,16,32,45,263,22*71
$GPGSV,3,3,12,33,33,198,,14,37,297,,31,20,303,,04,16,120,*77
$GPRMC,172939.000,A,4806.8678,N,00139.4164,W,0.23,259.32,140218,,,A*7C
$GPGGA,172940.000,4806.8676,N,00139.4163,W,1,05,2.5,59.6,M,48.3,M,,0000*7E
arfcn: 83 bsic: 23 rxLev: -93 ber: 1.06 mcc: 208 mnc: 10 lac: 49415 cellId: 55693 cellStatus: CELL_FORBIDDEN numArfcn: 2 arfcn: 83 121 numChannels: 14 array: 76 77 78 83 85 86 115 116 117 118 119 120 123 124 pbcch: 0 nom: 2 rac: 31 spgc: 0 pat: 6 nco: 0 t3168: 1000 t3192: 500 drxmax: 4 ctrlAck: 1 bsCVmax: 9 alpha: 10 pcMeasCh: 0 
arfcn: 72 rxLev: -93
$GPGSA,M,3,25,12,24,02,06,,,,,,,,4.4,2.5,3.6*3A
arfcn: 110 rxLev: -93
arfcn: 637 rxLev: -93
$GPRMC,172940.000,A,4806.8676,N,00139.4163,W,0.30,259.32,140218,,,A*79
arfcn: 648 rxLev: -93
arfcn: 630 rxLev: -93
arfcn: 631 rxLev: -93
arfcn: 632 rxLev: -93
arfcn: 634 rxLev: -93
arfcn: 625 rxLev: -93
arfcn: 626 rxLev: -93
arfcn: 663 rxLev: -93
arfcn: 664 rxLev: -93
$GPGGA,172941.000,4806.8677,N,00139.4161,W,1,05,2.5,59.4,M,48.3,M,,0000*7E
arfcn: 512 rxLev: -93
$GPGSA,M,3,25,12,24,02,06,,,,,,,,4.4,2.5,3.6*3A
$GPRMC,172941.000,A,4806.8677,N,00139.4161,W,0.63,259.32,140218,,,A*7D
$GPGGA,172942.000,4806.8677,N,00139.4156,W,1,05,2.5,59.2,M,48.3,M,,0000*7F
$GPGSA,M,3,25,12,24,02,06,,,,,,,,4.4,2.5,3.6*3A
$GPRMC,172942.000,A,4806.8677,N,00139.4156,W,1.14,259.32,140218,,,A*7B
$GPGGA,172943.000,4806.8676,N,00139.4151,W,1,05,2.5,58.9,M,48.3,M,,0000*72
$GPGSA,M,3,25,12,24,02,06,,,,,,,,4.4,2.5,3.6*3A
$GPRMC,172943.000,A,4806.8676,N,00139.4151,W,1.25,210.00,140218,,,A*72
arfcn: 514 bsic: 1 rxLev: -93 ber: 10.07 mcc: 208 mnc: 01 lac: 10300 cellId: 39259 cellStatus: CELL_FORBIDDEN numArfcn: 0 arfcn: numChannels: 0 array:
arfcn: 666 rxLev: -94
arfcn: 661 rxLev: -94
$GPGGA,172944.000,4806.8675,N,00139.4148,W,1,05,2.5,58.8,M,48.3,M,,0000*7F
arfcn: 662 rxLev: -94
$GPGSA,M,3,25,12,24,02,06,,,,,,,,4.4,2.5,3.6*3A
arfcn: 657 rxLev: -94
arfcn: 658 rxLev: -94
$GPGSV,3,1,12,25,72,287,17,12,58,058,20,24,33,130,17,02,24,088,21*75
arfcn: 623 rxLev: -94
arfcn: 633 rxLev: -94
$GPGSV,3,2,12,06,18,052,30,19,03,036,10,29,37,190,16,32,44,263,22*79
arfcn: 629 rxLev: -94
arfcn: 649 rxLev: -94
$GPGSV,3,3,12,37,27,150,,14,37,296,,31,20,303,,04,16,120,*73
arfcn: 639 rxLev: -94
$GPRMC,172944.000,A,4806.8675,N,00139.4148,W,1.10,210.00,140218,,,A*78
arfcn: 19 rxLev: -94
arfcn: 725 rxLev: -94
arfcn: 726 rxLev: -94
$GPGGA,172945.000,4806.8675,N,00139.4145,W,1,05,2.5,58.8,M,48.3,M,,0000*73
arfcn: 724 rxLev: -94
$GPGSA,M,3,25,12,24,02,06,,,,,,,,4.4,2.5,3.6*3A
arfcn: 729 rxLev: -94
arfcn: 752 rxLev: -94
$GPRMC,172945.000,A,4806.8675,N,00139.4145,W,0.95,210.00,140218,,,A*78
arfcn: 763 rxLev: -94
arfcn: 52 rxLev: -94
arfcn: 48 rxLev: -94
arfcn: 650 rxLev: -94
arfcn: 644 rxLev: -94
arfcn: 628 rxLev: -94
arfcn: 624 rxLev: -94
arfcn: 656 rxLev: -94
$GPGGA,172946.000,4806.8675,N,00139.4149,W,1,05,2.5,58.8,M,48.3,M,,0000*7C
arfcn: 660 rxLev: -94
$GPGSA,M,3,25,12,24,02,06,,,,,,,,4.4,2.5,3.6*3A
arfcn: 667 rxLev: -94
arfcn: 665 rxLev: -95
$GPRMC,172946.000,A,4806.8675,N,00139.4149,W,0.36,210.00,140218,,,A*7E
arfcn: 655 rxLev: -95
arfcn: 651 rxLev: -95
arfcn: 653 rxLev: -95
arfcn: 654 rxLev: -95
arfcn: 622 rxLev: -95
arfcn: 642 rxLev: -95
$GPGGA,172947.000,4806.8674,N,00139.4150,W,1,05,2.5,58.8,M,48.3,M,,0000*74
$GPGSA,M,3,25,12,24,02,06,,,,,,,,4.4,2.5,3.6*3A
$GPRMC,172947.000,A,4806.8674,N,00139.4150,W,0.25,210.00,140218,,,A*74
$GPGGA,172948.000,4806.8674,N,00139.4154,W,1,05,2.5,59.0,M,48.3,M,,0000*76
$GPGSA,M,3,25,12,24,02,06,,,,,,,,4.4,2.5,3.6*3A
$GPRMC,172948.000,A,4806.8674,N,00139.4154,W,0.28,210.00,140218,,,A*72
arfcn: 987 bsic: 40 rxLev: -95 ber: 10.04 mcc: FFF mnc: FF lac: 65535 cellId: 0 cellStatus: CELL_OTHER numArfcn: 0 arfcn: numChannels: 0 array:
$GPGGA,172949.000,4806.8675,N,00139.4160,W,1,05,2.5,59.1,M,48.3,M,,0000*70
$GPGSA,M,3,25,12,24,02,06,,,,,,,,4.4,2.5,3.6*3A
$GPGSV,3,1,12,25,72,287,16,12,58,058,19,24,33,130,16,02,24,088,19*74
$GPGSV,3,2,12,06,18,052,31,19,03,036,09,29,37,190,16,32,44,263,21*73
$GPGSV,3,3,12,37,27,150,,14,37,296,,31,20,303,,04,16,120,*73
arfcn: 117 bsic: 12 rxLev: -95 ber: 0.00 mcc: 208 mnc: 10 lac: 49415 cellId: 3568 cellStatus: CELL_FORBIDDEN numArfcn: 2 arfcn: 82 117 numChannels: 17 array: 76 77 78 79 80 83 84 85 87 113 114 116 117 120 122 123 124 pbcch: 0 nom: 2 rac: 31 spgc: 0 pat: 6 nco: 0 t3168: 1000 t3192: 500 drxmax: 4 ctrlAck: 1 bsCVmax: 9 alpha: 10 pcMeasCh: 0 
arfcn: 766 rxLev: -95
$GPRMC,172949.000,A,4806.8675,N,00139.4160,W,0.71,210.00,140218,,,A*79
arfcn: 767 rxLev: -95
arfcn: 769 rxLev: -95
arfcn: 758 rxLev: -95
$GPGGA,172950.000,4806.8674,N,00139.4168,W,1,05,2.5,59.1,M,48.3,M,,0000*71
arfcn: 762 rxLev: -95
$GPGSA,M,3,25,12,24,02,06,,,,,,,,4.4,2.5,3.6*3A
arfcn: 771 rxLev: -95
$GPRMC,172950.000,A,4806.8674,N,00139.4168,W,0.84,210.00,140218,,,A*72
arfcn: 772 rxLev: -95
arfcn: 773 rxLev: -95
arfcn: 778 rxLev: -95
arfcn: 779 rxLev: -95
arfcn: 751 rxLev: -95
arfcn: 739 rxLev: -95
arfcn: 740 rxLev: -95
arfcn: 727 rxLev: -95
$GPGGA,172951.000,4806.8674,N,00139.4173,W,1,05,2.5,59.1,M,48.3,M,,0000*7A
arfcn: 728 rxLev: -95
arfcn: 723 rxLev: -95
$GPGSA,M,3,25,12,24,02,06,,,,,,,,4.4,2.5,3.6*3A
arfcn: 735 rxLev: -95
arfcn: 737 rxLev: -95
$GPRMC,172951.000,A,4806.8674,N,00139.4173,W,0.72,210.00,140218,,,A*70
arfcn: 715 rxLev: -95
arfcn: 716 rxLev: -95
arfcn: 718 rxLev: -95
arfcn: 720 rxLev: -95
arfcn: 721 rxLev: -95
arfcn: 722 rxLev: -95
arfcn: 688 rxLev: -95
arfcn: 689 rxLev: -95
$GPGGA,172952.000,4806.8670,N,00139.4175,W,1,05,2.5,59.0,M,48.3,M,,0000*7A
arfcn: 692 rxLev: -95
$GPGSA,M,3,25,12,24,02,06,,,,,,,,4.4,2.5,3.6*3A
arfcn: 738 rxLev: -95
arfcn: 736 rxLev: -95
$GPRMC,172952.000,A,4806.8670,N,00139.4175,W,0.57,210.00,140218,,,A*76
arfcn: 734 rxLev: -95
arfcn: 741 rxLev: -95
arfcn: 747 rxLev: -95
arfcn: 748 rxLev: -95
arfcn: 749 rxLev: -95
arfcn: 750 rxLev: -95
arfcn: 777 rxLev: -95
$GPGGA,172953.000,4806.8666,N,00139.4172,W,1,05,2.5,59.0,M,48.3,M,,0000*7B
arfcn: 775 rxLev: -95
$GPGSA,M,3,25,12,24,02,06,,,,,,,,4.4,2.5,3.6*3A
arfcn: 774 rxLev: -95
arfcn: 761 rxLev: -95
$GPRMC,172953.000,A,4806.8666,N,00139.4172,W,0.68,210.00,140218,,,A*7B
arfcn: 760 rxLev: -95
arfcn: 757 rxLev: -95
arfcn: 770 rxLev: -95
$GPGGA,172954.000,4806.8664,N,00139.4174,W,1,04,3.4,59.1,M,48.3,M,,0000*78
$GPGSA,M,3,25,12,02,06,,,,,,,,,5.1,3.4,3.8*36
$GPGSV,3,1,12,25,72,287,16,12,58,058,18,02,24,088,21,06,18,052,31*77
$GPGSV,3,2,12,19,03,036,06,24,33,130,04,29,37,190,16,32,44,263,21*76
$GPGSV,3,3,12,37,27,150,,14,37,296,,31,20,303,,04,16,120,*73
$GPRMC,172954.000,A,4806.8664,N,00139.4174,W,0.89,210.00,140218,,,A*77
$GPGGA,172955.000,4806.8663,N,00139.4176,W,1,04,3.4,59.1,M,48.3,M,,0000*7C
arfcn: 609 bsic: 46 rxLev: -95 ber: 2.06 mcc: 208 mnc: 01 lac: 10300 cellId: 60268 cellStatus: CELL_FORBIDDEN numArfcn: 16 arfcn: 519 520 521 522 523 524 525 526 596 597 598 599 600 601 602 603 numChannels: 19 array: 1 2 4 6 7 9 10 11 15 512 513 514 516 517 518 604 605 606 607 pbcch: 0 nom: 2 rac: 1 spgc: 0 pat: 6 nco: 0 t3168: 1000 t3192: 500 drxmax: 2 ctrlAck: 0 bsCVmax: 9 alpha: 5 pcMeasCh: 1 
$GPGSA,M,3,25,12,02,06,,,,,,,,,5.1,3.4,3.8*36
$GPRMC,172955.000,A,4806.8663,N,00139.4176,W,0.64,210.00,140218,,,A*70
$GPGGA,172956.000,4806.8661,N,00139.4175,W,1,04,3.4,58.9,M,48.3,M,,0000*77
$GPGSA,M,3,25,12,02,06,,,,,,,,,5.1,3.4,3.8*36
$GPRMC,172956.000,A,4806.8661,N,00139.4175,W,0.79,210.00,140218,,,A*7E
$GPGGA,172957.000,4806.8661,N,00139.4179,W,1,04,3.4,58.9,M,48.3,M,,0000*7A
$GPGSA,M,3,25,12,02,06,,,,,,,,,5.1,3.4,3.8*36
$GPRMC,172957.000,A,4806.8661,N,00139.4179,W,0.84,210.00,140218,,,A*71
arfcn: 610 bsic: 1 rxLev: -95 ber: 1.10 mcc: 208 mnc: 01 lac: 10300 cellId: 21582 cellStatus: CELL_FORBIDDEN numArfcn: 17 arfcn: 519 520 521 522 523 524 525 526 596 597 598 599 600 601 602 603 610 numChannels: 21 array: 1 4 5 6 8 10 12 13 14 15 512 513 514 515 516 517 518 605 607 608 610 pbcch: 0 nom: 2 rac: 1 spgc: 1 pat: 6 nco: 0 t3168: 1000 t3192: 500 drxmax: 4 ctrlAck: 1 bsCVmax: 9 alpha: 7 pcMeasCh: 0 
arfcn: 643 rxLev: -95
arfcn: 647 rxLev: -95
arfcn: 652 rxLev: -95
$GPGGA,172958.000,4806.8663,N,00139.4180,W,1,04,3.4,58.9,M,48.3,M,,0000*71
arfcn: 659 rxLev: -95
$GPGSA,M,3,25,12,02,06,,,,,,,,,5.1,3.4,3.8*36
arfcn: 668 rxLev: -96
arfcn: 669 rxLev: -96
$GPRMC,172958.000,A,4806.8663,N,00139.4180,W,0.42,210.00,140218,,,A*70
arfcn: 645 rxLev: -96
arfcn: 641 rxLev: -96
arfcn: 621 rxLev: -96
arfcn: 619 rxLev: -96
arfcn: 620 rxLev: -96
arfcn: 617 rxLev: -96
$GPGGA,172959.000,4806.8665,N,00139.4179,W,1,04,3.4,58.9,M,48.3,M,,0000*70
$GPGSA,M,3,25,12,02,06,,,,,,,,,5.1,3.4,3.8*36
$GPGSV,3,1,12,25,72,287,18,12,58,058,18,02,24,088,22,06,18,052,31*7A
$GPGSV,3,2,12,19,03,036,07,24,33,130,04,29,37,190,16,32,44,263,21*77
$GPGSV,3,3,12,37,27,150,,14,37,296,,31,20,303,,04,16,120,*73
$GPRMC,172959.000,A,4806.8665,N,00139.4179,W,0.16,210.00,140218,,,A*70
$GPGGA,173000.000,4806.8665,N,00139.4177,W,1,04,3.4,58.9,M,48.3,M,,0000*7A
$GPGSA,M,3,25,12,02,06,,,,,,,,,5.1,3.4,3.8*36
$GPRMC,173000.000,A,4806.8665,N,00139.4177,W,0.28,210.00,140218,,,A*77
$GPGGA,173001.000,4806.8667,N,00139.4174,W,1,04,3.4,58.8,M,48.3,M,,0000*7B
$GPGSA,M,3,25,12,02,06,,,,,,,,,5.1,3.4,3.9*37
$GPRMC,173001.000,A,4806.8667,N,00139.4174,W,0.68,210.00,140218,,,A*73
arfcn: 1015 bsic: 59 rxLev: -96 ber: 0.01 mcc: 208 mnc: 20 lac: 418 cellId: 22494 cellStatus: CELL_SUITABLE numArfcn: 1 arfcn: 1015 numChannels: 24 array: 788 789 790 792 794 880 883 884 885 976 978 979 980 981 982 986 987 1013 1014 1017 1018 1019 1020 1021 pbcch: 0 nom: 2 rac: 7 spgc: 0 pat: 6 nco: 0 t3168: 1500 t3192: 500 drxmax: 0 ctrlAck: 0 bsCVmax: 8 alpha: 6 pcMeasCh: 1 
arfcn: 86 rxLev: -96
arfcn: 765 rxLev: -96
$GPGGA,173002.000,4806.8671,N,00139.4173,W,1,04,3.4,58.8,M,48.3,M,,0000*78
arfcn: 764 rxLev: -96
$GPGSA,M,3,25,12,02,06,,,,,,,,,5.1,3.4,3.9*37
arfcn: 756 rxLev: -96
arfcn: 776 rxLev: -96
$GPRMC,173002.000,A,4806.8671,N,00139.4173,W,0.83,210.00,140218,,,A*75
arfcn: 780 rxLev: -96
arfcn: 753 rxLev: -96
arfcn: 745 rxLev: -96
arfcn: 731 rxLev: -96
arfcn: 730 rxLev: -96
arfcn: 693 rxLev: -96
arfcn: 696 rxLev: -96
$GPGGA,173003.000,4806.8673,N,00139.4170,W,1,04,3.4,58.6,M,48.3,M,,0000*76
arfcn: 697 rxLev: -96
arfcn: 719 rxLev: -96
$GPGSA,M,3,25,12,02,06,,,,,,,,,5.1,3.4,3.9*37
arfcn: 702 rxLev: -96
$GPRMC,173003.000,A,4806.8673,N,00139.4170,W,1.10,210.00,140218,,,A*7E
arfcn: 701 rxLev: -96
arfcn: 717 rxLev: -96
arfcn: 694 rxLev: -96
arfcn: 690 rxLev: -96
arfcn: 687 rxLev: -96
arfcn: 732 rxLev: -96
arfcn: 733 rxLev: -96
arfcn: 746 rxLev: -96
arfcn: 743 rxLev: -96
arfcn: 781 rxLev: -96
$GPGGA,173004.000,4806.8674,N,00139.4167,W,1,05,2.5,58.5,M,48.3,M,,0000*72
arfcn: 755 rxLev: -96
$GPGSA,M,3,25,12,24,02,06,,,,,,,,4.4,2.5,3.6*3A
arfcn: 881 rxLev: -96
arfcn: 15 rxLev: -96
$GPGSV,3,1,12,25,72,287,19,12,58,058,19,24,33,130,08,02,24,088,22*7C
arfcn: 646 rxLev: -96
arfcn: 670 rxLev: -96
$GPGSV,3,2,12,06,18,052,31,19,03,036,10,29,37,190,15,32,44,263,22*7B
arfcn: 671 rxLev: -97
$GPGSV,3,3,12,37,27,150,,14,37,296,,31,20,303,,04,16,120,*73
arfcn: 1019 rxLev: -97
arfcn: 759 rxLev: -97
$GPRMC,173004.000,A,4806.8674,N,00139.4167,W,0.97,210.00,140218,,,A*76
arfcn: 782 rxLev: -97
arfcn: 744 rxLev: -97
$GPGGA,173005.000,4806.8677,N,00139.4166,W,1,04,3.4,58.4,M,48.3,M,,0000*71
$GPGSA,M,3,25,12,02,06,,,,,,,,,5.1,3.4,3.9*37
arfcn: 742 rxLev: -97
arfcn: 754 rxLev: -97
$GPRMC,173005.000,A,4806.8677,N,00139.4166,W,0.76,210.00,140218,,,A*7A
arfcn: 686 rxLev: -97
arfcn: 691 rxLev: -97
arfcn: 698 rxLev: -97
arfcn: 695 rxLev: -97
arfcn: 699 rxLev: -97
arfcn: 700 rxLev: -97
arfcn: 703 rxLev: -97
arfcn: 1023 rxLev: -97
arfcn: 672 rxLev: -97
$GPGGA,173006.000,4806.8681,N,00139.4167,W,1,04,3.4,58.4,M,48.3,M,,0000*7A
arfcn: 673 rxLev: -97
$GPGSA,M,3,25,12,02,06,,,,,,,,,5.1,3.4,3.9*37
arfcn: 674 rxLev: -98
arfcn: 681 rxLev: -98
$GPRMC,173006.000,A,4806.8681,N,00139.4167,W,0.61,210.00,140218,,,A*77
arfcn: 640 rxLev: -98
arfcn: 1018 rxLev: -98
arfcn: 618 rxLev: -98
$GPGGA,173007.000,4806.8681,N,00139.4168,W,1,05,2.5,58.3,M,48.3,M,,0000*72
$GPGSA,M,3,25,12,24,02,06,,,,,,,,4.4,2.5,3.6*3A
$GPRMC,173007.000,A,4806.8681,N,00139.4168,W,0.14,210.00,140218,,,A*7B
$GPGGA,173008.000,4806.8680,N,00139.4162,W,1,05,2.5,58.2,M,48.3,M,,0000*77
arfcn: 517 bsic: 57 rxLev: -98 ber: 2.04 mcc: FFF mnc: FF lac: 65535 cellId: 0 cellStatus: CELL_OTHER numArfcn: 0 arfcn: numChannels: 0 array:
$GPGSA,M,3,25,12,24,02,06,,,,,,,,4.4,2.5,3.6*3A
$GPRMC,173008.000,A,4806.8680,N,00139.4162,W,0.54,210.00,140218,,,A*7B
$GPGGA,173009.000,4806.8680,N,00139.4162,W,1,05,2.5,58.1,M,48.3,M,,0000*75
$GPGSA,M,3,25,12,24,02,06,,,,,,,,4.4,2.5,3.6*3A
$GPGSV,3,1,12,25,72,287,20,12,58,058,19,24,33,130,10,02,24,088,21*7C
$GPGSV,3,2,12,06,18,052,30,19,03,036,04,29,37,190,14,32,44,263,22*7E
$GPGSV,3,3,12,37,27,150,,14,37,296,,31,20,303,,04,16,120,*73
$GPRMC,173009.000,A,4806.8680,N,00139.4162,W,0.05,210.00,140218,,,A*7E
arfcn: 82 bsic: 63 rxLev: -98 ber: 0.01 mcc: 208 mnc: 10 lac: 49415 cellId: 53517 cellStatus: CELL_FORBIDDEN numArfcn: 2 arfcn: 82 84 numChannels: 17 array: 76 77 78 79 80 82 85 86 114 115 118 119 120 121 122 123 124 pbcch: 0 nom: 2 rac: 31 spgc: 0 pat: 6 nco: 0 t3168: 1000 t3192: 500 drxmax: 4 ctrlAck: 1 bsCVmax: 9 alpha: 10 pcMeasCh: 0 
arfcn: 89 rxLev: -98
arfcn: 975 rxLev: -98
$GPGGA,173010.000,4806.8680,N,00139.4160,W,1,05,2.5,57.9,M,48.3,M,,0000*78
arfcn: 705 rxLev: -98
$GPGSA,M,3,25,12,24,02,06,,,,,,,,4.4,2.5,3.6*3A
arfcn: 706 rxLev: -98
arfcn: 685 rxLev: -98
$GPRMC,173010.000,A,4806.8680,N,00139.4160,W,0.46,210.00,140218,,,A*73
arfcn: 683 rxLev: -98
arfcn: 680 rxLev: -98
arfcn: 677 rxLev: -98
arfcn: 678 rxLev: -99
arfcn: 676 rxLev: -99
arfcn: 682 rxLev: -99
arfcn: 516 rxLev: -99
$GPGGA,173011.000,4806.8679,N,00139.4157,W,1,04,2.6,57.7,M,48.3,M,,0000*77
$GPGSA,M,3,25,12,24,06,,,,,,,,,4.5,2.6,3.6*3A
$GPRMC,173011.000,A,4806.8679,N,00139.4157,W,0.57,210.00,140218,,,A*70
$GPGGA,173012.000,4806.8679,N,00139.4157,W,1,05,2.5,57.5,M,48.3,M,,0000*74
$GPGSA,M,3,25,12,24,02,06,,,,,,,,4.4,2.5,3.6*3A
$GPRMC,173012.000,A,4806.8679,N,00139.4157,W,0.46,210.00,140218,,,A*73
$GPGGA,173013.000,4806.8680,N,00139.4157,W,1,05,2.5,57.3,M,48.3,M,,0000*75
$GPGSA,M,3,25,12,24,02,06,,,,,,,,4.4,2.5,3.6*3A
$GPRMC,173013.000,A,4806.8680,N,00139.4157,W,0.25,210.00,140218,,,A*71
$GPGGA,173014.000,4806.8681,N,00139.4158,W,1,05,2.5,57.3,M,48.3,M,,0000*7C
$GPGSA,M,3,25,12,24,02,06,,,,,,,,4.4,2.5,3.6*3A
$GPGSV,3,1,12,25,72,287,20,12,58,058,19,24,32,130,14,02,24,088,17*7C
arfcn: 1013 bsic: 63 rxLev: -99 ber: 1.05 mcc: 208 mnc: 20 lac: 418 cellId: 38979 cellStatus: CELL_SUITABLE numArfcn: 2 arfcn: 988 1013 numChannels: 27 array: 787 788 790 794 879 880 881 882 885 975 976 977 978 979 981 983 984 985 986 1012 1014 1016 1017 1018 1019 1020 1022 pbcch: 0 nom: 2 rac: 6 spgc: 0 pat: 6 nco: 0 t3168: 1500 t3192: 500 drxmax: 0 ctrlAck: 0 bsCVmax: 8 alpha: 6 pcMeasCh: 1 
arfcn: 22 rxLev: -99
arfcn: 684 rxLev: -99
$GPGSV,3,2,12,06,18,051,30,19,03,036,04,32,44,262,22,39,31,144,*77
arfcn: 704 rxLev: -99
arfcn: 0 rxLev: -99
$GPGSV,3,3,12,14,38,296,,29,37,190,,31,21,303,,04,17,119,*74
arfcn: 49 rxLev: -99
arfcn: 75 rxLev: -99
$GPRMC,173014.000,A,4806.8681,N,00139.4158,W,0.11,210.00,140218,,,A*7F
$GPGGA,173015.000,4806.8682,N,00139.4155,W,1,05,2.5,57.2,M,48.3,M,,0000*72
$GPGSA,M,3,25,12,24,02,06,,,,,,,,4.4,2.5,3.6*3A
$GPRMC,173015.000,A,4806.8682,N,00139.4155,W,0.49,210.00,140218,,,A*7D
$GPGGA,173016.000,4806.8683,N,00139.4150,W,1,05,2.5,57.2,M,48.3,M,,0000*75
$GPGSA,M,3,25,12,24,02,06,,,,,,,,4.4,2.5,3.6*3A
$GPRMC,173016.000,A,4806.8683,N,00139.4150,W,0.69,210.00,140218,,,A*78
arfcn: 518 bsic: 15 rxLev: -99 ber: 1.09 mcc: FFF mnc: FF lac: 65535 cellId: 0 cellStatus: CELL_OTHER numArfcn: 0 arfcn: numChannels: 0 array:
arfcn: 679 rxLev: -99
arfcn: 675 rxLev: -99
arfcn: 121 rxLev: -100
arfcn: 20 rxLev: -100
arfcn: 24 rxLev: -100
arfcn: 51 rxLev: -100
$GPGGA,173017.000,4806.8683,N,00139.4149,W,1,05,2.5,57.1,M,48.3,M,,0000*7F
arfcn: 119 rxLev: -100
arfcn: 111 rxLev: -100
$GPGSA,M,3,25,12,24,02,06,,,,,,,,4.4,2.5,3.6*3A
arfcn: 73 rxLev: -101
arfcn: 81 rxLev: -101
$GPRMC,173017.000,A,4806.8683,N,00139.4149,W,0.45,210.00,140218,,,A*7F
arfcn: 977 rxLev: -101
arfcn: 1022 rxLev: -101
$GPGGA,173018.000,4806.8682,N,00139.4149,W,1,05,2.5,57.0,M,48.3,M,,0000*70
$GPGSA,M,3,25,12,24,02,06,,,,,,,,4.4,2.5,3.6*3A
$GPRMC,173018.000,A,4806.8682,N,00139.4149,W,0.36,210.00,140218,,,A*75
$GPGGA,173019.000,4806.8683,N,00139.4150,W,1,05,2.5,56.9,M,48.3,M,,0000*70
$GPGSA,M,3,25,12,24,02,06,,,,,,,,4.4,2.5,3.6*3A
$GPGSV,3,1,12,25,72,287,21,12,58,058,20,24,32,130,17,02,24,088,17*74
$GPGSV,3,2,12,06,18,051,30,19,03,036,08,32,44,262,21,39,31,144,*78
$GPGSV,3,3,12,14,38,296,,29,37,190,,31,21,303,,04,17,119,*74
$GPRMC,173019.000,A,4806.8683,N,00139.4150,W,0.42,210.00,140218,,,A*7E
$GPGGA,173020.000,4806.8686,N,00139.4152,W,1,05,2.5,56.9,M,48.3,M,,0000*7D
$GPGSA,M,3,25,12,24,02,06,,,,,,,,4.4,2.5,3.6*3A
$GPRMC,173020.000,A,4806.8686,N,00139.4152,W,0.32,210.00,140218,,,A*74
arfcn: 1012 bsic: 19 rxLev: -102 ber: 0.05 mcc: 208 mnc: 20 lac: 418 cellId: 20011 cellStatus: CELL_OTHER numArfcn: 2 arfcn: 988 1012 numChannels: 24 array: 787 789 794 882 976 977 978 979 980 981 982 983 985 986 987 1011 1013 1014 1015 1016 1017 1019 1020 1021 pbcch: 0 nom: 2 rac: 6 spgc: 0 pat: 6 nco: 0 t3168: 1500 t3192: 500 drxmax: 0 ctrlAck: 0 bsCVmax: 8 alpha: 4 pcMeasCh: 1 
arfcn: 988 rxLev: -103
arfcn: 976 rxLev: -103
arfcn: 789 rxLev: -103
arfcn: 116 rxLev: -103
$GPGGA,173021.000,4806.8690,N,00139.4153,W,1,04,6.1,56.9,M,48.3,M,,0000*7B
arfcn: 1011 rxLev: -103
$GPGSA,M,3,12,24,02,06,,,,,,,,,7.9,6.1,5.1*32
arfcn: 607 rxLev: -103
arfcn: 16 rxLev: -104
$GPRMC,173021.000,A,4806.8690,N,00139.4153,W,0.67,210.00,140218,,,A*73
arfcn: 50 rxLev: -105
arfcn: 788 rxLev: -105
arfcn: 790 rxLev: -105
arfcn: 1010 rxLev: -105
arfcn: 113 rxLev: -106
arfcn: 87 rxLev: -106
arfcn: 74 rxLev: -106
arfcn: 88 rxLev: -106
$GPGGA,173022.000,4806.8696,N,00139.4157,W,1,04,6.1,56.9,M,48.3,M,,0000*7A
arfcn: 603 rxLev: -106
