$GPGGA,150233.000,4758.1007,N,00124.0338,W,1,07,1.5,73.0,M,48.1,M,,0000*75
$GPGGA,150234.000,4758.1007,N,00124.0338,W,1,07,1.5,73.0,M,48.1,M,,0000*72
$GPGGA,150235.000,4758.1008,N,00124.0339,W,1,07,1.5,73.0,M,48.1,M,,0000*7D
$GPGGA,150236.000,4758.1008,N,00124.0339,W,1,07,1.5,73.1,M,48.1,M,,0000*7F
$GPGGA,150237.000,4758.1009,N,00124.0339,W,1,07,1.5,73.1,M,48.1,M,,0000*7F
$GPGGA,150238.000,4758.1010,N,00124.0340,W,1,07,1.5,73.1,M,48.1,M,,0000*76
$GPGGA,150239.000,4758.1010,N,00124.0340,W,1,07,1.5,73.2,M,48.1,M,,0000*74
$GPGGA,150240.000,4758.1011,N,00124.0341,W,1,07,1.5,73.2,M,48.1,M,,0000*7A
$GPGGA,150241.000,4758.1012,N,00124.0341,W,1,07,1.5,73.3,M,48.1,M,,0000*79
$GPGGA,150242.000,4758.1012,N,00124.0342,W,1,07,1.5,73.3,M,48.1,M,,0000*79
$GPGGA,150243.000,4758.1013,N,00124.0342,W,1,07,1.5,73.3,M,48.1,M,,0000*79
$GPGGA,150244.000,4758.1014,N,00124.0342,W,1,07,1.5,73.4,M,48.1,M,,0000*7E
$GPGGA,150245.000,4758.1014,N,00124.0343,W,1,07,1.5,73.4,M,48.1,M,,0000*7E
$GPGGA,150246.000,4758.1015,N,00124.0343,W,1,07,1.5,73.5,M,48.1,M,,0000*7D
$GPGGA,150247.000,4758.1016,N,00124.0344,W,1,07,1.5,73.5,M,48.1,M,,0000*78
$GPGGA,150248.000,4758.1016,N,00124.0344,W,1,07,1.5,73.5,M,48.1,M,,0000*77
$GPGGA,150249.000,4758.1017,N,00124.0345,W,1,07,1.5,73.6,M,48.1,M,,0000*75
$GPGGA,150250.000,4758.1017,N,00124.0345,W,1,07,1.5,73.6,M,48.1,M,,0000*7D
$GPGGA,150251.000,4758.1018,N,00124.0345,W,1,07,1.5,73.6,M,48.1,M,,0000*73
$GPGGA,150252.000,4758.1018,N,00124.0346,W,1,07,1.5,73.7,M,48.1,M,,0000*72
$GPGGA,150253.000,4758.1019,N,00124.0346,W,1,07,1.5,73.7,M,48.1,M,,0000*72
$GPGGA,150254.000,4758.1020,N,00124.0347,W,1,07,1.5,73.7,M,48.1,M,,0000*7E
$GPGGA,150255.000,4758.1020,N,00124.0347,W,1,07,1.5,73.8,M,48.1,M,,0000*70
$GPGGA,150256.000,4758.1021,N,00124.0348,W,1,07,1.5,73.8,M,48.1,M,,0000*7D
$GPGGA,150257.000,4758.1021,N,00124.0348,W,1,07,1.5,73.8,M,48.1,M,,0000*7C
$GPGGA,150258.000,4758.1022,N,00124.0349,W,1,07,1.5,73.9,M,48.1,M,,0000*70
$GPGGA,150259.000,4758.1022,N,00124.0349,W,1,07,1.5,73.9,M,48.1,M,,0000*71
$GPGGA,150300.000,4758.1023,N,00124.0349,W,1,07,1.5,73.9,M,48.1,M,,0000*7D
$GPGGA,150301.000,4758.1023,N,00124.0350,W,1,07,1.5,73.9,M,48.1,M,,0000*74
$GPGGA,150302.000,4758.1024,N,00124.0350,W,1,07,1.5,74.0,M,48.1,M,,0000*7E
$GPGGA,150303.000,4758.1024,N,00124.0351,W,1,07,1.5,74.0,M,48.1,M,,0000*7E
$GPGGA,150304.000,4758.1025,N,00124.0351,W,1,07,1.5,74.0,M,48.1,M,,0000*78
$GPGGA,150305.000,4758.1025,N,00124.0351,W,1,07,1.5,74.0,M,48.1,M,,0000*79
$GPGGA,150306.000,4758.1025,N,00124.0352,W,1,07,1.5,74.1,M,48.1,M,,0000*78
$GPGGA,150307.000,4758.1026,N,00124.0352,W,1,07,1.5,74.1,M,48.1,M,,0000*7A
$GPGGA,150308.000,4758.1026,N,00124.0352,W,1,07,1.5,74.1,M,48.1,M,,0000*75
$GPGGA,150309.000,4758.1027,N,00124.0353,W,1,07,1.5,74.2,M,48.1,M,,0000*77
$GPGGA,150310.000,4758.1027,N,00124.0353,W,1,07,1.5,74.2,M,48.1,M,,0000*7F
$GPGGA,150311.000,4758.1028,N,00124.0353,W,1,07,1.5,74.2,M,48.1,M,,0000*71
$GPGGA,150312.000,4758.1028,N,00124.0354,W,1,07,1.5,74.2,M,48.1,M,,0000*75
$GPGGA,150313.000,4758.1028,N,00124.0354,W,1,07,1.5,74.2,M,48.1,M,,0000*74
$GPGGA,150314.000,4758.1029,N,00124.0354,W,1,07,1.5,74.2,M,48.1,M,,0000*72
$GPGGA,150315.000,4758.1029,N,00124.0354,W,1,07,1.5,74.3,M,48.1,M,,0000*72
$GPGGA,150316.000,4758.1029,N,00124.0355,W,1,07,1.5,74.3,M,48.1,M,,0000*70
$GPGGA,150317.000,4758.1030,N,00124.0355,W,1,07,1.5,74.3,M,48.1,M,,0000*79
$GPGGA,150318.000,4758.1030,N,00124.0355,W,1,07,1.5,74.3,M,48.1,M,,0000*76
$GPGGA,150319.000,4758.1031,N,00124.0356,W,1,07,1.5,74.3,M,48.1,M,,0000*75
$GPGGA,150320.000,4758.1031,N,00124.0356,W,1,07,1.5,74.3,M,48.1,M,,0000*7F
$GPGGA,150321.000,4758.1031,N,00124.0356,W,1,07,1.5,74.3,M,48.1,M,,0000*7E
$GPGGA,150322.000,4758.1032,N,00124.0356,W,1,07,1.5,74.3,M,48.1,M,,0000*7E
$GPGGA,150323.000,4758.1032,N,00124.0357,W,1,07,1.5,74.4,M,48.1,M,,0000*79
$GPGGA,150324.000,4758.1032,N,00124.0357,W,1,07,1.5,74.4,M,48.1,M,,0000*7E
$GPGGA,150325.000,4758.1032,N,00124.0357,W,1,07,1.5,74.3,M,48.1,M,,0000*78
$GPGGA,150326.000,4758.1032,N,00124.0357,W,1,07,1.5,74.3,M,48.1,M,,0000*7B
$GPGGA,150327.000,4758.1032,N,00124.0357,W,1,07,1.5,74.3,M,48.1,M,,0000*7A
$GPGGA,150328.000,4758.1033,N,00124.0357,W,1,07,1.5,74.3,M,48.1,M,,0000*74
$GPGGA,150329.000,4758.1033,N,00124.0358,W,1,07,1.5,74.3,M,48.1,M,,0000*7A
$GPGGA,150330.000,4758.1033,N,00124.0358,W,1,07,1.5,74.2,M,48.1,M,,0000*73
$GPGGA,150331.000,4758.1033,N,00124.0358,W,1,07,1.5,74.2,M,48.1,M,,0000*72
$GPGGA,150332.000,4758.1033,N,00124.0358,W,1,07,1.5,74.1,M,48.1,M,,0000*72
$GPGGA,150333.000,4758.1033,N,00124.0358,W,1,07,1.5,74.1,M,48.1,M,,0000*73
$GPGGA,150334.000,4758.1033,N,00124.0358,W,1,07,1.5,74.1,M,48.1,M,,0000*74
$GPGGA,150335.000,4758.1033,N,00124.0358,W,1,07,1.5,74.0,M,48.1,M,,0000*74
$GPGGA,150336.000,4758.1033,N,00124.0358,W,1,07,1.5,74.0,M,48.1,M,,0000*77
$GPGGA,150337.000,4758.1034,N,00124.0359,W,1,07,1.5,74.0,M,48.1,M,,0000*70
$GPGGA,150338.000,4758.1034,N,00124.0359,W,1,07,1.5,73.9,M,48.1,M,,0000*71
$GPGGA,150339.000,4758.1034,N,00124.0359,W,1,07,1.5,73.9,M,48.1,M,,0000*70
$GPGGA,150340.000,4758.1034,N,00124.0359,W,1,07,1.5,73.9,M,48.1,M,,0000*7E
$GPGGA,150341.000,4758.1034,N,00124.0359,W,1,07,1.5,73.9,M,48.1,M,,0000*7F
$GPGGA,150342.000,4758.1034,N,00124.0359,W,1,07,1.5,73.8,M,48.1,M,,0000*7D
$GPGGA,150343.000,4758.1034,N,00124.0359,W,1,07,1.5,73.8,M,48.1,M,,0000*7C
$GPGGA,150344.000,4758.1034,N,00124.0359,W,1,07,1.5,73.8,M,48.1,M,,0000*7B
$GPGGA,150345.000,4758.1034,N,00124.0359,W,1,07,1.5,73.7,M,48.1,M,,0000*75
$GPGGA,150346.000,4758.1034,N,00124.0360,W,1,07,1.5,73.7,M,48.1,M,,0000*7C
$GPGGA,150347.000,4758.1034,N,00124.0360,W,1,07,1.5,73.8,M,48.1,M,,0000*72
$GPGGA,150348.000,4758.1034,N,00124.0360,W,1,07,1.5,73.8,M,48.1,M,,0000*7D
$GPGGA,150349.000,4758.1035,N,00124.0360,W,1,07,1.5,73.8,M,48.1,M,,0000*7D
$GPGGA,150350.000,4758.1035,N,00124.0360,W,1,07,1.5,73.9,M,48.1,M,,0000*74
$GPGGA,150351.000,4758.1035,N,00124.0360,W,1,07,1.5,73.8,M,48.1,M,,0000*74
$GPGGA,150352.000,4758.1035,N,00124.0360,W,1,07,1.5,73.8,M,48.1,M,,0000*77
$GPGGA,150353.000,4758.1035,N,00124.0360,W,1,07,1.5,73.8,M,48.1,M,,0000*76
$GPGGA,150354.000,4758.1035,N,00124.0360,W,1,07,1.5,73.8,M,48.1,M,,0000*71
$GPGGA,150355.000,4758.1035,N,00124.0361,W,1,07,1.5,73.8,M,48.1,M,,0000*71
$GPGGA,150356.000,4758.1036,N,00124.0361,W,1,07,1.5,73.8,M,48.1,M,,0000*71
$GPGGA,150357.000,4758.1036,N,00124.0361,W,1,07,1.5,73.8,M,48.1,M,,0000*70
$GPGGA,150358.000,4758.1036,N,00124.0361,W,1,07,1.5,73.8,M,48.1,M,,0000*7F
$GPGGA,150359.000,4758.1036,N,00124.0361,W,2,07,1.5,73.7,M,48.1,M,2.0,0000*5E
$GPGGA,150400.000,4758.1036,N,00124.0361,W,2,07,1.5,73.7,M,48.1,M,3.0,0000*54
$GPGGA,150401.000,4758.1037,N,00124.0361,W,2,07,1.5,73.7,M,48.1,M,2.0,0000*55
$GPGGA,150402.000,4758.1037,N,00124.0361,W,2,07,1.5,73.7,M,48.1,M,2.0,0000*56
$GPGGA,150403.000,4758.1037,N,00124.0361,W,2,07,1.5,73.7,M,48.1,M,2.0,0000*57
$GPGGA,150404.000,4758.1037,N,00124.0361,W,2,07,1.5,73.7,M,48.1,M,3.0,0000*51
$GPGGA,150405.000,4758.1037,N,00124.0361,W,2,07,1.5,73.7,M,48.1,M,2.0,0000*51
$GPGGA,150406.000,4758.1038,N,00124.0362,W,2,07,1.5,73.7,M,48.1,M,2.0,0000*5E
$GPGGA,150407.000,4758.1038,N,00124.0362,W,2,07,1.5,73.7,M,48.1,M,2.0,0000*5F
$GPGGA,150408.000,4758.1038,N,00124.0362,W,2,07,1.5,73.7,M,48.1,M,3.0,0000*51
$GPGGA,150409.000,4758.1038,N,00124.0362,W,2,07,1.5,73.7,M,48.1,M,2.0,0000*51
$GPGGA,150410.000,4758.1038,N,00124.0362,W,2,07,1.5,73.7,M,48.1,M,2.0,0000*59
$GPGGA,150411.000,4758.1039,N,00124.0362,W,2,07,1.5,73.7,M,48.1,M,2.0,0000*59
$GPGGA,150412.000,4758.1039,N,00124.0362,W,2,07,1.5,73.7,M,48.1,M,3.0,0000*5B
$GPGGA,150413.000,4758.1039,N,00124.0362,W,2,07,1.5,73.7,M,48.1,M,2.0,0000*5B
$GPGGA,150414.000,4758.1039,N,00124.0362,W,2,07,1.5,73.7,M,48.1,M,2.0,0000*5C
$GPGGA,150415.000,4758.1039,N,00124.0362,W,2,07,1.5,73.7,M,48.1,M,2.0,0000*5D
$GPGGA,150416.000,4758.1040,N,00124.0362,W,2,07,1.5,73.7,M,48.1,M,,0000*7C
$GPGGA,150417.000,4758.1040,N,00124.0362,W,2,07,1.5,73.7,M,48.1,M,,0000*7D
$GPGGA,150418.000,4758.1040,N,00124.0362,W,2,07,1.5,73.7,M,48.1,M,,0000*72
$GPGGA,150419.000,4758.1040,N,00124.0362,W,2,07,1.5,73.7,M,48.1,M,,0000*73
$GPGGA,150420.000,4758.1040,N,00124.0362,W,2,07,1.5,73.7,M,48.1,M,3.0,0000*54
$GPGGA,150421.000,4758.1040,N,00124.0363,W,2,07,1.5,73.7,M,48.1,M,,0000*79
$GPGGA,150422.000,4758.1041,N,00124.0363,W,2,07,1.5,73.7,M,48.1,M,,0000*7B
$GPGGA,150423.000,4758.1041,N,00124.0363,W,2,07,1.5,73.7,M,48.1,M,,0000*7A
$GPGGA,150424.000,4758.1041,N,00124.0363,W,2,07,1.5,73.7,M,48.1,M,3.0,0000*50
$GPGGA,150425.000,4758.1041,N,00124.0363,W,2,07,1.5,73.7,M,48.1,M,,0000*7C
$GPGGA,150426.000,4758.1041,N,00124.0363,W,2,07,1.5,73.7,M,48.1,M,,0000*7F
$GPGGA,150427.000,4758.1041,N,00124.0363,W,2,07,1.5,73.7,M,48.1,M,,0000*7E
$GPGGA,150428.000,4758.1042,N,00124.0363,W,2,07,1.5,73.7,M,48.1,M,,0000*72
$GPGGA,150429.000,4758.1042,N,00124.0363,W,2,07,1.5,73.7,M,48.1,M,,0000*73
$GPGGA,150430.000,4758.1042,N,00124.0363,W,2,07,1.5,73.7,M,48.1,M,,0000*7B
$GPGGA,150431.000,4758.1042,N,00124.0363,W,2,07,1.5,73.7,M,48.1,M,,0000*7A
$GPGGA,150432.000,4758.1042,N,00124.0363,W,2,07,1.5,73.7,M,48.1,M,3.0,0000*54
$GPGGA,150433.000,4758.1042,N,00124.0363,W,2,07,1.5,73.7,M,48.1,M,2.0,0000*54
$GPGGA,150434.000,4758.1043,N,00124.0363,W,2,07,1.5,73.7,M,48.1,M,2.0,0000*52
$GPGGA,150435.000,4758.1043,N,00124.0363,W,2,07,1.5,73.7,M,48.1,M,2.0,0000*53
$GPGGA,150436.000,4758.1043,N,00124.0363,W,2,07,1.5,73.7,M,48.1,M,3.0,0000*51
$GPGGA,150437.000,4758.1043,N,00124.0363,W,2,07,1.5,73.7,M,48.1,M,2.0,0000*51
$GPGGA,150438.000,4758.1043,N,00124.0363,W,2,07,1.5,73.7,M,48.1,M,2.0,0000*5E
$GPGGA,150439.000,4758.1043,N,00124.0363,W,2,07,1.5,73.7,M,48.1,M,,0000*73
$GPGGA,150440.000,4758.1043,N,00124.0363,W,2,07,1.5,73.7,M,48.1,M,3.0,0000*50
$GPGGA,150441.000,4758.1044,N,00124.0364,W,2,07,1.5,73.7,M,48.1,M,,0000*7C
$GPGGA,150442.000,4758.1044,N,00124.0364,W,2,07,1.5,73.7,M,48.1,M,,0000*7F
$GPGGA,150443.000,4758.1044,N,00124.0364,W,2,07,1.5,73.6,M,48.1,M,,0000*7F
$GPGGA,150444.000,4758.1044,N,00124.0364,W,2,07,1.5,73.6,M,48.1,M,,0000*78
$GPGGA,150445.000,4758.1044,N,00124.0364,W,2,07,1.5,73.6,M,48.1,M,,0000*79
$GPGGA,150446.000,4758.1044,N,00124.0364,W,2,07,1.5,73.6,M,48.1,M,,0000*7A
$GPGGA,150447.000,4758.1044,N,00124.0364,W,2,07,1.5,73.6,M,48.1,M,,0000*7B
$GPGGA,150448.000,4758.1044,N,00124.0364,W,2,07,1.5,73.6,M,48.1,M,,0000*74
$GPGGA,150449.000,4758.1044,N,00124.0364,W,2,07,1.5,73.6,M,48.1,M,,0000*75
$GPGGA,150450.000,4758.1045,N,00124.0364,W,2,07,1.5,73.6,M,48.1,M,,0000*7C
$GPGGA,150451.000,4758.1045,N,00124.0364,W,2,07,1.5,73.6,M,48.1,M,,0000*7D
$GPGGA,150452.000,4758.1045,N,00124.0364,W,2,07,1.5,73.5,M,48.1,M,3.0,0000*50
$GPGGA,150453.000,4758.1045,N,00124.0364,W,2,07,1.5,73.5,M,48.1,M,2.0,0000*50
$GPGGA,150454.000,4758.1045,N,00124.0364,W,2,07,1.5,73.5,M,48.1,M,2.0,0000*57
$GPGGA,150455.000,4758.1045,N,00124.0364,W,2,07,1.5,73.5,M,48.1,M,2.0,0000*56
$GPGGA,150456.000,4758.1045,N,00124.0364,W,2,07,1.5,73.5,M,48.1,M,3.0,0000*54
$GPGGA,150457.000,4758.1045,N,00124.0365,W,2,07,1.5,73.5,M,48.1,M,2.0,0000*55
$GPGGA,150458.000,4758.1045,N,00124.0365,W,2,07,1.5,73.5,M,48.1,M,2.0,0000*5A
$GPGGA,150459.000,4758.1045,N,00124.0365,W,2,07,1.5,73.4,M,48.1,M,2.0,0000*5A
$GPGGA,150500.000,4758.1046,N,00124.0365,W,2,07,1.5,73.4,M,48.1,M,3.0,0000*55
$GPGGA,150501.000,4758.1046,N,00124.0365,W,2,07,1.5,73.4,M,48.1,M,2.0,0000*55
$GPGGA,150502.000,4758.1046,N,00124.0365,W,2,07,1.5,73.4,M,48.1,M,2.0,0000*56
$GPGGA,150503.000,4758.1046,N,00124.0365,W,2,07,1.5,73.4,M,48.1,M,2.0,0000*57
$GPGGA,150504.000,4758.1046,N,00124.0365,W,2,07,1.5,73.4,M,48.1,M,3.0,0000*51
$GPGGA,150505.000,4758.1046,N,00124.0365,W,2,07,1.5,73.4,M,48.1,M,2.0,0000*51
$GPGGA,150506.000,4758.1046,N,00124.0365,W,2,07,1.5,73.4,M,48.1,M,2.0,0000*52
$GPGGA,150507.000,4758.1046,N,00124.0365,W,2,07,1.5,73.3,M,48.1,M,2.0,0000*54
$GPGGA,150508.000,4758.1046,N,00124.0365,W,2,07,1.5,73.3,M,48.1,M,2.0,0000*5B
$GPGGA,150509.000,4758.1046,N,00124.0365,W,2,07,1.5,73.3,M,48.1,M,2.0,0000*5A
$GPGGA,150510.000,4758.1046,N,00124.0365,W,2,07,1.5,73.3,M,48.1,M,2.0,0000*52
$GPGGA,150511.000,4758.1046,N,00124.0365,W,2,07,1.5,73.3,M,48.1,M,2.0,0000*53
$GPGGA,150512.000,4758.1046,N,00124.0365,W,2,07,1.5,73.3,M,48.1,M,3.0,0000*51
$GPGGA,150513.000,4758.1046,N,00124.0365,W,2,07,1.5,73.3,M,48.1,M,2.0,0000*51
$GPGGA,150514.000,4758.1046,N,00124.0365,W,2,07,1.5,73.2,M,48.1,M,2.0,0000*57
$GPGGA,150515.000,4758.1047,N,00124.0365,W,2,07,1.5,73.2,M,48.1,M,2.0,0000*57
$GPGGA,150516.000,4758.1047,N,00124.0365,W,2,07,1.5,73.2,M,48.1,M,3.0,0000*55
$GPGGA,150517.000,4758.1047,N,00124.0365,W,2,07,1.5,73.2,M,48.1,M,2.0,0000*55
$GPGGA,150518.000,4758.1047,N,00124.0366,W,2,07,1.5,73.2,M,48.1,M,3.0,0000*58
$GPGGA,150519.000,4758.1047,N,00124.0366,W,2,07,1.5,73.2,M,48.1,M,2.0,0000*58
$GPGGA,150520.000,4758.1047,N,00124.0366,W,2,07,1.5,73.2,M,48.1,M,2.0,0000*52
$GPGGA,150521.000,4758.1047,N,00124.0366,W,2,07,1.5,73.1,M,48.1,M,2.0,0000*50
$GPGGA,150522.000,4758.1047,N,00124.0366,W,2,07,1.5,73.1,M,48.1,M,3.0,0000*52
$GPGGA,150523.000,4758.1047,N,00124.0366,W,2,07,1.5,73.1,M,48.1,M,2.0,0000*52
$GPGGA,150524.000,4758.1047,N,00124.0366,W,2,07,1.5,73.1,M,48.1,M,2.0,0000*55
$GPGGA,150525.000,4758.1047,N,00124.0366,W,2,07,1.5,73.1,M,48.1,M,2.0,0000*54
$GPGGA,150526.000,4758.1047,N,00124.0366,W,2,07,1.5,73.1,M,48.1,M,3.0,0000*56
$GPGGA,150527.000,4758.1047,N,00124.0366,W,2,07,1.5,73.1,M,48.1,M,2.0,0000*56
$GPGGA,150528.000,4758.1047,N,00124.0366,W,2,07,1.5,73.1,M,48.1,M,2.0,0000*59
$GPGGA,150529.000,4758.1047,N,00124.0366,W,2,07,1.5,73.1,M,48.1,M,2.0,0000*58
$GPGGA,150530.000,4758.1047,N,00124.0366,W,2,07,1.5,73.1,M,48.1,M,,0000*7C
$GPGGA,150531.000,4758.1047,N,00124.0366,W,2,07,1.5,73.1,M,48.1,M,,0000*7D
$GPGGA,150532.000,4758.1048,N,00124.0366,W,2,07,1.5,73.1,M,48.1,M,,0000*71
$GPGGA,150533.000,4758.1048,N,00124.0366,W,2,07,1.5,73.1,M,48.1,M,,0000*70
$GPGGA,150534.000,4758.1048,N,00124.0366,W,2,07,1.5,73.1,M,48.1,M,,0000*77
$GPGGA,150535.000,4758.1048,N,00124.0366,W,2,07,1.5,73.1,M,48.1,M,,0000*76
$GPGGA,150536.000,4758.1048,N,00124.0366,W,2,07,1.5,73.1,M,48.1,M,,0000*75
$GPGGA,150537.000,4758.1048,N,00124.0366,W,2,07,1.5,73.1,M,48.1,M,,0000*74
$GPGGA,150538.000,4758.1048,N,00124.0366,W,2,07,1.5,73.1,M,48.1,M,3.0,0000*56
$GPGGA,150539.000,4758.1048,N,00124.0366,W,2,07,1.5,73.1,M,48.1,M,,0000*7A
$GPGGA,150540.000,4758.1048,N,00124.0366,W,2,07,1.5,73.1,M,48.1,M,,0000*74
$GPGGA,150541.000,4758.1048,N,00124.0366,W,2,07,1.5,73.1,M,48.1,M,,0000*75
$GPGGA,150542.000,4758.1048,N,00124.0366,W,2,07,1.5,73.1,M,48.1,M,3.0,0000*5B
$GPGGA,150543.000,4758.1049,N,00124.0366,W,2,07,1.5,73.1,M,48.1,M,,0000*76
$GPGGA,150544.000,4758.1049,N,00124.0366,W,2,07,1.5,73.1,M,48.1,M,,0000*71
$GPGGA,150545.000,4758.1049,N,00124.0366,W,2,07,1.5,73.1,M,48.1,M,,0000*70
$GPGGA,150546.000,4758.1049,N,00124.0366,W,2,07,1.5,73.1,M,48.1,M,,0000*73
$GPGGA,150547.000,4758.1049,N,00124.0366,W,2,07,1.5,73.1,M,48.1,M,,0000*72
$GPGGA,150548.000,4758.1049,N,00124.0367,W,2,07,1.5,73.1,M,48.1,M,,0000*7C
$GPGGA,150549.000,4758.1049,N,00124.0367,W,2,07,1.5,73.1,M,48.1,M,,0000*7D
$GPGGA,150550.000,4758.1049,N,00124.0367,W,2,07,1.5,73.1,M,48.1,M,3.0,0000*58
$GPGGA,150551.000,4758.1049,N,00124.0367,W,2,07,1.5,73.1,M,48.1,M,2.0,0000*58
$GPGGA,150552.000,4758.1049,N,00124.0367,W,2,07,1.5,73.1,M,48.1,M,2.0,0000*5B
$GPGGA,150553.000,4758.1050,N,00124.0367,W,2,07,1.5,73.0,M,48.1,M,2.0,0000*53
$GPGGA,150554.000,4758.1050,N,00124.0367,W,2,07,1.5,73.0,M,48.1,M,3.0,0000*55
$GPGGA,150555.000,4758.1050,N,00124.0367,W,2,07,1.5,73.0,M,48.1,M,2.0,0000*55
$GPGGA,150556.000,4758.1050,N,00124.0367,W,2,07,1.5,73.0,M,48.1,M,2.0,0000*56
$GPGGA,150557.000,4758.1050,N,00124.0367,W,2,07,1.5,73.0,M,48.1,M,2.0,0000*57
$GPGGA,150558.000,4758.1050,N,00124.0367,W,2,07,1.5,73.0,M,48.1,M,3.0,0000*59
$GPGGA,150559.000,4758.1050,N,00124.0367,W,2,07,1.5,73.0,M,48.1,M,2.0,0000*59
$GPGGA,150600.000,4758.1050,N,00124.0367,W,2,07,1.5,73.0,M,48.1,M,2.0,0000*56
$GPGGA,150601.000,4758.1050,N,00124.0367,W,2,07,1.5,73.0,M,48.1,M,2.0,0000*57
$GPGGA,150602.000,4758.1050,N,00124.0367,W,2,07,1.5,73.0,M,48.1,M,3.0,0000*55
$GPGGA,150603.000,4758.1050,N,00124.0368,W,2,07,1.5,73.0,M,48.1,M,2.0,0000*5A
$GPGGA,150604.000,4758.1051,N,00124.0368,W,2,07,1.5,73.0,M,48.1,M,2.0,0000*5C
$GPGGA,150605.000,4758.1051,N,00124.0368,W,2,07,1.5,73.0,M,48.1,M,2.0,0000*5D
$GPGGA,150606.000,4758.1051,N,00124.0368,W,2,07,1.5,73.0,M,48.1,M,2.0,0000*5E
$GPGGA,150607.000,4758.1051,N,00124.0368,W,2,07,1.5,73.0,M,48.1,M,2.0,0000*5F
$GPGGA,150608.000,4758.1051,N,00124.0368,W,2,07,1.5,73.1,M,48.1,M,2.0,0000*51
$GPGGA,150609.000,4758.1051,N,00124.0368,W,2,07,1.5,73.1,M,48.1,M,2.0,0000*50
$GPGGA,150610.000,4758.1051,N,00124.0368,W,2,07,1.5,73.1,M,48.1,M,3.0,0000*59
$GPGGA,150611.000,4758.1051,N,00124.0368,W,2,07,1.5,73.1,M,48.1,M,2.0,0000*59
$GPGGA,150612.000,4758.1051,N,00124.0368,W,2,07,1.5,73.1,M,48.1,M,2.0,0000*5A
$GPGGA,150613.000,4758.1051,N,00124.0368,W,2,07,1.5,73.1,M,48.1,M,2.0,0000*5B
$GPGGA,150614.000,4758.1051,N,00124.0368,W,2,07,1.5,73.1,M,48.1,M,3.0,0000*5D
$GPGGA,150615.000,4758.1051,N,00124.0368,W,2,07,1.5,73.2,M,48.1,M,2.0,0000*5E
$GPGGA,150616.000,4758.1051,N,00124.0368,W,2,07,1.5,73.2,M,48.1,M,2.0,0000*5D
$GPGGA,150617.000,4758.1052,N,00124.0368,W,2,07,1.5,73.2,M,48.1,M,2.0,0000*5F
$GPGGA,150618.000,4758.1052,N,00124.0368,W,2,07,1.5,73.2,M,48.1,M,3.0,0000*51
$GPGGA,150619.000,4758.1052,N,00124.0368,W,2,07,1.5,73.2,M,48.1,M,2.0,0000*51
$GPGGA,150620.000,4758.1052,N,00124.0368,W,2,07,1.5,73.3,M,48.1,M,2.0,0000*5A
$GPGGA,150621.000,4758.1052,N,00124.0368,W,2,07,1.5,73.3,M,48.1,M,2.0,0000*5B
$GPGGA,150622.000,4758.1052,N,00124.0368,W,2,07,1.5,73.3,M,48.1,M,3.0,0000*59
$GPGGA,150623.000,4758.1052,N,00124.0368,W,2,07,1.5,73.3,M,48.1,M,2.0,0000*59
$GPGGA,150624.000,4758.1052,N,00124.0368,W,2,07,1.5,73.3,M,48.1,M,2.0,0000*5E
$GPGGA,150625.000,4758.1052,N,00124.0368,W,2,06,1.6,73.3,M,48.1,M,2.0,0000*5D
$GPGGA,150626.000,4758.1052,N,00124.0368,W,2,07,1.5,73.3,M,48.1,M,2.0,0000*5C
$GPGGA,150627.000,4758.1052,N,00124.0368,W,2,07,1.5,73.4,M,48.1,M,2.0,0000*5A
$GPGGA,150628.000,4758.1052,N,00124.0368,W,2,07,1.5,73.4,M,48.1,M,2.0,0000*55
$GPGGA,150629.000,4758.1052,N,00124.0368,W,2,07,1.5,73.4,M,48.1,M,2.0,0000*54
$GPGGA,150630.000,4758.1053,N,00124.0368,W,2,07,1.5,73.4,M,48.1,M,3.0,0000*5C
$GPGGA,150631.000,4758.1053,N,00124.0368,W,2,07,1.5,73.4,M,48.1,M,2.0,0000*5C
$GPGGA,150632.000,4758.1053,N,00124.0368,W,2,07,1.5,73.4,M,48.1,M,2.0,0000*5F
$GPGGA,150633.000,4758.1053,N,00124.0368,W,2,07,1.5,73.4,M,48.1,M,2.0,0000*5E
$GPGGA,150634.000,4758.1053,N,00124.0368,W,2,07,1.5,73.4,M,48.1,M,3.0,0000*58
$GPGGA,150635.000,4758.1053,N,00124.0368,W,2,07,1.5,73.4,M,48.1,M,2.0,0000*58
$GPGGA,150636.000,4758.1053,N,00124.0368,W,2,07,1.5,73.4,M,48.1,M,2.0,0000*5B
$GPGGA,150637.000,4758.1053,N,00124.0368,W,2,07,1.5,73.4,M,48.1,M,2.0,0000*5A
$GPGGA,150638.000,4758.1053,N,00124.0368,W,2,07,1.5,73.4,M,48.1,M,3.0,0000*54
$GPGGA,150639.000,4758.1053,N,00124.0368,W,2,07,1.5,73.4,M,48.1,M,2.0,0000*54
$GPGGA,150640.000,4758.1053,N,00124.0368,W,2,07,1.5,73.4,M,48.1,M,2.0,0000*5A
$GPGGA,150641.000,4758.1053,N,00124.0368,W,2,07,1.5,73.4,M,48.1,M,2.0,0000*5B
$GPGGA,150642.000,4758.1053,N,00124.0368,W,2,07,1.5,73.4,M,48.1,M,3.0,0000*59
$GPGGA,150643.000,4758.1053,N,00124.0368,W,2,07,1.5,73.4,M,48.1,M,2.0,0000*59
$GPGGA,150644.000,4758.1053,N,00124.0368,W,2,07,1.5,73.4,M,48.1,M,2.0,0000*5E
$GPGGA,150645.000,4758.1053,N,00124.0368,W,2,07,1.5,73.4,M,48.1,M,2.0,0000*5F
$GPGGA,150646.000,4758.1053,N,00124.0368,W,2,07,1.5,73.4,M,48.1,M,3.0,0000*5D
$GPGGA,150647.000,4758.1053,N,00124.0368,W,2,07,1.5,73.3,M,48.1,M,2.0,0000*5A
$GPGGA,150648.000,4758.1053,N,00124.0368,W,2,07,1.5,73.3,M,48.1,M,2.0,0000*55
$GPGGA,150649.000,4758.1053,N,00124.0368,W,2,07,1.5,73.3,M,48.1,M,2.0,0000*54
$GPGGA,150650.000,4758.1053,N,00124.0368,W,2,07,1.5,73.2,M,48.1,M,3.0,0000*5C
$GPGGA,150651.000,4758.1053,N,00124.0369,W,2,07,1.5,73.2,M,48.1,M,2.0,0000*5D
$GPGGA,150652.000,4758.1053,N,00124.0369,W,2,07,1.5,73.2,M,48.1,M,2.0,0000*5E
$GPGGA,150653.000,4758.1052,N,00124.0369,W,2,07,1.5,73.1,M,48.1,M,,0000*71
$GPGGA,150654.000,4758.1052,N,00124.0369,W,2,07,1.5,73.1,M,48.1,M,,0000*76
$GPGGA,150655.000,4758.1052,N,00124.0369,W,2,07,1.5,73.1,M,48.1,M,,0000*77
$GPGGA,150656.000,4758.1052,N,00124.0369,W,2,07,1.5,73.0,M,48.1,M,,0000*75
$GPGGA,150657.000,4758.1052,N,00124.0369,W,2,07,1.5,73.0,M,48.1,M,,0000*74
$GPGGA,150658.000,4758.1052,N,00124.0369,W,2,07,1.5,73.0,M,48.1,M,3.0,0000*56
$GPGGA,150659.000,4758.1052,N,00124.0369,W,2,07,1.5,72.9,M,48.1,M,,0000*72
$GPGGA,150700.000,4758.1052,N,00124.0369,W,2,07,1.5,72.9,M,48.1,M,,0000*7F
$GPGGA,150701.000,4758.1052,N,00124.0369,W,2,07,1.5,72.9,M,48.1,M,,0000*7E
$GPGGA,150702.000,4758.1052,N,00124.0369,W,2,07,1.5,72.9,M,48.1,M,3.0,0000*50
$GPGGA,150703.000,4758.1052,N,00124.0369,W,2,07,1.5,72.9,M,48.1,M,,0000*7C
$GPGGA,150704.000,4758.1052,N,00124.0369,W,2,07,1.5,72.8,M,48.1,M,,0000*7A
$GPGGA,150705.000,4758.1052,N,00124.0369,W,2,07,1.5,72.8,M,48.1,M,,0000*7B
$GPGGA,150706.000,4758.1052,N,00124.0369,W,2,07,1.5,72.8,M,48.1,M,,0000*78
$GPGGA,150707.000,4758.1052,N,00124.0370,W,2,07,1.5,72.8,M,48.1,M,,0000*71
$GPGGA,150708.000,4758.1052,N,00124.0370,W,2,07,1.5,72.8,M,48.1,M,,0000*7E
$GPGGA,150709.000,4758.1052,N,00124.0370,W,2,07,1.5,72.8,M,48.1,M,,0000*7F
$GPGGA,150710.000,4758.1052,N,00124.0370,W,2,07,1.5,72.8,M,48.1,M,3.0,0000*5A
$GPGGA,150711.000,4758.1052,N,00124.0370,W,2,07,1.5,72.8,M,48.1,M,,0000*76
$GPGGA,150712.000,4758.1052,N,00124.0370,W,2,07,1.5,72.8,M,48.1,M,,0000*75
$GPGGA,150713.000,4758.1052,N,00124.0370,W,2,07,1.5,72.8,M,48.1,M,,0000*74
$GPGGA,150714.000,4758.1052,N,00124.0370,W,2,07,1.5,72.8,M,48.1,M,3.0,0000*5E
$GPGGA,150715.000,4758.1052,N,00124.0370,W,2,07,1.5,72.8,M,48.1,M,,0000*72
$GPGGA,150716.000,4758.1052,N,00124.0370,W,2,07,1.5,72.8,M,48.1,M,,0000*71
$GPGGA,150717.000,4758.1052,N,00124.0370,W,2,07,1.5,72.8,M,48.1,M,,0000*70
$GPGGA,150718.000,4758.1052,N,00124.0370,W,2,07,1.5,72.8,M,48.1,M,3.0,0000*52
$GPGGA,150719.000,4758.1052,N,00124.0370,W,2,07,1.5,72.8,M,48.1,M,,0000*7E
$GPGGA,150720.000,4758.1052,N,00124.0370,W,2,07,1.5,72.7,M,48.1,M,,0000*7B
$GPGGA,150721.000,4758.1052,N,00124.0370,W,2,07,1.5,72.7,M,48.1,M,,0000*7A
$GPGGA,150722.000,4758.1052,N,00124.0370,W,2,07,1.5,72.7,M,48.1,M,3.0,0000*54
$GPGGA,150723.000,4758.1052,N,00124.0370,W,2,07,1.5,72.7,M,48.1,M,2.0,0000*54
$GPGGA,150724.000,4758.1052,N,00124.0370,W,2,07,1.5,72.7,M,48.1,M,2.0,0000*53
$GPGGA,150725.000,4758.1052,N,00124.0370,W,2,07,1.5,72.7,M,48.1,M,2.0,0000*52
$GPGGA,150726.000,4758.1052,N,00124.0370,W,2,07,1.5,72.7,M,48.1,M,2.0,0000*51
$GPGGA,150727.000,4758.1052,N,00124.0370,W,2,07,1.5,72.7,M,48.1,M,2.0,0000*50
$GPGGA,150728.000,4758.1052,N,00124.0370,W,2,07,1.5,72.7,M,48.1,M,2.0,0000*5F
$GPGGA,150729.000,4758.1052,N,00124.0370,W,2,07,1.5,72.7,M,48.1,M,2.0,0000*5E
$GPGGA,150730.000,4758.1052,N,00124.0370,W,2,07,1.5,72.6,M,48.1,M,3.0,0000*56
$GPGGA,150731.000,4758.1052,N,00124.0371,W,2,07,1.5,72.6,M,48.1,M,2.0,0000*57
$GPGGA,150732.000,4758.1052,N,00124.0371,W,2,07,1.5,72.6,M,48.1,M,,0000*78
$GPGGA,150733.000,4758.1052,N,00124.0371,W,2,07,1.5,72.6,M,48.1,M,2.0,0000*55
$GPGGA,150734.000,4758.1052,N,00124.0371,W,2,07,1.5,72.6,M,48.1,M,,0000*7E
$GPGGA,150735.000,4758.1052,N,00124.0371,W,2,07,1.5,72.6,M,48.1,M,2.0,0000*53
$GPGGA,150736.000,4758.1052,N,00124.0371,W,2,07,1.5,72.6,M,48.1,M,2.0,0000*50
$GPGGA,150737.000,4758.1052,N,00124.0371,W,2,07,1.5,72.6,M,48.1,M,2.0,0000*51
$GPGGA,150738.000,4758.1052,N,00124.0371,W,2,07,1.5,72.6,M,48.1,M,3.0,0000*5F
$GPGGA,150739.000,4758.1052,N,00124.0371,W,2,07,1.5,72.6,M,48.1,M,2.0,0000*5F
$GPGGA,150740.000,4758.1052,N,00124.0371,W,2,07,1.5,72.6,M,48.1,M,2.0,0000*51
$GPGGA,150741.000,4758.1052,N,00124.0371,W,2,07,1.5,72.6,M,48.1,M,2.0,0000*50
$GPGGA,150742.000,4758.1052,N,00124.0371,W,2,07,1.5,72.6,M,48.1,M,3.0,0000*52
$GPGGA,150743.000,4758.1052,N,00124.0371,W,2,07,1.5,72.6,M,48.1,M,2.0,0000*52
$GPGGA,150744.000,4758.1052,N,00124.0371,W,2,07,1.5,72.6,M,48.1,M,2.0,0000*55
$GPGGA,150745.000,4758.1052,N,00124.0371,W,2,07,1.5,72.6,M,48.1,M,2.0,0000*54
$GPGGA,150746.000,4758.1052,N,00124.0371,W,2,07,1.5,72.6,M,48.1,M,2.0,0000*57
$GPGGA,150747.000,4758.1052,N,00124.0371,W,2,07,1.5,72.6,M,48.1,M,2.0,0000*56
$GPGGA,150748.000,4758.1052,N,00124.0371,W,2,07,1.5,72.6,M,48.1,M,2.0,0000*59
$GPGGA,150749.000,4758.1052,N,00124.0371,W,2,07,1.5,72.6,M,48.1,M,2.0,0000*58
$GPGGA,150750.000,4758.1053,N,00124.0374,W,2,07,1.5,72.4,M,48.1,M,3.0,0000*57
$GPGGA,150751.000,4758.1053,N,00124.0374,W,2,07,1.5,72.4,M,48.1,M,2.0,0000*57
$GPGGA,150752.000,4758.1053,N,00124.0374,W,2,07,1.5,72.4,M,48.1,M,2.0,0000*54
$GPGGA,150753.000,4758.1053,N,00124.0374,W,2,07,1.5,72.4,M,48.1,M,3.0,0000*54
$GPGGA,150754.000,4758.1053,N,00124.0374,W,2,07,1.5,72.4,M,48.1,M,4.0,0000*54
$GPGGA,150755.000,4758.1053,N,00124.0374,W,2,07,1.5,72.3,M,48.1,M,2.0,0000*54
$GPGGA,150756.000,4758.1056,N,00124.0376,W,2,07,1.5,71.8,M,48.1,M,,0000*74
$GPGGA,150757.000,4758.1059,N,00124.0378,W,2,07,1.5,71.1,M,48.1,M,,0000*7D
$GPGGA,150758.000,4758.1059,N,00124.0378,W,2,07,1.5,71.1,M,48.1,M,3.0,0000*5F
$GPGGA,150759.000,4758.1059,N,00124.0378,W,2,07,1.5,71.1,M,48.1,M,,0000*73
$GPGGA,150800.000,4758.1059,N,00124.0378,W,2,07,1.5,71.1,M,48.1,M,,0000*70
$GPGGA,150801.000,4758.1059,N,00124.0378,W,2,07,1.5,71.1,M,48.1,M,,0000*71
$GPGGA,150802.000,4758.1059,N,00124.0378,W,2,07,1.5,71.1,M,48.1,M,3.0,0000*5F
$GPGGA,150803.000,4758.1059,N,00124.0378,W,2,07,1.5,71.1,M,48.1,M,,0000*73
$GPGGA,150804.000,4758.1058,N,00124.0378,W,2,07,1.5,69.9,M,48.1,M,,0000*74
$GPGGA,150805.000,4758.1058,N,00124.0378,W,2,07,1.5,69.8,M,48.1,M,,0000*74
$GPGGA,150806.000,4758.1058,N,00124.0378,W,2,07,1.5,69.8,M,48.1,M,3.0,0000*5A
$GPGGA,150807.000,4758.1058,N,00124.0378,W,2,07,1.5,69.8,M,48.1,M,,0000*76
$GPGGA,150808.000,4758.1058,N,00124.0378,W,2,07,1.5,69.7,M,48.1,M,,0000*76
$GPGGA,150809.000,4758.1058,N,00124.0378,W,2,07,1.5,69.7,M,48.1,M,,0000*77
$GPGGA,150810.000,4758.1058,N,00124.0378,W,2,07,1.5,69.7,M,48.1,M,3.0,0000*52
$GPGGA,150811.000,4758.1057,N,00124.0379,W,2,07,1.5,67.6,M,48.1,M,2.0,0000*53
$GPGGA,150812.000,4758.1057,N,00124.0380,W,2,07,1.5,67.6,M,48.1,M,2.0,0000*56
$GPGGA,150813.000,4758.1057,N,00124.0380,W,2,07,1.5,67.6,M,48.1,M,2.0,0000*57
$GPGGA,150814.000,4758.1057,N,00124.0380,W,2,07,1.5,67.6,M,48.1,M,2.0,0000*50
$GPGGA,150815.000,4758.1057,N,00124.0380,W,2,07,1.5,67.6,M,48.1,M,2.0,0000*51
$GPGGA,150816.000,4758.1057,N,00124.0380,W,2,07,1.5,67.6,M,48.1,M,2.0,0000*52
$GPGGA,150817.000,4758.1057,N,00124.0380,W,2,07,1.5,67.5,M,48.1,M,,0000*7C
$GPGGA,150818.000,4758.1057,N,00124.0380,W,2,07,1.5,67.5,M,48.1,M,3.0,0000*5E
$GPGGA,150819.000,4758.1057,N,00124.0381,W,2,07,1.5,66.1,M,48.1,M,,0000*76
$GPGGA,150820.000,4758.1057,N,00124.0381,W,2,07,1.5,66.1,M,48.1,M,,0000*7C
$GPGGA,150821.000,4758.1057,N,00124.0381,W,2,07,1.5,66.1,M,48.1,M,,0000*7D
$GPGGA,150822.000,4758.1057,N,00124.0381,W,2,07,1.5,66.0,M,48.1,M,3.0,0000*52
$GPGGA,150823.000,4758.1057,N,00124.0381,W,2,07,1.5,66.0,M,48.1,M,2.0,0000*52
$GPGGA,150824.000,4758.1057,N,00124.0381,W,2,07,1.5,65.9,M,48.1,M,2.0,0000*5F
$GPGGA,150825.000,4758.1057,N,00124.0381,W,2,07,1.5,65.9,M,48.1,M,2.0,0000*5E
$GPGGA,150826.000,4758.1057,N,00124.0381,W,2,07,1.5,65.8,M,48.1,M,2.0,0000*5C
$GPGGA,150827.000,4758.1057,N,00124.0381,W,2,05,2.1,65.8,M,48.1,M,2.0,0000*58
$GPGGA,150828.000,4758.1056,N,00124.0382,W,2,07,1.5,65.8,M,48.1,M,2.0,0000*50
$GPGGA,150829.000,4758.1056,N,00124.0382,W,2,07,1.5,65.7,M,48.1,M,2.0,0000*5E
$GPGGA,150830.000,4758.1056,N,00124.0382,W,2,07,1.5,65.7,M,48.1,M,3.0,0000*57
$GPGGA,150831.000,4758.1056,N,00124.0382,W,2,07,1.5,65.7,M,48.1,M,2.0,0000*57
$GPGGA,150832.000,4758.1056,N,00124.0382,W,2,07,1.5,65.7,M,48.1,M,2.0,0000*54
$GPGGA,150833.000,4758.1056,N,00124.0382,W,2,07,1.5,65.7,M,48.1,M,2.0,0000*55
$GPGGA,150834.000,4758.1056,N,00124.0382,W,2,07,1.5,65.6,M,48.1,M,3.0,0000*52
$GPGGA,150835.000,4758.1056,N,00124.0382,W,2,07,1.5,65.6,M,48.1,M,2.0,0000*52
$GPGGA,150836.000,4758.1056,N,00124.0382,W,2,07,1.5,65.6,M,48.1,M,2.0,0000*51
$GPGGA,150837.000,4758.1056,N,00124.0382,W,2,07,1.5,65.6,M,48.1,M,2.0,0000*50
$GPGGA,150838.000,4758.1056,N,00124.0382,W,2,07,1.5,65.7,M,48.1,M,3.0,0000*5F
$GPGGA,150839.000,4758.1056,N,00124.0382,W,2,07,1.5,65.7,M,48.1,M,2.0,0000*5F
$GPGGA,150840.000,4758.1056,N,00124.0382,W,2,07,1.5,65.7,M,48.1,M,2.0,0000*51
$GPGGA,150841.000,4758.1056,N,00124.0382,W,2,07,1.5,65.7,M,48.1,M,2.0,0000*50
$GPGGA,150842.000,4758.1056,N,00124.0382,W,2,07,1.5,65.7,M,48.1,M,3.0,0000*52
$GPGGA,150843.000,4758.1056,N,00124.0382,W,2,07,1.5,65.7,M,48.1,M,2.0,0000*52
$GPGGA,150844.000,4758.1056,N,00124.0382,W,2,07,1.5,65.7,M,48.1,M,2.0,0000*55
$GPGGA,150845.000,4758.1056,N,00124.0382,W,2,07,1.5,65.7,M,48.1,M,2.0,0000*54
$GPGGA,150846.000,4758.1056,N,00124.0382,W,2,07,1.5,65.7,M,48.1,M,2.0,0000*57
$GPGGA,150847.000,4758.1056,N,00124.0382,W,2,07,1.5,65.7,M,48.1,M,2.0,0000*56
$GPGGA,150848.000,4758.1056,N,00124.0382,W,2,07,1.5,65.7,M,48.1,M,2.0,0000*59
$GPGGA,150849.000,4758.1056,N,00124.0382,W,2,07,1.5,65.7,M,48.1,M,2.0,0000*58
$GPGGA,150850.000,4758.1056,N,00124.0382,W,2,07,1.5,65.6,M,48.1,M,3.0,0000*50
$GPGGA,150851.000,4758.1056,N,00124.0382,W,2,07,1.5,65.6,M,48.1,M,2.0,0000*50
$GPGGA,150852.000,4758.1056,N,00124.0382,W,2,07,1.5,65.6,M,48.1,M,2.0,0000*53
$GPGGA,150853.000,4758.1056,N,00124.0382,W,2,07,1.5,65.6,M,48.1,M,2.0,0000*52
$GPGGA,150854.000,4758.1056,N,00124.0382,W,2,07,1.5,65.6,M,48.1,M,3.0,0000*54
$GPGGA,150855.000,4758.1056,N,00124.0382,W,2,07,1.5,65.6,M,48.1,M,2.0,0000*54
$GPGGA,150856.000,4758.1056,N,00124.0382,W,2,07,1.5,65.6,M,48.1,M,2.0,0000*57
$GPGGA,150857.000,4758.1056,N,00124.0382,W,2,07,1.5,65.6,M,48.1,M,2.0,0000*56
$GPGGA,150858.000,4758.1056,N,00124.0382,W,2,07,1.5,65.6,M,48.1,M,3.0,0000*58
$GPGGA,150859.000,4758.1056,N,00124.0382,W,2,07,1.5,65.6,M,48.1,M,2.0,0000*58
$GPGGA,150900.000,4758.1056,N,00124.0382,W,2,07,1.5,65.5,M,48.1,M,2.0,0000*56
$GPGGA,150901.000,4758.1056,N,00124.0382,W,2,07,1.5,65.5,M,48.1,M,2.0,0000*57
$GPGGA,150902.000,4758.1056,N,00124.0382,W,2,07,1.5,65.5,M,48.1,M,3.0,0000*55
$GPGGA,150903.000,4758.1056,N,00124.0382,W,2,07,1.5,65.5,M,48.1,M,2.0,0000*55
$GPGGA,150904.000,4758.1056,N,00124.0382,W,2,07,1.5,65.5,M,48.1,M,2.0,0000*52
$GPGGA,150905.000,4758.1056,N,00124.0382,W,2,07,1.5,65.5,M,48.1,M,2.0,0000*53
$GPGGA,150906.000,4758.1056,N,00124.0382,W,2,07,1.5,65.5,M,48.1,M,2.0,0000*50
$GPGGA,150907.000,4758.1055,N,00124.0382,W,2,07,1.5,65.1,M,48.1,M,2.0,0000*56
$GPGGA,150908.000,4758.1055,N,00124.0382,W,2,07,1.5,65.1,M,48.1,M,2.0,0000*59
$GPGGA,150909.000,4758.1055,N,00124.0382,W,2,07,1.5,65.1,M,48.1,M,2.0,0000*58
$GPGGA,150910.000,4758.1055,N,00124.0382,W,2,07,1.5,65.1,M,48.1,M,3.0,0000*51
$GPGGA,150911.000,4758.1055,N,00124.0382,W,2,07,1.5,65.1,M,48.1,M,2.0,0000*51
$GPGGA,150912.000,4758.1055,N,00124.0382,W,2,07,1.5,65.1,M,48.1,M,2.0,0000*52
$GPGGA,150913.000,4758.1055,N,00124.0382,W,2,07,1.5,65.1,M,48.1,M,2.0,0000*53
$GPGGA,150914.000,4758.1055,N,00124.0386,W,2,07,1.5,64.6,M,48.1,M,3.0,0000*57
$GPGGA,150915.000,4758.1055,N,00124.0385,W,2,07,1.5,64.6,M,48.1,M,2.0,0000*54
$GPGGA,150916.000,4758.1055,N,00124.0385,W,2,07,1.5,64.6,M,48.1,M,2.0,0000*57
$GPGGA,150917.000,4758.1055,N,00124.0385,W,2,07,1.5,64.6,M,48.1,M,2.0,0000*56
$GPGGA,150918.000,4758.1055,N,00124.0385,W,2,07,1.5,64.6,M,48.1,M,3.0,0000*58
$GPGGA,150919.000,4758.1055,N,00124.0385,W,2,07,1.5,64.6,M,48.1,M,2.0,0000*58
$GPGGA,150920.000,4758.1055,N,00124.0385,W,2,07,1.5,64.6,M,48.1,M,2.0,0000*52
$GPGGA,150921.000,4758.1055,N,00124.0385,W,2,07,1.5,64.5,M,48.1,M,2.0,0000*50
$GPGGA,150922.000,4758.1055,N,00124.0385,W,2,07,1.5,64.5,M,48.1,M,3.0,0000*52
$GPGGA,150923.000,4758.1055,N,00124.0385,W,2,07,1.5,64.5,M,48.1,M,2.0,0000*52
$GPGGA,150924.000,4758.1055,N,00124.0385,W,2,07,1.5,64.5,M,48.1,M,2.0,0000*55
$GPGGA,150925.000,4758.1055,N,00124.0385,W,2,07,1.5,64.5,M,48.1,M,2.0,0000*54
$GPGGA,150926.000,4758.1055,N,00124.0385,W,2,07,1.5,64.5,M,48.1,M,3.0,0000*56
$GPGGA,150927.000,4758.1055,N,00124.0385,W,2,07,1.5,64.5,M,48.1,M,2.0,0000*56
$GPGGA,150928.000,4758.1055,N,00124.0385,W,2,07,1.5,64.5,M,48.1,M,2.0,0000*59
$GPGGA,150929.000,4758.1055,N,00124.0385,W,2,07,1.5,64.5,M,48.1,M,2.0,0000*58
$GPGGA,150930.000,4758.1055,N,00124.0385,W,2,07,1.5,64.5,M,48.1,M,3.0,0000*51
$GPGGA,150931.000,4758.1055,N,00124.0386,W,2,07,1.5,64.5,M,48.1,M,2.0,0000*52
$GPGGA,150932.000,4758.1055,N,00124.0386,W,2,07,1.5,64.4,M,48.1,M,2.0,0000*50
$GPGGA,150933.000,4758.1055,N,00124.0386,W,2,07,1.5,64.4,M,48.1,M,2.0,0000*51
$GPGGA,150934.000,4758.1055,N,00124.0386,W,2,07,1.5,64.4,M,48.1,M,2.0,0000*56
$GPGGA,150935.000,4758.1055,N,00124.0386,W,2,06,1.9,64.4,M,48.1,M,2.0,0000*5A
$GPGGA,150936.000,4758.1055,N,00124.0386,W,2,07,1.5,64.4,M,48.1,M,2.0,0000*54
$GPGGA,150937.000,4758.1055,N,00124.0386,W,2,07,1.5,64.4,M,48.1,M,2.0,0000*55
$GPGGA,150938.000,4758.1055,N,00124.0386,W,2,07,1.5,64.4,M,48.1,M,3.0,0000*5B
$GPGGA,150939.000,4758.1055,N,00124.0386,W,2,07,1.5,64.4,M,48.1,M,2.0,0000*5B
$GPGGA,150940.000,4758.1055,N,00124.0386,W,2,07,1.5,64.4,M,48.1,M,2.0,0000*55
$GPGGA,150941.000,4758.1055,N,00124.0386,W,2,07,1.5,64.4,M,48.1,M,2.0,0000*54
$GPGGA,150942.000,4758.1055,N,00124.0386,W,2,07,1.5,64.4,M,48.1,M,3.0,0000*56
$GPGGA,150943.000,4758.1055,N,00124.0386,W,2,07,1.5,64.4,M,48.1,M,2.0,0000*56
$GPGGA,150944.000,4758.1055,N,00124.0386,W,2,07,1.5,64.4,M,48.1,M,2.0,0000*51
$GPGGA,150945.000,4758.1055,N,00124.0386,W,2,07,1.5,64.4,M,48.1,M,2.0,0000*50
$GPGGA,150946.000,4758.1055,N,00124.0386,W,2,07,1.5,64.4,M,48.1,M,2.0,0000*53
$GPGGA,150947.000,4758.1055,N,00124.0386,W,2,07,1.5,64.4,M,48.1,M,2.0,0000*52
$GPGGA,150948.000,4758.1055,N,00124.0386,W,2,07,1.5,64.4,M,48.1,M,2.0,0000*5D
$GPGGA,150949.000,4758.1055,N,00124.0386,W,2,07,1.5,64.3,M,48.1,M,2.0,0000*5B
$GPGGA,150950.000,4758.1055,N,00124.0386,W,2,07,1.5,64.3,M,48.1,M,3.0,0000*52
$GPGGA,150951.000,4758.1055,N,00124.0386,W,2,07,1.5,64.3,M,48.1,M,2.0,0000*52
$GPGGA,150952.000,4758.1055,N,00124.0386,W,2,07,1.5,64.3,M,48.1,M,2.0,0000*51
$GPGGA,150953.000,4758.1055,N,00124.0386,W,2,07,1.5,64.3,M,48.1,M,2.0,0000*50
$GPGGA,150954.000,4758.1055,N,00124.0386,W,2,07,1.5,64.3,M,48.1,M,3.0,0000*56
$GPGGA,150955.000,4758.1055,N,00124.0386,W,2,07,1.5,64.3,M,48.1,M,2.0,0000*56
$GPGGA,150956.000,4758.1055,N,00124.0386,W,2,07,1.5,64.3,M,48.1,M,2.0,0000*55
$GPGGA,150957.000,4758.1055,N,00124.0386,W,2,07,1.5,64.3,M,48.1,M,2.0,0000*54
$GPGGA,150958.000,4758.1055,N,00124.0386,W,2,07,1.5,64.3,M,48.1,M,3.0,0000*5A
$GPGGA,150959.000,4758.1055,N,00124.0386,W,2,07,1.5,64.3,M,48.1,M,2.0,0000*5A
$GPGGA,151000.000,4758.1055,N,00124.0386,W,2,07,1.5,64.3,M,48.1,M,2.0,0000*5E
$GPGGA,151001.000,4758.1055,N,00124.0386,W,2,07,1.5,64.3,M,48.1,M,2.0,0000*5F
$GPGGA,151002.000,4758.1055,N,00124.0386,W,2,07,1.5,64.3,M,48.1,M,3.0,0000*5D
$GPGGA,151003.000,4758.1055,N,00124.0386,W,2,07,1.5,64.3,M,48.1,M,2.0,0000*5D
$GPGGA,151004.000,4758.1055,N,00124.0386,W,2,07,1.5,64.3,M,48.1,M,2.0,0000*5A
$GPGGA,151005.000,4758.1055,N,00124.0386,W,2,07,1.5,64.3,M,48.1,M,2.0,0000*5B
$GPGGA,151006.000,4758.1055,N,00124.0386,W,2,07,1.5,64.3,M,48.1,M,2.0,0000*58
$GPGGA,151007.000,4758.1055,N,00124.0386,W,2,07,1.5,64.3,M,48.1,M,2.0,0000*59
$GPGGA,151008.000,4758.1055,N,00124.0386,W,2,07,1.5,64.3,M,48.1,M,2.0,0000*56
$GPGGA,151009.000,4758.1055,N,00124.0386,W,2,07,1.5,64.3,M,48.1,M,2.0,0000*57
$GPGGA,151010.000,4758.1055,N,00124.0386,W,2,07,1.5,64.3,M,48.1,M,3.0,0000*5E
$GPGGA,151011.000,4758.1055,N,00124.0386,W,2,07,1.5,64.3,M,48.1,M,2.0,0000*5E
$GPGGA,151012.000,4758.1055,N,00124.0386,W,2,07,1.5,64.3,M,48.1,M,2.0,0000*5D
$GPGGA,151013.000,4758.1055,N,00124.0386,W,2,07,1.5,64.3,M,48.1,M,2.0,0000*5C
$GPGGA,151014.000,4758.1055,N,00124.0386,W,2,07,1.5,64.3,M,48.1,M,3.0,0000*5A
$GPGGA,151015.000,4758.1055,N,00124.0386,W,2,07,1.5,64.3,M,48.1,M,2.0,0000*5A
$GPGGA,151016.000,4758.1055,N,00124.0386,W,2,07,1.5,64.3,M,48.1,M,2.0,0000*59
$GPGGA,151017.000,4758.1055,N,00124.0386,W,2,07,1.5,64.3,M,48.1,M,2.0,0000*58
$GPGGA,151018.000,4758.1055,N,00124.0386,W,2,07,1.5,64.3,M,48.1,M,3.0,0000*56
$GPGGA,151019.000,4758.1055,N,00124.0386,W,2,07,1.5,64.3,M,48.1,M,2.0,0000*56
$GPGGA,151020.000,4758.1055,N,00124.0386,W,2,07,1.5,64.3,M,48.1,M,2.0,0000*5C
$GPGGA,151021.000,4758.1055,N,00124.0386,W,2,07,1.5,64.3,M,48.1,M,2.0,0000*5D
$GPGGA,151022.000,4758.1055,N,00124.0386,W,2,07,1.5,64.3,M,48.1,M,3.0,0000*5F
$GPGGA,151023.000,4758.1055,N,00124.0386,W,2,07,1.5,64.3,M,48.1,M,2.0,0000*5F
$GPGGA,151024.000,4758.1055,N,00124.0386,W,2,07,1.5,64.3,M,48.1,M,2.0,0000*58
$GPGGA,151025.000,4758.1055,N,00124.0386,W,2,07,1.5,64.3,M,48.1,M,2.0,0000*59
$GPGGA,151026.000,4758.1055,N,00124.0386,W,2,07,1.5,64.3,M,48.1,M,2.0,0000*5A
$GPGGA,151027.000,4758.1055,N,00124.0386,W,2,07,1.5,64.3,M,48.1,M,2.0,0000*5B
$GPGGA,151028.000,4758.1055,N,00124.0386,W,2,07,1.5,64.3,M,48.1,M,2.0,0000*54
$GPGGA,151029.000,4758.1055,N,00124.0386,W,2,07,1.5,64.3,M,48.1,M,3.0,0000*54
$GPGGA,151030.000,4758.1055,N,00124.0386,W,2,07,1.5,64.3,M,48.1,M,4.0,0000*5B
$GPGGA,151031.000,4758.1055,N,00124.0386,W,2,07,1.5,64.3,M,48.1,M,2.0,0000*5C
$GPGGA,151032.000,4758.1055,N,00124.0386,W,2,07,1.5,64.3,M,48.1,M,2.0,0000*5F
$GPGGA,151033.000,4758.1055,N,00124.0386,W,2,07,1.5,64.3,M,48.1,M,2.0,0000*5E
$GPGGA,151034.000,4758.1055,N,00124.0386,W,2,07,1.5,64.3,M,48.1,M,3.0,0000*58
$GPGGA,151035.000,4758.1055,N,00124.0386,W,2,07,1.5,64.3,M,48.1,M,2.0,0000*58
$GPGGA,151036.000,4758.1055,N,00124.0386,W,2,07,1.5,64.3,M,48.1,M,2.0,0000*5B
$GPGGA,151037.000,4758.1055,N,00124.0386,W,2,07,1.5,64.3,M,48.1,M,2.0,0000*5A
$GPGGA,151038.000,4758.1055,N,00124.0386,W,2,07,1.5,64.3,M,48.1,M,3.0,0000*54
$GPGGA,151039.000,4758.1055,N,00124.0386,W,2,07,1.5,64.3,M,48.1,M,2.0,0000*54
$GPGGA,151040.000,4758.1055,N,00124.0386,W,2,07,1.5,64.3,M,48.1,M,2.0,0000*5A
$GPGGA,151041.000,4758.1055,N,00124.0386,W,2,07,1.5,64.3,M,48.1,M,2.0,0000*5B
$GPGGA,151042.000,4758.1055,N,00124.0386,W,2,07,1.5,64.3,M,48.1,M,3.0,0000*59
$GPGGA,151043.000,4758.1055,N,00124.0386,W,2,07,1.5,64.3,M,48.1,M,4.0,0000*5F
$GPGGA,151044.000,4758.1055,N,00124.0386,W,2,07,1.5,64.3,M,48.1,M,2.0,0000*5E
$GPGGA,151045.000,4758.1055,N,00124.0386,W,2,07,1.5,64.3,M,48.1,M,2.0,0000*5F
$GPGGA,151046.000,4758.1055,N,00124.0386,W,2,07,1.5,64.3,M,48.1,M,3.0,0000*5D
$GPGGA,151047.000,4758.1055,N,00124.0386,W,2,07,1.5,64.3,M,48.1,M,2.0,0000*5D
$GPGGA,151048.000,4758.1055,N,00124.0386,W,2,07,1.5,64.3,M,48.1,M,3.0,0000*53
$GPGGA,151049.000,4758.1055,N,00124.0386,W,2,07,1.5,64.3,M,48.1,M,2.0,0000*53
$GPGGA,151050.000,4758.1055,N,00124.0386,W,2,07,1.5,64.2,M,48.1,M,3.0,0000*5B
$GPGGA,151051.000,4758.1055,N,00124.0386,W,2,07,1.5,64.2,M,48.1,M,2.0,0000*5B
$GPGGA,151052.000,4758.1055,N,00124.0386,W,2,07,1.5,64.2,M,48.1,M,2.0,0000*58
$GPGGA,151053.000,4758.1055,N,00124.0386,W,2,07,1.5,64.2,M,48.1,M,3.0,0000*58
$GPGGA,151054.000,4758.1055,N,00124.0386,W,2,07,1.5,64.2,M,48.1,M,2.0,0000*5E
$GPGGA,151055.000,4758.1055,N,00124.0386,W,2,07,1.5,64.2,M,48.1,M,2.0,0000*5F
$GPGGA,151056.000,4758.1055,N,00124.0386,W,2,07,1.5,64.2,M,48.1,M,2.0,0000*5C
$GPGGA,151057.000,4758.1055,N,00124.0386,W,2,07,1.5,64.2,M,48.1,M,2.0,0000*5D
$GPGGA,151058.000,4758.1055,N,00124.0386,W,2,07,1.5,64.2,M,48.1,M,3.0,0000*53
$GPGGA,151059.000,4758.1055,N,00124.0386,W,2,07,1.5,64.2,M,48.1,M,2.0,0000*53
$GPGGA,151100.000,4758.1055,N,00124.0386,W,2,07,1.5,64.2,M,48.1,M,2.0,0000*5E
$GPGGA,151101.000,4758.1055,N,00124.0386,W,2,07,1.5,64.1,M,48.1,M,2.0,0000*5C
$GPGGA,151102.000,4758.1055,N,00124.0386,W,2,07,1.5,64.1,M,48.1,M,3.0,0000*5E
$GPGGA,151103.000,4758.1055,N,00124.0386,W,2,07,1.5,64.1,M,48.1,M,2.0,0000*5E
$GPGGA,151104.000,4758.1055,N,00124.0386,W,2,07,1.5,64.1,M,48.1,M,2.0,0000*59
$GPGGA,151105.000,4758.1054,N,00124.0386,W,2,07,1.5,64.1,M,48.1,M,2.0,0000*59
$GPGGA,151106.000,4758.1054,N,00124.0386,W,2,07,1.5,64.1,M,48.1,M,2.0,0000*5A
$GPGGA,151107.000,4758.1054,N,00124.0386,W,2,07,1.5,64.1,M,48.1,M,2.0,0000*5B
$GPGGA,151108.000,4758.1054,N,00124.0386,W,2,07,1.5,64.1,M,48.1,M,2.0,0000*54
$GPGGA,151109.000,4758.1054,N,00124.0386,W,2,07,1.5,64.1,M,48.1,M,2.0,0000*55
$GPGGA,151110.000,4758.1054,N,00124.0386,W,2,07,1.5,64.1,M,48.1,M,3.0,0000*5C
$GPGGA,151111.000,4758.1054,N,00124.0386,W,2,07,1.5,64.1,M,48.1,M,2.0,0000*5C
$GPGGA,151112.000,4758.1054,N,00124.0386,W,2,07,1.5,64.1,M,48.1,M,2.0,0000*5F
$GPGGA,151113.000,4758.1054,N,00124.0386,W,2,07,1.5,64.1,M,48.1,M,2.0,0000*5E
$GPGGA,151114.000,4758.1054,N,00124.0386,W,2,07,1.5,64.1,M,48.1,M,3.0,0000*58
$GPGGA,151115.000,4758.1054,N,00124.0386,W,2,07,1.5,64.1,M,48.1,M,2.0,0000*58
$GPGGA,151116.000,4758.1054,N,00124.0386,W,2,07,1.5,64.1,M,48.1,M,2.0,0000*5B
$GPGGA,151117.000,4758.1054,N,00124.0386,W,2,07,1.5,64.1,M,48.1,M,2.0,0000*5A
$GPGGA,151118.000,4758.1054,N,00124.0386,W,2,07,1.5,64.1,M,48.1,M,3.0,0000*54
$GPGGA,151119.000,4758.1054,N,00124.0386,W,2,07,1.5,64.1,M,48.1,M,2.0,0000*54
$GPGGA,151120.000,4758.1054,N,00124.0386,W,2,07,1.5,64.1,M,48.1,M,2.0,0000*5E
$GPGGA,151121.000,4758.1054,N,00124.0386,W,2,07,1.5,64.1,M,48.1,M,2.0,0000*5F
$GPGGA,151122.000,4758.1054,N,00124.0386,W,2,07,1.5,64.1,M,48.1,M,3.0,0000*5D
$GPGGA,151123.000,4758.1054,N,00124.0386,W,2,07,1.5,64.1,M,48.1,M,2.0,0000*5D
$GPGGA,151124.000,4758.1054,N,00124.0386,W,2,07,1.5,64.0,M,48.1,M,3.0,0000*5A
$GPGGA,151125.000,4758.1054,N,00124.0386,W,2,07,1.5,64.0,M,48.1,M,2.0,0000*5A
$GPGGA,151126.000,4758.1054,N,00124.0386,W,2,07,1.5,64.0,M,48.1,M,2.0,0000*59
$GPGGA,151127.000,4758.1054,N,00124.0386,W,2,07,1.5,64.0,M,48.1,M,2.0,0000*58
$GPGGA,151128.000,4758.1054,N,00124.0386,W,2,07,1.5,64.0,M,48.1,M,2.0,0000*57
$GPGGA,151129.000,4758.1054,N,00124.0386,W,2,07,1.5,64.0,M,48.1,M,2.0,0000*56
$GPGGA,151130.000,4758.1054,N,00124.0386,W,2,07,1.5,64.0,M,48.1,M,3.0,0000*5F
$GPGGA,151131.000,4758.1054,N,00124.0386,W,2,07,1.5,64.0,M,48.1,M,4.0,0000*59
$GPGGA,151132.000,4758.1054,N,00124.0386,W,2,07,1.5,64.0,M,48.1,M,2.0,0000*5C
$GPGGA,151133.000,4758.1054,N,00124.0386,W,2,07,1.5,64.0,M,48.1,M,2.0,0000*5D
$GPGGA,151134.000,4758.1054,N,00124.0386,W,2,07,1.5,64.0,M,48.1,M,3.0,0000*5B
$GPGGA,151135.000,4758.1054,N,00124.0386,W,2,07,1.5,64.0,M,48.1,M,4.0,0000*5D
$GPGGA,151136.000,4758.1054,N,00124.0386,W,2,07,1.5,64.0,M,48.1,M,2.0,0000*58
$GPGGA,151137.000,4758.1054,N,00124.0386,W,2,07,1.5,64.0,M,48.1,M,2.0,0000*59
$GPGGA,151138.000,4758.1054,N,00124.0386,W,2,07,1.5,64.0,M,48.1,M,3.0,0000*57
$GPGGA,151139.000,4758.1054,N,00124.0386,W,2,07,1.5,64.0,M,48.1,M,2.0,0000*57
$GPGGA,151140.000,4758.1054,N,00124.0386,W,2,07,1.5,64.0,M,48.1,M,3.0,0000*58
$GPGGA,151141.000,4758.1054,N,00124.0386,W,2,07,1.5,64.0,M,48.1,M,2.0,0000*58
$GPGGA,151142.000,4758.1054,N,00124.0386,W,2,07,1.5,64.0,M,48.1,M,3.0,0000*5A
$GPGGA,151143.000,4758.1054,N,00124.0386,W,2,07,1.5,64.0,M,48.1,M,2.0,0000*5A
$GPGGA,151144.000,4758.1054,N,00124.0386,W,2,07,1.5,64.0,M,48.1,M,3.0,0000*5C
$GPGGA,151145.000,4758.1054,N,00124.0386,W,2,07,1.5,64.1,M,48.1,M,2.0,0000*5D
$GPGGA,151146.000,4758.1053,N,00124.0382,W,2,07,1.5,64.3,M,48.1,M,2.0,0000*5F
$GPGGA,151147.000,4758.1053,N,00124.0377,W,2,07,1.5,64.6,M,48.1,M,2.0,0000*51
$GPGGA,151148.000,4758.1052,N,00124.0371,W,2,07,1.5,64.4,M,48.1,M,2.0,0000*5B
$GPGGA,151149.000,4758.1049,N,00124.0366,W,2,07,1.5,64.0,M,48.1,M,2.0,0000*52
$GPGGA,151150.000,4758.1046,N,00124.0360,W,2,07,1.5,63.6,M,48.1,M,3.0,0000*53
$GPGGA,151151.000,4758.1042,N,00124.0355,W,2,07,1.5,63.6,M,48.1,M,4.0,0000*57
$GPGGA,151152.000,4758.1037,N,00124.0351,W,2,07,1.5,63.9,M,48.1,M,5.0,0000*5C
$GPGGA,151153.000,4758.1033,N,00124.0348,W,2,07,1.5,64.3,M,48.1,M,6.0,0000*5F
$GPGGA,151154.000,4758.1033,N,00124.0348,W,2,07,1.5,64.3,M,48.1,M,7.0,0000*59
$GPGGA,151155.000,4758.1033,N,00124.0349,W,2,07,1.5,64.3,M,48.1,M,8.0,0000*56
$GPGGA,151156.000,4758.1033,N,00124.0350,W,2,07,1.5,64.2,M,48.1,M,9.0,0000*5D
$GPGGA,151157.000,4758.1037,N,00124.0353,W,2,07,1.5,64.1,M,48.1,M,,0000*7F
$GPGGA,151158.000,4758.1045,N,00124.0355,W,2,07,1.5,64.0,M,48.1,M,11.0,0000*6C
$GPGGA,151159.000,4758.1057,N,00124.0352,W,2,07,1.5,63.7,M,48.1,M,12.0,0000*6A
$GPGGA,151200.000,4758.1067,N,00124.0342,W,2,07,1.5,63.6,M,48.1,M,13.0,0000*67
$GPGGA,151201.000,4758.1076,N,00124.0328,W,2,07,1.5,63.6,M,48.1,M,14.0,0000*6D
$GPGGA,151202.000,4758.1082,N,00124.0316,W,2,07,1.5,63.3,M,48.1,M,15.0,0000*6C
$GPGGA,151203.000,4758.1086,N,00124.0306,W,2,07,1.5,63.1,M,48.1,M,16.0,0000*69
$GPGGA,151204.000,4758.1093,N,00124.0295,W,2,07,1.5,63.0,M,48.1,M,17.0,0000*61
$GPGGA,151205.000,4758.1102,N,00124.0284,W,2,07,1.5,63.1,M,48.1,M,18.0,0000*67
$GPGGA,151206.000,4758.1113,N,00124.0274,W,1,07,1.5,63.0,M,48.1,M,,0000*7E
$GPGGA,151207.000,4758.1132,N,00124.0261,W,1,07,1.5,63.0,M,48.1,M,,0000*78
$GPGGA,151208.000,4758.1163,N,00124.0248,W,1,07,1.5,63.1,M,48.1,M,,0000*79
$GPGGA,151209.000,4758.1196,N,00124.0237,W,1,07,1.5,63.4,M,48.1,M,,0000*7F
$GPGGA,151210.000,4758.1231,N,00124.0227,W,1,07,1.5,63.4,M,48.1,M,,0000*78
$GPGGA,151211.000,4758.1270,N,00124.0217,W,1,07,1.5,63.4,M,48.1,M,,0000*7F
$GPGGA,151212.000,4758.1317,N,00124.0214,W,1,07,1.5,62.7,M,48.1,M,,0000*7D
$GPGGA,151213.000,4758.1363,N,00124.0211,W,1,07,1.5,62.5,M,48.1,M,,0000*78
$GPGGA,151214.000,4758.1412,N,00124.0208,W,1,07,1.5,62.4,M,48.1,M,,0000*77
$GPGGA,151215.000,4758.1461,N,00124.0207,W,1,07,1.5,62.5,M,48.1,M,,0000*7C
$GPGGA,151216.000,4758.1507,N,00124.0202,W,1,07,1.5,62.6,M,48.1,M,,0000*78
$GPGGA,151217.000,4758.1550,N,00124.0198,W,1,07,1.5,62.6,M,48.1,M,,0000*7B
$GPGGA,151218.000,4758.1588,N,00124.0193,W,1,07,1.5,62.8,M,48.1,M,,0000*74
$GPGGA,151219.000,4758.1623,N,00124.0190,W,1,07,1.5,63.0,M,48.1,M,,0000*7D
$GPGGA,151220.000,4758.1647,N,00124.0188,W,1,07,1.5,63.5,M,48.1,M,,0000*79
$GPGGA,151221.000,4758.1662,N,00124.0192,W,1,07,1.5,63.9,M,48.1,M,,0000*78
$GPGGA,151222.000,4758.1674,N,00124.0196,W,1,07,1.5,64.3,M,48.1,M,,0000*75
$GPGGA,151223.000,4758.1690,N,00124.0208,W,1,07,1.5,64.7,M,48.1,M,,0000*7E
$GPGGA,151224.000,4758.1703,N,00124.0226,W,1,07,1.5,64.6,M,48.1,M,,0000*7F
$GPGGA,151225.000,4758.1725,N,00124.0259,W,1,07,1.5,64.8,M,48.1,M,,0000*7C
$GPGGA,151226.000,4758.1742,N,00124.0300,W,1,06,1.7,65.3,M,48.1,M,,0000*7A
$GPGGA,151227.000,4758.1757,N,00124.0362,W,1,07,1.5,65.6,M,48.1,M,,0000*7D
$GPGGA,151228.000,4758.1771,N,00124.0416,W,1,07,1.5,65.9,M,48.1,M,,0000*7D
$GPGGA,151229.000,4758.1786,N,00124.0474,W,1,07,1.5,65.9,M,48.1,M,,0000*70
$GPGGA,151230.000,4758.1801,N,00124.0532,W,1,07,1.5,66.2,M,48.1,M,,0000*73
$GPGGA,151231.000,4758.1818,N,00124.0595,W,1,07,1.5,66.4,M,48.1,M,,0000*71
$GPGGA,151232.000,4758.1837,N,00124.0667,W,1,07,1.5,66.7,M,48.1,M,,0000*72
$GPGGA,151233.000,4758.1859,N,00124.0740,W,1,07,1.5,66.7,M,48.1,M,,0000*7F
$GPGGA,151234.000,4758.1883,N,00124.0814,W,1,07,1.5,67.2,M,48.1,M,,0000*75
$GPGGA,151235.000,4758.1918,N,00124.0877,W,1,07,1.5,67.9,M,48.1,M,,0000*79
$GPGGA,151236.000,4758.1961,N,00124.0932,W,1,06,1.7,68.8,M,48.1,M,,0000*79
$GPGGA,151237.000,4758.2009,N,00124.0980,W,1,07,1.5,69.3,M,48.1,M,,0000*7C
$GPGGA,151238.000,4758.2064,N,00124.1023,W,1,07,1.5,69.4,M,48.1,M,,0000*7E
$GPGGA,151239.000,4758.2126,N,00124.1059,W,1,07,1.5,69.6,M,48.1,M,,0000*77
$GPGGA,151240.000,4758.2200,N,00124.1084,W,1,07,1.5,68.5,M,48.1,M,,0000*7C
$GPGGA,151241.000,4758.2267,N,00124.1113,W,1,07,1.5,68.2,M,48.1,M,,0000*74
$GPGGA,151242.000,4758.2331,N,00124.1143,W,1,07,1.5,68.3,M,48.1,M,,0000*71
$GPGGA,151243.000,4758.2389,N,00124.1167,W,1,07,1.5,68.1,M,48.1,M,,0000*77
$GPGGA,151244.000,4758.2440,N,00124.1186,W,1,07,1.5,68.2,M,48.1,M,,0000*7E
$GPGGA,151245.000,4758.2483,N,00124.1206,W,1,07,1.5,68.2,M,48.1,M,,0000*7B
$GPGGA,151246.000,4758.2521,N,00124.1236,W,1,07,1.5,67.7,M,48.1,M,,0000*78
$GPGGA,151247.000,4758.2550,N,00124.1289,W,1,07,1.5,67.3,M,48.1,M,,0000*7F
$GPGGA,151248.000,4758.2562,N,00124.1371,W,1,07,1.5,67.3,M,48.1,M,,0000*77
$GPGGA,151249.000,4758.2572,N,00124.1472,W,1,07,1.5,67.3,M,48.1,M,,0000*73
$GPGGA,151250.000,4758.2580,N,00124.1579,W,1,07,1.5,67.1,M,48.1,M,,0000*7E
$GPGGA,151251.000,4758.2591,N,00124.1694,W,1,07,1.5,67.4,M,48.1,M,,0000*7A
$GPGGA,151252.000,4758.2603,N,00124.1814,W,1,07,1.5,67.5,M,48.1,M,,0000*76
$GPGGA,151253.000,4758.2614,N,00124.1935,W,1,07,1.5,67.6,M,48.1,M,,0000*70
$GPGGA,151254.000,4758.2624,N,00124.2055,W,1,07,1.5,67.7,M,48.1,M,,0000*79
$GPGGA,151255.000,4758.2629,N,00124.2170,W,1,07,1.5,68.3,M,48.1,M,,0000*78
$GPGGA,151256.000,4758.2634,N,00124.2279,W,1,07,1.5,69.1,M,48.1,M,,0000*7E
$GPGGA,151257.000,4758.2637,N,00124.2381,W,1,07,1.5,70.5,M,48.1,M,,0000*76
$GPGGA,151258.000,4758.2641,N,00124.2470,W,1,07,1.5,71.7,M,48.1,M,,0000*72
$GPGGA,151259.000,4758.2644,N,00124.2544,W,1,07,1.5,72.4,M,48.1,M,,0000*70
$GPGGA,151300.000,4758.2646,N,00124.2606,W,2,05,2.1,72.7,M,48.1,M,2.0,0000*53
$GPGGA,151301.000,4758.2646,N,00124.2662,W,2,07,1.5,73.2,M,48.1,M,2.0,0000*51
$GPGGA,151302.000,4758.2646,N,00124.2720,W,2,07,1.5,73.4,M,48.1,M,3.0,0000*52
$GPGGA,151303.000,4758.2647,N,00124.2786,W,2,07,1.5,73.8,M,48.1,M,4.0,0000*55
$GPGGA,151304.000,4758.2648,N,00124.2862,W,2,07,1.5,74.2,M,48.1,M,5.0,0000*54
$GPGGA,151305.000,4758.2650,N,00124.2947,W,2,07,1.5,74.5,M,48.1,M,6.0,0000*5E
$GPGGA,151306.000,4758.2652,N,00124.3039,W,2,06,1.7,74.6,M,48.1,M,2.0,0000*5A
$GPGGA,151307.000,4758.2655,N,00124.3138,W,2,07,1.5,74.8,M,48.1,M,2.0,0000*51
$GPGGA,151308.000,4758.2661,N,00124.3246,W,2,07,1.5,74.9,M,48.1,M,2.0,0000*52
$GPGGA,151309.000,4758.2670,N,00124.3359,W,2,07,1.5,75.0,M,48.1,M,2.0,0000*54
$GPGGA,151310.000,4758.2684,N,00124.3482,W,2,07,1.5,75.3,M,48.1,M,,0000*79
$GPGGA,151311.000,4758.2702,N,00124.3610,W,2,07,1.5,75.7,M,48.1,M,4.0,0000*50
$GPGGA,151312.000,4758.2722,N,00124.3740,W,2,07,1.5,75.9,M,48.1,M,5.0,0000*5A
$GPGGA,151313.000,4758.2742,N,00124.3873,W,2,07,1.5,75.9,M,48.1,M,6.0,0000*51
$GPGGA,151314.000,4758.2764,N,00124.4010,W,2,07,1.5,75.7,M,48.1,M,7.0,0000*57
$GPGGA,151315.000,4758.2785,N,00124.4151,W,2,07,1.5,75.3,M,48.1,M,8.0,0000*56
$GPGGA,151316.000,4758.2803,N,00124.4295,W,2,07,1.5,74.9,M,48.1,M,9.0,0000*55
$GPGGA,151317.000,4758.2813,N,00124.4442,W,2,07,1.5,74.6,M,48.1,M,10.0,0000*6E
$GPGGA,151318.000,4758.2813,N,00124.4594,W,2,07,1.5,73.9,M,48.1,M,11.0,0000*62
$GPGGA,151319.000,4758.2804,N,00124.4747,W,2,07,1.5,72.8,M,48.1,M,,0000*77
$GPGGA,151320.000,4758.2788,N,00124.4903,W,2,07,1.5,71.7,M,48.1,M,3.0,0000*59
$GPGGA,151321.000,4758.2770,N,00124.5062,W,2,07,1.5,71.1,M,48.1,M,4.0,0000*51
$GPGGA,151322.000,4758.2751,N,00124.5223,W,2,07,1.5,70.6,M,48.1,M,5.0,0000*51
$GPGGA,151323.000,4758.2731,N,00124.5386,W,2,07,1.5,70.1,M,48.1,M,6.0,0000*5C
$GPGGA,151324.000,4758.2712,N,00124.5550,W,2,07,1.5,69.3,M,48.1,M,7.0,0000*5C
$GPGGA,151325.000,4758.2692,N,00124.5715,W,2,07,1.5,68.8,M,48.1,M,8.0,0000*52
$GPGGA,151326.000,4758.2670,N,00124.5880,W,2,07,1.5,68.6,M,48.1,M,9.0,0000*51
$GPGGA,151327.000,4758.2644,N,00124.6044,W,2,07,1.5,69.3,M,48.1,M,10.0,0000*68
$GPGGA,151328.000,4758.2609,N,00124.6200,W,2,07,1.5,68.8,M,48.1,M,11.0,0000*67
$GPGGA,151329.000,4758.2564,N,00124.6348,W,2,07,1.5,68.0,M,48.1,M,12.0,0000*68
$GPGGA,151330.000,4758.2502,N,00124.6489,W,2,07,1.5,67.3,M,48.1,M,13.0,0000*67
$GPGGA,151331.000,4758.2436,N,00124.6629,W,2,07,1.5,66.3,M,48.1,M,14.0,0000*6E
$GPGGA,151332.000,4758.2363,N,00124.6767,W,2,07,1.5,65.3,M,48.1,M,15.0,0000*63
$GPGGA,151333.000,4758.2288,N,00124.6905,W,2,07,1.5,64.3,M,48.1,M,16.0,0000*6E
$GPGGA,151334.000,4758.2223,N,00124.7048,W,2,07,1.5,63.5,M,48.1,M,17.0,0000*69
$GPGGA,151335.000,4758.2165,N,00124.7196,W,2,07,1.5,63.0,M,48.1,M,18.0,0000*61
$GPGGA,151336.000,4758.2112,N,00124.7352,W,1,07,1.5,62.4,M,48.1,M,,0000*79
$GPGGA,151337.000,4758.2062,N,00124.7512,W,1,07,1.5,61.8,M,48.1,M,,0000*73
$GPGGA,151338.000,4758.2016,N,00124.7673,W,1,07,1.5,61.5,M,48.1,M,,0000*76
$GPGGA,151339.000,4758.1971,N,00124.7834,W,1,07,1.5,61.2,M,48.1,M,,0000*76
$GPGGA,151340.000,4758.1928,N,00124.7997,W,1,07,1.5,61.0,M,48.1,M,,0000*7E
$GPGGA,151341.000,4758.1892,N,00124.8166,W,1,07,1.5,60.6,M,48.1,M,,0000*71
$GPGGA,151342.000,4758.1865,N,00124.8344,W,1,07,1.5,60.3,M,48.1,M,,0000*7D
$GPGGA,151343.000,4758.1842,N,00124.8523,W,1,07,1.5,60.3,M,48.1,M,,0000*7E
$GPGGA,151344.000,4758.1818,N,00124.8705,W,1,07,1.5,60.2,M,48.1,M,,0000*71
$GPGGA,151345.000,4758.1797,N,00124.8888,W,1,07,1.5,60.1,M,48.1,M,,0000*71
$GPGGA,151346.000,4758.1779,N,00124.9074,W,1,07,1.5,60.2,M,48.1,M,,0000*7B
$GPGGA,151347.000,4758.1764,N,00124.9260,W,1,07,1.5,59.8,M,48.1,M,,0000*71
$GPGGA,151348.000,4758.1753,N,00124.9451,W,1,07,1.5,59.1,M,48.1,M,,0000*77
$GPGGA,151349.000,4758.1744,N,00124.9642,W,1,06,1.6,58.0,M,48.1,M,,0000*72
$GPGGA,151350.000,4758.1734,N,00124.9836,W,1,07,1.5,56.9,M,48.1,M,,0000*75
$GPGGA,151351.000,4758.1725,N,00125.0031,W,1,07,1.5,56.1,M,48.1,M,,0000*7B
$GPGGA,151352.000,4758.1716,N,00125.0227,W,1,07,1.5,55.6,M,48.1,M,,0000*79
$GPGGA,151353.000,4758.1706,N,00125.0422,W,1,07,1.5,55.1,M,48.1,M,,0000*7D
$GPGGA,151354.000,4758.1695,N,00125.0616,W,1,07,1.5,54.6,M,48.1,M,,0000*72
$GPGGA,151355.000,4758.1684,N,00125.0809,W,1,07,1.5,53.9,M,48.1,M,,0000*7B
$GPGGA,151356.000,4758.1673,N,00125.1003,W,1,07,1.5,53.2,M,48.1,M,,0000*78
$GPGGA,151357.000,4758.1662,N,00125.1197,W,1,07,1.5,52.1,M,48.1,M,,0000*77
$GPGGA,151358.000,4758.1649,N,00125.1392,W,1,07,1.5,50.9,M,48.1,M,,0000*7C
$GPGGA,151359.000,4758.1630,N,00125.1587,W,1,07,1.5,49.8,M,48.1,M,,0000*78
$GPGGA,151400.000,4758.1607,N,00125.1782,W,1,07,1.5,48.6,M,48.1,M,,0000*7F
$GPGGA,151401.000,4758.1580,N,00125.1977,W,1,07,1.5,48.1,M,48.1,M,,0000*71
$GPGGA,151402.000,4758.1551,N,00125.2171,W,1,07,1.5,47.5,M,48.1,M,,0000*78
$GPGGA,151403.000,4758.1522,N,00125.2364,W,1,07,1.5,46.7,M,48.1,M,,0000*78
$GPGGA,151404.000,4758.1491,N,00125.2558,W,1,06,1.6,46.3,M,48.1,M,,0000*79
$GPGGA,151405.000,4758.1462,N,00125.2752,W,1,07,1.5,46.2,M,48.1,M,,0000*7F
$GPGGA,151406.000,4758.1433,N,00125.2946,W,1,07,1.5,46.4,M,48.1,M,,0000*75
$GPGGA,151407.000,4758.1407,N,00125.3137,W,1,07,1.5,46.8,M,48.1,M,,0000*70
$GPGGA,151408.000,4758.1383,N,00125.3327,W,1,07,1.5,47.0,M,48.1,M,,0000*7E
$GPGGA,151409.000,4758.1359,N,00125.3514,W,1,07,1.5,48.0,M,48.1,M,,0000*71
$GPGGA,151410.000,4758.1335,N,00125.3699,W,1,07,1.5,48.9,M,48.1,M,,0000*7C
$GPGGA,151411.000,4758.1312,N,00125.3880,W,1,07,1.5,49.4,M,48.1,M,,0000*72
$GPGGA,151412.000,4758.1291,N,00125.4059,W,1,07,1.5,49.6,M,48.1,M,,0000*72
$GPGGA,151413.000,4758.1276,N,00125.4238,W,1,07,1.5,49.6,M,48.1,M,,0000*7F
$GPGGA,151414.000,4758.1271,N,00125.4415,W,1,07,1.5,49.5,M,48.1,M,,0000*75
$GPGGA,151415.000,4758.1275,N,00125.4593,W,1,07,1.5,49.3,M,48.1,M,,0000*79
$GPGGA,151416.000,4758.1282,N,00125.4770,W,1,07,1.5,49.1,M,48.1,M,,0000*7F
$GPGGA,151417.000,4758.1291,N,00125.4946,W,1,07,1.5,48.6,M,48.1,M,,0000*71
$GPGGA,151418.000,4758.1299,N,00125.5121,W,1,07,1.5,48.1,M,48.1,M,,0000*79
$GPGGA,151419.000,4758.1302,N,00125.5295,W,1,07,1.5,47.5,M,48.1,M,,0000*7C
$GPGGA,151420.000,4758.1298,N,00125.5466,W,1,07,1.5,46.5,M,48.1,M,,0000*7F
$GPGGA,151421.000,4758.1286,N,00125.5637,W,1,07,1.5,45.8,M,48.1,M,,0000*79
$GPGGA,151422.000,4758.1272,N,00125.5806,W,1,07,1.5,45.3,M,48.1,M,,0000*76
$GPGGA,151423.000,4758.1255,N,00125.5968,W,1,07,1.5,44.9,M,48.1,M,,0000*70
$GPGGA,151424.000,4758.1239,N,00125.6119,W,1,07,1.5,44.6,M,48.1,M,,0000*7F
$GPGGA,151425.000,4758.1226,N,00125.6253,W,1,07,1.5,44.3,M,48.1,M,,0000*78
$GPGGA,151426.000,4758.1216,N,00125.6375,W,1,06,1.6,44.7,M,48.1,M,,0000*7B
$GPGGA,151427.000,4758.1205,N,00125.6482,W,1,07,1.5,45.4,M,48.1,M,,0000*77
$GPGGA,151428.000,4758.1191,N,00125.6576,W,1,07,1.5,45.1,M,48.1,M,,0000*79
$GPGGA,151429.000,4758.1169,N,00125.6649,W,1,07,1.5,44.6,M,48.1,M,,0000*76
$GPGGA,151430.000,4758.1144,N,00125.6704,W,1,07,1.5,44.0,M,48.1,M,,0000*7F
$GPGGA,151431.000,4758.1125,N,00125.6736,W,1,07,1.5,44.2,M,48.1,M,,0000*7A
$GPGGA,151432.000,4758.1117,N,00125.6749,W,1,07,1.5,44.5,M,48.1,M,,0000*77
$GPGGA,151433.000,4758.1115,N,00125.6753,W,1,07,1.5,44.5,M,48.1,M,,0000*7F
$GPGGA,151434.000,4758.1111,N,00125.6753,W,1,07,1.5,44.4,M,48.1,M,,0000*7D
$GPGGA,151435.000,4758.1101,N,00125.6760,W,1,07,1.5,44.2,M,48.1,M,,0000*7B
$GPGGA,151436.000,4758.1079,N,00125.6771,W,1,07,1.5,43.8,M,48.1,M,,0000*7B
$GPGGA,151437.000,4758.1046,N,00125.6782,W,1,07,1.5,43.5,M,48.1,M,,0000*77
$GPGGA,151438.000,4758.1001,N,00125.6790,W,1,07,1.5,43.3,M,48.1,M,,0000*7E
$GPGGA,151439.000,4758.0954,N,00125.6798,W,1,07,1.5,43.0,M,48.1,M,,0000*7C
$GPGGA,151440.000,4758.0893,N,00125.6804,W,1,07,1.5,42.6,M,48.1,M,,0000*75
$GPGGA,151441.000,4758.0828,N,00125.6812,W,1,07,1.5,42.3,M,48.1,M,,0000*76
$GPGGA,151442.000,4758.0758,N,00125.6823,W,1,07,1.5,41.9,M,48.1,M,,0000*76
$GPGGA,151443.000,4758.0687,N,00125.6836,W,1,07,1.5,41.8,M,48.1,M,,0000*71
$GPGGA,151444.000,4758.0614,N,00125.6850,W,1,07,1.5,41.9,M,48.1,M,,0000*7D
$GPGGA,151445.000,4758.0535,N,00125.6863,W,1,07,1.5,42.1,M,48.1,M,,0000*77
$GPGGA,151446.000,4758.0450,N,00125.6875,W,1,07,1.5,42.3,M,48.1,M,,0000*73
$GPGGA,151447.000,4758.0363,N,00125.6879,W,1,07,1.5,42.4,M,48.1,M,,0000*7E
$GPGGA,151448.000,4758.0278,N,00125.6867,W,1,07,1.5,42.6,M,48.1,M,,0000*77
$GPGGA,151449.000,4758.0196,N,00125.6836,W,1,07,1.5,42.9,M,48.1,M,,0000*7E
$GPGGA,151450.000,4758.0116,N,00125.6777,W,1,07,1.5,42.5,M,48.1,M,,0000*78
$GPGGA,151451.000,4758.0033,N,00125.6695,W,1,07,1.5,41.8,M,48.1,M,,0000*7C
$GPGGA,151452.000,4757.9958,N,00125.6615,W,1,07,1.5,41.0,M,48.1,M,,0000*7D
$GPGGA,151453.000,4757.9889,N,00125.6541,W,1,07,1.5,40.6,M,48.1,M,,0000*74
$GPGGA,151454.000,4757.9822,N,00125.6471,W,1,07,1.5,40.3,M,48.1,M,,0000*75
$GPGGA,151455.000,4757.9759,N,00125.6414,W,1,07,1.5,40.1,M,48.1,M,,0000*76
$GPGGA,151456.000,4757.9696,N,00125.6374,W,1,07,1.5,40.1,M,48.1,M,,0000*76
$GPGGA,151457.000,4757.9627,N,00125.6359,W,1,07,1.5,40.2,M,48.1,M,,0000*71
$GPGGA,151458.000,4757.9550,N,00125.6398,W,1,07,1.5,39.8,M,48.1,M,,0000*74
$GPGGA,151459.000,4757.9471,N,00125.6446,W,1,07,1.5,38.8,M,48.1,M,,0000*72
$GPGGA,151500.000,4757.9389,N,00125.6501,W,1,07,1.5,37.2,M,48.1,M,,0000*78
$GPGGA,151501.000,4757.9306,N,00125.6546,W,1,07,1.5,36.5,M,48.1,M,,0000*7B
$GPGGA,151502.000,4757.9231,N,00125.6584,W,1,07,1.5,36.3,M,48.1,M,,0000*75
$GPGGA,151503.000,4757.9160,N,00125.6617,W,1,07,1.5,35.8,M,48.1,M,,0000*72
$GPGGA,151504.000,4757.9094,N,00125.6642,W,1,07,1.5,35.1,M,48.1,M,,0000*76
$GPGGA,151505.000,4757.9030,N,00125.6644,W,1,07,1.5,34.2,M,48.1,M,,0000*7D
$GPGGA,151506.000,4757.8961,N,00125.6626,W,1,07,1.5,34.0,M,48.1,M,,0000*74
$GPGGA,151507.000,4757.8893,N,00125.6586,W,1,07,1.5,33.9,M,48.1,M,,0000*7E
$GPGGA,151508.000,4757.8837,N,00125.6530,W,1,07,1.5,33.6,M,48.1,M,,0000*7D
$GPGGA,151509.000,4757.8785,N,00125.6464,W,1,07,1.5,32.7,M,48.1,M,,0000*7A
$GPGGA,151510.000,4757.8728,N,00125.6398,W,1,07,1.5,31.8,M,48.1,M,,0000*7D
$GPGGA,151511.000,4757.8663,N,00125.6333,W,1,07,1.5,31.4,M,48.1,M,,0000*7F
$GPGGA,151512.000,4757.8593,N,00125.6265,W,1,07,1.5,31.0,M,48.1,M,,0000*76
$GPGGA,151513.000,4757.8521,N,00125.6194,W,1,07,1.5,31.1,M,48.1,M,,0000*72
$GPGGA,151514.000,4757.8444,N,00125.6119,W,1,07,1.5,31.3,M,48.1,M,,0000*70
$GPGGA,151515.000,4757.8361,N,00125.6040,W,1,07,1.5,31.4,M,48.1,M,,0000*7B
$GPGGA,151516.000,4757.8276,N,00125.5956,W,1,07,1.5,31.6,M,48.1,M,,0000*70
$GPGGA,151517.000,4757.8188,N,00125.5870,W,1,07,1.5,31.8,M,48.1,M,,0000*78
$GPGGA,151518.000,4757.8099,N,00125.5781,W,1,07,1.5,32.0,M,48.1,M,,0000*7C
$GPGGA,151519.000,4757.8006,N,00125.5689,W,1,07,1.5,32.2,M,48.1,M,,0000*70
$GPGGA,151520.000,4757.7909,N,00125.5596,W,1,07,1.5,32.3,M,48.1,M,,0000*7F
$GPGGA,151521.000,4757.7807,N,00125.5501,W,1,07,1.5,32.3,M,48.1,M,,0000*7F
$GPGGA,151522.000,4757.7702,N,00125.5406,W,1,07,1.5,32.1,M,48.1,M,,0000*72
$GPGGA,151523.000,4757.7602,N,00125.5312,W,1,07,1.5,32.3,M,48.1,M,,0000*72
$GPGGA,151524.000,4757.7500,N,00125.5216,W,1,07,1.5,32.5,M,48.1,M,,0000*77
$GPGGA,151525.000,4757.7398,N,00125.5119,W,1,07,1.5,32.9,M,48.1,M,,0000*71
$GPGGA,151526.000,4757.7296,N,00125.5021,W,1,07,1.5,33.4,M,48.1,M,,0000*7B
$GPGGA,151527.000,4757.7195,N,00125.4923,W,1,07,1.5,33.7,M,48.1,M,,0000*73
$GPGGA,151528.000,4757.7089,N,00125.4824,W,1,07,1.5,33.7,M,48.1,M,,0000*76
$GPGGA,151529.000,4757.6989,N,00125.4726,W,1,07,1.5,34.1,M,48.1,M,,0000*73
$GPGGA,151530.000,4757.6888,N,00125.4630,W,1,07,1.5,34.3,M,48.1,M,,0000*7F
$GPGGA,151531.000,4757.6787,N,00125.4533,W,1,07,1.5,34.6,M,48.1,M,,0000*7B
$GPGGA,151532.000,4757.6685,N,00125.4436,W,1,07,1.5,34.6,M,48.1,M,,0000*7F
$GPGGA,151533.000,4757.6584,N,00125.4339,W,1,07,1.5,34.7,M,48.1,M,,0000*75
$GPGGA,151534.000,4757.6485,N,00125.4242,W,1,07,1.5,34.8,M,48.1,M,,0000*70
