$GPRMC,150232.000,A,4758.1006,N,00124.0337,W,0.00,111.15,231217,,,A*73
Survey start at #CCLK: "17/12/23,16:02:33+04"
at#csurv
Network survey started ...
$GPGGA,150233.000,4758.1007,N,00124.0338,W,1,07,1.5,73.0,M,48.1,M,,0000*75
Survey end at #CCLK: "17/12/23,16:02:33+04"
Survey duration: 0 seconds, 0 bases detected over 0 freqs scanned.
$GPGSA,M,3,05,13,30,28,20,15,07,,,,,,3.0,1.5,2.6*32
$GPRMC,150233.000,A,4758.1007,N,00124.0338,W,0.00,111.15,231217,,,A*7C
$GPGGA,150234.000,4758.1007,N,00124.0338,W,1,07,1.5,73.0,M,48.1,M,,0000*72
$GPGSA,M,3,05,13,30,28,20,15,07,,,,,,3.0,1.5,2.6*32
$GPRMC,150234.000,A,4758.1007,N,00124.0338,W,0.00,111.15,231217,,,A*7B
Survey start at #CCLK: "17/12/23,16:02:34+04"
at#csurv
Network survey started ...
$GPGGA,150235.000,4758.1008,N,00124.0339,W,1,07,1.5,73.0,M,48.1,M,,0000*7D
$GPGSA,M,3,05,13,30,28,20,15,07,,,,,,3.0,1.5,2.6*32
$GPGSV,3,1,12,05,64,203,31,13,58,292,38,30,54,060,38,28,40,117,35*71
$GPGSV,3,2,12,20,39,300,34,15,26,287,33,07,26,055,42,02,00,207,18*71
$GPGSV,3,3,12,33,33,198,,21,12,317,,04,12,225,,08,03,044,*76
$GPRMC,150235.000,A,4758.1008,N,00124.0339,W,0.00,111.15,231217,,,A*74
$GPGGA,150236.000,4758.1008,N,00124.0339,W,1,07,1.5,73.1,M,48.1,M,,0000*7F
$GPGSA,M,3,05,13,30,28,20,15,07,,,,,,3.0,1.5,2.6*32
$GPRMC,150236.000,A,4758.1008,N,00124.0339,W,0.00,111.15,231217,,,A*77
$GPGGA,150237.000,4758.1009,N,00124.0339,W,1,07,1.5,73.1,M,48.1,M,,0000*7F
$GPGSA,M,3,05,13,30,28,20,15,07,,,,,,3.0,1.5,2.6*32
$GPRMC,150237.000,A,4758.1009,N,00124.0339,W,0.00,111.15,231217,,,A*77
$GPGGA,150238.000,4758.1010,N,00124.0340,W,1,07,1.5,73.1,M,48.1,M,,0000*76
$GPGSA,M,3,05,13,30,28,20,15,07,,,,,,3.0,1.5,2.6*32
$GPRMC,150238.000,A,4758.1010,N,00124.0340,W,0.00,111.15,231217,,,A*7E
$GPGGA,150239.000,4758.1010,N,00124.0340,W,1,07,1.5,73.2,M,48.1,M,,0000*74
$GPGSA,M,3,05,13,30,28,20,15,07,,,,,,3.0,1.5,2.6*32
$GPRMC,150239.000,A,4758.1010,N,00124.0340,W,0.00,111.15,231217,,,A*7F
$GPGGA,150240.000,4758.1011,N,00124.0341,W,1,07,1.5,73.2,M,48.1,M,,0000*7A
$GPGSA,M,3,05,13,30,28,20,15,07,,,,,,3.0,1.5,2.6*32
$GPGSV,3,1,12,05,64,203,31,13,58,292,38,30,54,060,38,28,40,117,36*72
$GPGSV,3,2,12,20,39,300,35,15,26,287,33,07,26,055,41,02,00,207,18*73
$GPGSV,3,3,12,33,33,198,34,21,12,317,,04,12,225,,08,03,044,*71
$GPRMC,150240.000,A,4758.1011,N,00124.0341,W,0.00,111.15,231217,,,A*71
$GPGGA,150241.000,4758.1012,N,00124.0341,W,1,07,1.5,73.3,M,48.1,M,,0000*79
$GPGSA,M,3,05,13,30,28,20,15,07,,,,,,3.0,1.5,2.6*32
$GPRMC,150241.000,A,4758.1012,N,00124.0341,W,0.00,111.15,231217,,,A*73
$GPGGA,150242.000,4758.1012,N,00124.0342,W,1,07,1.5,73.3,M,48.1,M,,0000*79
$GPGSA,M,3,05,13,30,28,20,15,07,,,,,,3.0,1.5,2.6*32
$GPRMC,150242.000,A,4758.1012,N,00124.0342,W,0.00,111.15,231217,,,A*73
$GPGGA,150243.000,4758.1013,N,00124.0342,W,1,07,1.5,73.3,M,48.1,M,,0000*79
$GPGSA,M,3,05,13,30,28,20,15,07,,,,,,3.0,1.5,2.6*32
$GPRMC,150243.000,A,4758.1013,N,00124.0342,W,0.00,111.15,231217,,,A*73
$GPGGA,150244.000,4758.1014,N,00124.0342,W,1,07,1.5,73.4,M,48.1,M,,0000*7E
$GPGSA,M,3,05,13,30,28,20,15,07,,,,,,3.0,1.5,2.6*32
arfcn: 1022 bsic: 45 rxLev: -88 ber: 0.00 mcc: 208 mnc: 20 lac: 284 cellId: 38538 cellStatus: CELL_SUITABLE numArfcn: 1 arfcn: 1022 numChannels: 23 array: 788 876 881 884 975 976 979 980 981 982 984 986 987 1011 1012 1013 1014 1015 1017 1018 1020 1021 1022 pbcch: 0 nom: 2 rac: 6 spgc: 0 pat: 6 nco: 0 t3168: 1500 t3192: 500 drxmax: 0 ctrlAck: 0 bsCVmax: 8 alpha: 6 pcMeasCh: 1 
arfcn: 977 bsic: 33 rxLev: -90 ber: 0.00 mcc: 208 mnc: 20 lac: 413 cellId: 20368 cellStatus: CELL_SUITABLE numArfcn: 1 arfcn: 977 numChannels: 20 array: 975 976 979 980 982 983 984 985 986 987 1011 1013 1014 1015 1018 1019 1021 1022 880 884 pbcch: 0 nom: 2 rac: 1 spgc: 0 pat: 6 nco: 0 t3168: 1500 t3192: 500 drxmax: 0 ctrlAck: 0 bsCVmax: 8 alpha: 6 pcMeasCh: 1 
arfcn: 124 rxLev: -92
$GPRMC,150244.000,A,4758.1014,N,00124.0342,W,0.00,111.15,231217,,,A*73
$GPGGA,150245.000,4758.1014,N,00124.0343,W,1,07,1.5,73.4,M,48.1,M,,0000*7E
$GPGSA,M,3,05,13,30,28,20,15,07,,,,,,3.0,1.5,2.6*32
$GPGSV,3,1,12,05,64,203,31,13,58,292,38,30,54,060,38,28,40,117,36*72
$GPGSV,3,2,12,20,39,300,35,15,26,287,33,07,26,055,41,02,00,207,17*7C
$GPGSV,3,3,12,37,28,151,,21,12,317,,04,12,225,,08,03,044,*7D
$GPRMC,150245.000,A,4758.1014,N,00124.0343,W,0.00,111.15,231217,,,A*73
arfcn: 82 bsic: 4 rxLev: -92 ber: 0.00 mcc: 208 mnc: 10 lac: 6001 cellId: 13590 cellStatus: CELL_FORBIDDEN numArfcn: 3 arfcn: 78 80 82 numChannels: 13 array: 77 79 81 83 85 86 87 113 115 117 118 119 124 pbcch: 0 nom: 2 rac: 61 spgc: 0 pat: 6 nco: 0 t3168: 1000 t3192: 500 drxmax: 2 ctrlAck: 0 bsCVmax: 9 alpha: 7 pcMeasCh: 1 
$GPGGA,150246.000,4758.1015,N,00124.0343,W,1,07,1.5,73.5,M,48.1,M,,0000*7D
$GPGSA,M,3,05,13,30,28,20,15,07,,,,,,3.0,1.5,2.6*32
$GPRMC,150246.000,A,4758.1015,N,00124.0343,W,0.00,111.15,231217,,,A*71
$GPGGA,150247.000,4758.1016,N,00124.0344,W,1,07,1.5,73.5,M,48.1,M,,0000*78
$GPGSA,M,3,05,13,30,28,20,15,07,,,,,,3.0,1.5,2.6*32
$GPRMC,150247.000,A,4758.1016,N,00124.0344,W,0.00,111.15,231217,,,A*74
arfcn: 81 bsic: 11 rxLev: -93 ber: 0.01 mcc: 208 mnc: 10 lac: 6001 cellId: 49645 cellStatus: CELL_FORBIDDEN numArfcn: 2 arfcn: 81 83 numChannels: 17 array: 77 78 79 80 82 83 85 86 87 113 114 115 117 118 120 122 124 pbcch: 0 nom: 2 rac: 61 spgc: 0 pat: 6 nco: 0 t3168: 1000 t3192: 500 drxmax: 2 ctrlAck: 0 bsCVmax: 9 alpha: 7 pcMeasCh: 1 
arfcn: 67 rxLev: -94
arfcn: 68 rxLev: -95
$GPGGA,150248.000,4758.1016,N,00124.0344,W,1,07,1.5,73.5,M,48.1,M,,0000*77
$GPGSA,M,3,05,13,30,28,20,15,07,,,,,,3.0,1.5,2.6*32
$GPRMC,150248.000,A,4758.1016,N,00124.0344,W,0.00,111.15,231217,,,A*7B
$GPGGA,150249.000,4758.1017,N,00124.0345,W,1,07,1.5,73.6,M,48.1,M,,0000*75
$GPGSA,M,3,05,13,30,28,20,15,07,,,,,,3.0,1.5,2.6*32
$GPRMC,150249.000,A,4758.1017,N,00124.0345,W,0.00,111.15,231217,,,A*7A
$GPGGA,150250.000,4758.1017,N,00124.0345,W,1,07,1.5,73.6,M,48.1,M,,0000*7D
$GPGSA,M,3,05,13,30,28,20,15,07,,,,,,3.0,1.5,2.6*32
$GPGSV,3,1,12,05,64,203,31,13,58,292,37,30,54,060,38,28,40,117,37*7C
$GPGSV,3,2,12,20,39,300,35,15,26,287,33,07,26,055,41,02,00,207,16*7D
arfcn: 975 bsic: 60 rxLev: -95 ber: 0.05 mcc: 208 mnc: 20 lac: 413 cellId: 20247 cellStatus: CELL_SUITABLE numArfcn: 1 arfcn: 975 numChannels: 20 array: 977 978 979 980 981 982 983 984 985 987 1011 1013 1014 1015 1017 1018 1019 1020 1021 1022 pbcch: 0 nom: 2 rac: 1 spgc: 0 pat: 6 nco: 0 t3168: 1500 t3192: 500 drxmax: 0 ctrlAck: 0 bsCVmax: 8 alpha: 6 pcMeasCh: 1 
arfcn: 8 rxLev: -95
$GPGSV,3,3,12,37,28,151,,21,12,317,,04,12,225,,08,03,044,*7D
$GPRMC,150250.000,A,4758.1017,N,00124.0345,W,0.00,111.15,231217,,,A*72
$GPGGA,150251.000,4758.1018,N,00124.0345,W,1,07,1.5,73.6,M,48.1,M,,0000*73
$GPGSA,M,3,05,13,30,28,20,15,07,,,,,,3.0,1.5,2.6*32
$GPRMC,150251.000,A,4758.1018,N,00124.0345,W,0.00,111.15,231217,,,A*7C
$GPGGA,150252.000,4758.1018,N,00124.0346,W,1,07,1.5,73.7,M,48.1,M,,0000*72
$GPGSA,M,3,05,13,30,28,20,15,07,,,,,,3.0,1.5,2.6*32
$GPRMC,150252.000,A,4758.1018,N,00124.0346,W,0.00,111.15,231217,,,A*7C
$GPGGA,150253.000,4758.1019,N,00124.0346,W,1,07,1.5,73.7,M,48.1,M,,0000*72
$GPGSA,M,3,05,13,30,28,20,15,07,,,,,,3.0,1.5,2.6*32
$GPRMC,150253.000,A,4758.1019,N,00124.0346,W,0.00,111.15,231217,,,A*7C
$GPGGA,150254.000,4758.1020,N,00124.0347,W,1,07,1.5,73.7,M,48.1,M,,0000*7E
$GPGSA,M,3,05,13,30,28,20,15,07,,,,,,3.0,1.5,2.6*32
$GPRMC,150254.000,A,4758.1020,N,00124.0347,W,0.00,111.15,231217,,,A*70
arfcn: 79 bsic: 56 rxLev: -95 ber: 1.06 mcc: 208 mnc: 10 lac: 30514 cellId: 20244 cellStatus: CELL_FORBIDDEN numArfcn: 1 arfcn: 79 numChannels: 19 array: 76 77 78 79 81 82 83 85 86 87 113 114 115 117 118 119 121 122 124 pbcch: 0 nom: 2 rac: 1 spgc: 0 pat: 6 nco: 0 t3168: 1500 t3192: 500 drxmax: 0 ctrlAck: 0 bsCVmax: 8 alpha: 6 pcMeasCh: 1 
arfcn: 80 rxLev: -96
arfcn: 66 rxLev: -96
arfcn: 123 rxLev: -96
arfcn: 609 rxLev: -96
arfcn: 978 rxLev: -97
arfcn: 98 rxLev: -97
$GPGGA,150255.000,4758.1020,N,00124.0347,W,1,07,1.5,73.8,M,48.1,M,,0000*70
$GPGSA,M,3,05,13,30,28,20,15,07,,,,,,3.0,1.5,2.6*32
$GPGSV,3,1,12,05,64,203,31,13,58,292,38,30,54,060,38,28,40,117,37*73
$GPGSV,3,2,12,20,39,300,36,15,26,287,33,07,26,055,40,02,00,207,14*7D
$GPGSV,3,3,12,37,28,151,,21,12,317,,04,12,225,,08,03,044,*7D
$GPRMC,150255.000,A,4758.1020,N,00124.0347,W,0.00,111.15,231217,,,A*71
$GPGGA,150256.000,4758.1021,N,00124.0348,W,1,07,1.5,73.8,M,48.1,M,,0000*7D
$GPGSA,M,3,05,13,30,28,20,15,07,,,,,,3.0,1.5,2.6*32
$GPRMC,150256.000,A,4758.1021,N,00124.0348,W,0.00,111.15,231217,,,A*7C
arfcn: 11 bsic: 30 rxLev: -97 ber: 0.01 mcc: 208 mnc: 01 lac: 10300 cellId: 12921 cellStatus: CELL_FORBIDDEN numArfcn: 13 arfcn: 11 17 18 19 20 21 22 23 24 25 47 48 49 numChannels: 13 array: 1 2 3 4 5 6 7 9 11 12 13 14 15 pbcch: 0 nom: 2 rac: 1 spgc: 1 pat: 6 nco: 0 t3168: 1000 t3192: 500 drxmax: 4 ctrlAck: 1 bsCVmax: 9 alpha: 7 pcMeasCh: 0 
arfcn: 63 rxLev: -97
arfcn: 99 rxLev: -97
arfcn: 97 rxLev: -98
arfcn: 92 rxLev: -98
$GPGGA,150257.000,4758.1021,N,00124.0348,W,1,07,1.5,73.8,M,48.1,M,,0000*7C
arfcn: 93 rxLev: -98
$GPGSA,M,3,05,13,30,28,20,15,07,,,,,,3.0,1.5,2.6*32
arfcn: 95 rxLev: -98
arfcn: 982 rxLev: -98
$GPRMC,150257.000,A,4758.1021,N,00124.0348,W,0.00,111.15,231217,,,A*7D
arfcn: 980 rxLev: -98
arfcn: 96 rxLev: -98
arfcn: 94 rxLev: -98
arfcn: 100 rxLev: -98
arfcn: 101 rxLev: -99
arfcn: 979 rxLev: -99
arfcn: 976 rxLev: -99
$GPGGA,150258.000,4758.1022,N,00124.0349,W,1,07,1.5,73.9,M,48.1,M,,0000*70
$GPGSA,M,3,05,13,30,28,20,15,07,,,,,,3.0,1.5,2.6*32
$GPRMC,150258.000,A,4758.1022,N,00124.0349,W,0.00,111.15,231217,,,A*70
$GPGGA,150259.000,4758.1022,N,00124.0349,W,1,07,1.5,73.9,M,48.1,M,,0000*71
$GPGSA,M,3,05,13,30,28,20,15,07,,,,,,3.0,1.5,2.6*32
$GPRMC,150259.000,A,4758.1022,N,00124.0349,W,0.00,111.15,231217,,,A*71
$GPGGA,150300.000,4758.1023,N,00124.0349,W,1,07,1.5,73.9,M,48.1,M,,0000*7D
$GPGSA,M,3,05,13,30,28,20,15,07,,,,,,3.0,1.5,2.6*32
arfcn: 115 bsic: 8 rxLev: -99 ber: 7.01 mcc: 208 mnc: 10 lac: 6001 cellId: 30875 cellStatus: CELL_FORBIDDEN numArfcn: 2 arfcn: 111 115 numChannels: 16 array: 77 78 79 80 81 82 83 85 87 113 114 117 118 120 122 124 pbcch: 0 nom: 2 rac: 61 spgc: 0 pat: 6 nco: 0 t3168: 1000 t3192: 500 drxmax: 2 ctrlAck: 0 bsCVmax: 9 alpha: 7 pcMeasCh: 1 
arfcn: 78 rxLev: -99
arfcn: 981 rxLev: -99
$GPGSV,3,1,12,05,64,203,33,13,58,292,38,30,54,060,37,28,40,117,37*7E
arfcn: 983 rxLev: -99
arfcn: 729 rxLev: -99
$GPGSV,3,2,12,20,39,300,36,15,26,287,32,07,26,055,40,02,00,207,04*7D
arfcn: 73 rxLev: -99
$GPGSV,3,3,12,37,28,151,,21,12,317,,04,12,225,,08,03,044,*7D
arfcn: 74 rxLev: -99
arfcn: 75 rxLev: -99
$GPRMC,150300.000,A,4758.1023,N,00124.0349,W,0.00,111.15,231217,,,A*7D
arfcn: 120 rxLev: -99
arfcn: 102 rxLev: -100
$GPGGA,150301.000,4758.1023,N,00124.0350,W,1,07,1.5,73.9,M,48.1,M,,0000*74
arfcn: 103 rxLev: -100
arfcn: 91 rxLev: -100
$GPGSA,M,3,05,13,30,28,20,15,07,,,,,,3.0,1.5,2.6*32
arfcn: 83 rxLev: -100
arfcn: 64 rxLev: -100
$GPRMC,150301.000,A,4758.1023,N,00124.0350,W,0.00,111.15,231217,,,A*74
$GPGGA,150302.000,4758.1024,N,00124.0350,W,1,07,1.5,74.0,M,48.1,M,,0000*7E
$GPGSA,M,3,05,13,30,28,20,15,07,,,,,,3.0,1.5,2.6*32
$GPRMC,150302.000,A,4758.1024,N,00124.0350,W,0.00,111.15,231217,,,A*70
$GPGGA,150303.000,4758.1024,N,00124.0351,W,1,07,1.5,74.0,M,48.1,M,,0000*7E
$GPGSA,M,3,05,13,30,28,20,15,07,,,,,,3.0,1.5,2.6*32
$GPRMC,150303.000,A,4758.1024,N,00124.0351,W,0.00,111.15,231217,,,A*70
$GPGGA,150304.000,4758.1025,N,00124.0351,W,1,07,1.5,74.0,M,48.1,M,,0000*78
$GPGSA,M,3,05,13,30,28,20,15,07,,,,,,3.0,1.5,2.6*32
$GPRMC,150304.000,A,4758.1025,N,00124.0351,W,0.00,111.15,231217,,,A*76
$GPGGA,150305.000,4758.1025,N,00124.0351,W,1,07,1.5,74.0,M,48.1,M,,0000*79
$GPGSA,M,3,05,13,30,28,20,15,07,,,,,,3.0,1.5,2.6*32
$GPGSV,3,1,12,05,64,203,33,13,58,292,38,30,54,060,37,28,40,117,37*7E
arfcn: 5 bsic: 43 rxLev: -100 ber: 2.02 mcc: 208 mnc: 01 lac: 10300 cellId: 57179 cellStatus: CELL_FORBIDDEN numArfcn: 13 arfcn: 5 17 18 19 20 21 22 23 24 25 47 48 49 numChannels: 14 array: 1 2 3 4 5 6 7 8 9 11 12 13 14 15 pbcch: 0 nom: 2 rac: 1 spgc: 1 pat: 6 nco: 0 t3168: 1000 t3192: 500 drxmax: 4 ctrlAck: 1 bsCVmax: 9 alpha: 7 pcMeasCh: 0 
arfcn: 65 rxLev: -100
$GPGSV,3,2,12,20,39,300,36,15,26,287,32,07,26,055,40,02,00,207,14*7C
arfcn: 69 rxLev: -100
arfcn: 122 rxLev: -100
$GPGSV,3,3,12,21,12,317,23,37,28,151,,04,12,225,,08,03,044,*7C
arfcn: 849 rxLev: -100
arfcn: 121 rxLev: -101
$GPRMC,150305.000,A,4758.1025,N,00124.0351,W,0.00,111.15,231217,,,A*77
arfcn: 61 rxLev: -101
arfcn: 62 rxLev: -101
$GPGGA,150306.000,4758.1025,N,00124.0352,W,1,07,1.5,74.1,M,48.1,M,,0000*78
arfcn: 60 rxLev: -101
arfcn: 12 rxLev: -101
$GPGSA,M,3,05,13,30,28,20,15,07,,,,,,3.0,1.5,2.6*32
arfcn: 14 rxLev: -101
$GPRMC,150306.000,A,4758.1025,N,00124.0352,W,0.00,111.15,231217,,,A*77
arfcn: 104 rxLev: -101
arfcn: 77 rxLev: -101
arfcn: 546 rxLev: -101
$GPGGA,150307.000,4758.1026,N,00124.0352,W,1,07,1.5,74.1,M,48.1,M,,0000*7A
$GPGSA,M,3,05,13,30,28,20,15,07,,,,,,3.0,1.5,2.6*32
$GPRMC,150307.000,A,4758.1026,N,00124.0352,W,0.00,111.15,231217,,,A*75
$GPGGA,150308.000,4758.1026,N,00124.0352,W,1,07,1.5,74.1,M,48.1,M,,0000*75
$GPGSA,M,3,05,13,30,28,20,15,07,,,,,,3.0,1.5,2.6*32
$GPRMC,150308.000,A,4758.1026,N,00124.0352,W,0.00,111.15,231217,,,A*7A
$GPGGA,150309.000,4758.1027,N,00124.0353,W,1,07,1.5,74.2,M,48.1,M,,0000*77
$GPGSA,M,3,05,13,30,28,20,15,07,,,,,,3.0,1.5,2.6*32
$GPRMC,150309.000,A,4758.1027,N,00124.0353,W,0.00,111.15,231217,,,A*7B
arfcn: 1017 bsic: 9 rxLev: -102 ber: 3.03 mcc: 208 mnc: 20 lac: 284 cellId: 22570 cellStatus: CELL_SUITABLE numArfcn: 1 arfcn: 1017 numChannels: 20 array: 787 789 881 885 975 978 980 981 982 983 985 987 1011 1014 1015 1016 1018 1020 1021 1022 pbcch: 0 nom: 2 rac: 6 spgc: 0 pat: 6 nco: 0 t3168: 1500 t3192: 500 drxmax: 0 ctrlAck: 0 bsCVmax: 8 alpha: 6 pcMeasCh: 1 
arfcn: 72 rxLev: -102
$GPGGA,150310.000,4758.1027,N,00124.0353,W,1,07,1.5,74.2,M,48.1,M,,0000*7F
arfcn: 86 rxLev: -102
$GPGSA,M,3,05,13,30,28,20,15,07,,,,,,3.0,1.5,2.6*32
arfcn: 105 rxLev: -102
arfcn: 118 rxLev: -102
$GPGSV,3,1,12,05,64,203,34,13,58,292,39,30,54,060,37,28,40,117,36*79
arfcn: 13 rxLev: -102
$GPGSV,3,2,12,20,39,300,36,15,26,287,31,07,26,055,40,02,00,207,16*7D
arfcn: 15 rxLev: -102
arfcn: 18 rxLev: -102
$GPGSV,3,3,12,21,12,317,23,37,28,151,,04,12,225,,08,03,044,*7C
arfcn: 59 rxLev: -102
$GPRMC,150310.000,A,4758.1027,N,00124.0353,W,0.00,111.15,231217,,,A*73
arfcn: 58 rxLev: -102
arfcn: 33 rxLev: -102
arfcn: 42 rxLev: -102
arfcn: 44 rxLev: -102
$GPGGA,150311.000,4758.1028,N,00124.0353,W,1,07,1.5,74.2,M,48.1,M,,0000*71
arfcn: 2 rxLev: -102
$GPGSA,M,3,05,13,30,28,20,15,07,,,,,,3.0,1.5,2.6*32
arfcn: 119 rxLev: -102
arfcn: 107 rxLev: -102
$GPRMC,150311.000,A,4758.1028,N,00124.0353,W,0.00,111.15,231217,,,A*7D
arfcn: 90 rxLev: -102
arfcn: 76 rxLev: -102
arfcn: 607 rxLev: -102
arfcn: 985 rxLev: -102
arfcn: 987 rxLev: -103
arfcn: 988 rxLev: -103
$GPGGA,150312.000,4758.1028,N,00124.0354,W,1,07,1.5,74.2,M,48.1,M,,0000*75
arfcn: 991 rxLev: -103
arfcn: 992 rxLev: -103
$GPGSA,M,3,05,13,30,28,20,15,07,,,,,,3.0,1.5,2.6*32
arfcn: 993 rxLev: -103
arfcn: 994 rxLev: -103
$GPRMC,150312.000,A,4758.1028,N,00124.0354,W,0.00,111.15,231217,,,A*79
arfcn: 1004 rxLev: -103
arfcn: 1021 rxLev: -103
arfcn: 108 rxLev: -103
arfcn: 106 rxLev: -103
arfcn: 4 rxLev: -103
arfcn: 9 rxLev: -103
arfcn: 28 rxLev: -103
arfcn: 57 rxLev: -103
arfcn: 55 rxLev: -103
$GPGGA,150313.000,4758.1028,N,00124.0354,W,1,07,1.5,74.2,M,48.1,M,,0000*74
arfcn: 56 rxLev: -103
$GPGSA,M,3,05,13,30,28,20,15,07,,,,,,3.0,1.5,2.6*32
arfcn: 43 rxLev: -103
arfcn: 41 rxLev: -103
$GPRMC,150313.000,A,4758.1028,N,00124.0354,W,0.00,111.15,231217,,,A*78
arfcn: 45 rxLev: -103
arfcn: 38 rxLev: -103
arfcn: 39 rxLev: -103
arfcn: 29 rxLev: -103
arfcn: 31 rxLev: -103
arfcn: 32 rxLev: -103
arfcn: 17 rxLev: -103
arfcn: 19 rxLev: -103
$GPGGA,150314.000,4758.1029,N,00124.0354,W,1,07,1.5,74.2,M,48.1,M,,0000*72
arfcn: 109 rxLev: -103
$GPGSA,M,3,05,13,30,28,20,15,07,,,,,,3.0,1.5,2.6*32
arfcn: 70 rxLev: -103
arfcn: 89 rxLev: -103
$GPRMC,150314.000,A,4758.1029,N,00124.0354,W,0.00,111.15,231217,,,A*7E
arfcn: 84 rxLev: -103
arfcn: 605 rxLev: -103
arfcn: 996 rxLev: -103
arfcn: 990 rxLev: -103
arfcn: 989 rxLev: -104
arfcn: 986 rxLev: -104
arfcn: 1001 rxLev: -104
arfcn: 1002 rxLev: -104
arfcn: 1003 rxLev: -104
$GPGGA,150315.000,4758.1029,N,00124.0354,W,1,07,1.5,74.3,M,48.1,M,,0000*72
arfcn: 1005 rxLev: -104
$GPGSA,M,3,05,13,30,28,20,15,07,,,,,,3.0,1.5,2.6*32
arfcn: 1023 rxLev: -104
arfcn: 71 rxLev: -104
$GPGSV,3,1,12,05,64,203,34,13,58,292,39,30,54,060,37,28,40,117,36*79
arfcn: 27 rxLev: -104
arfcn: 7 rxLev: -104
$GPGSV,3,2,12,20,39,300,36,15,26,287,31,07,26,055,40,02,00,207,16*7D
arfcn: 40 rxLev: -104
arfcn: 54 rxLev: -104
$GPGSV,3,3,12,21,12,317,22,36,26,138,42,04,12,225,,08,03,044,*7B
arfcn: 36 rxLev: -104
$GPRMC,150315.000,A,4758.1029,N,00124.0354,W,0.00,111.15,231217,,,A*7F
arfcn: 6 rxLev: -104
$GPGGA,150316.000,4758.1029,N,00124.0355,W,1,07,1.5,74.3,M,48.1,M,,0000*70
arfcn: 16 rxLev: -104
arfcn: 25 rxLev: -104
$GPGSA,M,3,05,13,30,28,20,15,07,,,,,,3.0,1.5,2.6*32
arfcn: 87 rxLev: -104
arfcn: 88 rxLev: -104
$GPRMC,150316.000,A,4758.1029,N,00124.0355,W,0.00,111.15,231217,,,A*7D
arfcn: 611 rxLev: -104
arfcn: 1006 rxLev: -104
arfcn: 1007 rxLev: -104
arfcn: 1008 rxLev: -104
arfcn: 1000 rxLev: -104
arfcn: 984 rxLev: -104
arfcn: 995 rxLev: -105
arfcn: 997 rxLev: -105
arfcn: 999 rxLev: -105
$GPGGA,150317.000,4758.1030,N,00124.0355,W,1,07,1.5,74.3,M,48.1,M,,0000*79
arfcn: 1009 rxLev: -105
$GPGSA,M,3,05,13,30,28,20,15,07,,,,,,3.0,1.5,2.6*32
arfcn: 608 rxLev: -105
$GPRMC,150317.000,A,4758.1030,N,00124.0355,W,0.00,111.15,231217,,,A*74
arfcn: 30 rxLev: -105
arfcn: 34 rxLev: -105
arfcn: 48 rxLev: -105
arfcn: 53 rxLev: -105
arfcn: 52 rxLev: -105
arfcn: 22 rxLev: -105
arfcn: 726 rxLev: -105
$GPGGA,150318.000,4758.1030,N,00124.0355,W,1,07,1.5,74.3,M,48.1,M,,0000*76
arfcn: 669 rxLev: -106
$GPGSA,M,3,05,13,30,28,20,15,07,,,,,,3.0,1.5,2.6*32
arfcn: 606 rxLev: -106
arfcn: 1010 rxLev: -106
$GPRMC,150318.000,A,4758.1030,N,00124.0355,W,0.00,111.15,231217,,,A*7B
arfcn: 998 rxLev: -106
arfcn: 23 rxLev: -106
arfcn: 3 rxLev: -106
arfcn: 1 rxLev: -106
arfcn: 49 rxLev: -106
arfcn: 47 rxLev: -106
arfcn: 35 rxLev: -106
arfcn: 37 rxLev: -106
arfcn: 85 rxLev: -106
$GPGGA,150319.000,4758.1031,N,00124.0356,W,1,07,1.5,74.3,M,48.1,M,,0000*75
arfcn: 117 rxLev: -106
$GPGSA,M,3,05,13,30,28,20,15,07,,,,,,3.0,1.5,2.6*32
arfcn: 110 rxLev: -106
arfcn: 46 rxLev: -106
$GPRMC,150319.000,A,4758.1031,N,00124.0356,W,0.00,111.15,231217,,,A*78
arfcn: 21 rxLev: -106
arfcn: 26 rxLev: -106
arfcn: 789 rxLev: -106
arfcn: 665 rxLev: -107
arfcn: 666 rxLev: -107
arfcn: 861 rxLev: -107
arfcn: 1011 rxLev: -107
arfcn: 603 rxLev: -107
$GPGGA,150320.000,4758.1031,N,00124.0356,W,1,07,1.5,74.3,M,48.1,M,,0000*7F
arfcn: 547 rxLev: -107
$GPGSA,M,3,05,13,30,28,20,15,07,,,,,,3.0,1.5,2.6*32
arfcn: 50 rxLev: -107
arfcn: 51 rxLev: -107
$GPGSV,3,1,12,05,64,203,34,13,58,292,39,30,54,060,38,28,40,117,36*76
arfcn: 113 rxLev: -107
arfcn: 111 rxLev: -107
$GPGSV,3,2,12,20,39,300,36,15,26,287,31,07,26,055,40,02,00,207,15*7E
arfcn: 116 rxLev: -107
arfcn: 114 rxLev: -107
$GPGSV,3,3,12,21,12,317,15,36,26,138,40,04,12,225,,08,03,044,*7D
arfcn: 20 rxLev: -107
arfcn: 10 rxLev: -107
$GPRMC,150320.000,A,4758.1031,N,00124.0356,W,0.00,111.15,231217,,,A*72
arfcn: 545 rxLev: -107
arfcn: 1012 rxLev: -107
$GPGGA,150321.000,4758.1031,N,00124.0356,W,1,07,1.5,74.3,M,48.1,M,,0000*7E
arfcn: 1013 rxLev: -107
arfcn: 1016 rxLev: -107
$GPGSA,M,3,05,13,30,28,20,15,07,,,,,,3.0,1.5,2.6*32
arfcn: 602 rxLev: -107
arfcn: 599 rxLev: -107
$GPRMC,150321.000,A,4758.1031,N,00124.0356,W,0.00,111.15,231217,,,A*73
arfcn: 600 rxLev: -107
arfcn: 597 rxLev: -107
arfcn: 598 rxLev: -107
arfcn: 570 rxLev: -108
arfcn: 596 rxLev: -108
arfcn: 604 rxLev: -108
arfcn: 616 rxLev: -108
arfcn: 1015 rxLev: -108
$GPGGA,150322.000,4758.1032,N,00124.0356,W,1,07,1.5,74.3,M,48.1,M,,0000*7E
$GPGSA,M,3,05,13,30,28,20,15,07,,,,,,3.0,1.5,2.6*32
arfcn: 1019 rxLev: -108
arfcn: 1018 rxLev: -108
$GPRMC,150322.000,A,4758.1032,N,00124.0356,W,0.00,111.15,231217,,,A*73
arfcn: 544 rxLev: -108
arfcn: 548 rxLev: -108
arfcn: 568 rxLev: -108
arfcn: 617 rxLev: -108
arfcn: 618 rxLev: -108
arfcn: 24 rxLev: -108
Network survey ended
Survey end at #CCLK: "17/12/23,16:03:22+04"
Survey duration: 47 seconds, 10 bases detected over 202 freqs scanned.
$GPGGA,150323.000,4758.1032,N,00124.0357,W,1,07,1.5,74.4,M,48.1,M,,0000*79
$GPGSA,M,3,05,13,30,28,20,15,07,,,,,,3.0,1.5,2.6*32
$GPRMC,150323.000,A,4758.1032,N,00124.0357,W,0.00,111.15,231217,,,A*73
$GPGGA,150324.000,4758.1032,N,00124.0357,W,1,07,1.5,74.4,M,48.1,M,,0000*7E
$GPGSA,M,3,05,13,30,28,20,15,07,,,,,,3.0,1.5,2.6*32
$GPRMC,150324.000,A,4758.1032,N,00124.0357,W,0.00,111.15,231217,,,A*74
Survey start at #CCLK: "17/12/23,16:03:24+04"
at#csurv
Network survey started ...
$GPGGA,150325.000,4758.1032,N,00124.0357,W,1,07,1.5,74.3,M,48.1,M,,0000*78
$GPGSA,M,3,05,13,30,28,20,15,07,,,,,,3.0,1.5,2.6*32
$GPGSV,3,1,12,05,64,203,33,13,58,292,39,30,54,060,38,28,40,117,35*72
$GPGSV,3,2,12,20,39,300,36,15,26,287,31,07,26,055,40,02,00,207,13*78
$GPGSV,3,3,12,08,03,044,07,21,12,317,14,36,26,138,40,04,12,225,*7B
$GPRMC,150325.000,A,4758.1032,N,00124.0357,W,0.00,111.15,231217,,,A*75
$GPGGA,150326.000,4758.1032,N,00124.0357,W,1,07,1.5,74.3,M,48.1,M,,0000*7B
$GPGSA,M,3,05,13,30,28,20,15,07,,,,,,3.0,1.5,2.6*32
$GPRMC,150326.000,A,4758.1032,N,00124.0357,W,0.00,111.15,231217,,,A*76
$GPGGA,150327.000,4758.1032,N,00124.0357,W,1,07,1.5,74.3,M,48.1,M,,0000*7A
$GPGSA,M,3,05,13,30,28,20,15,07,,,,,,3.0,1.5,2.6*32
$GPRMC,150327.000,A,4758.1032,N,00124.0357,W,0.00,111.15,231217,,,A*77
$GPGGA,150328.000,4758.1033,N,00124.0357,W,1,07,1.5,74.3,M,48.1,M,,0000*74
$GPGSA,M,3,05,13,30,28,20,15,07,,,,,,3.0,1.5,2.6*32
$GPRMC,150328.000,A,4758.1033,N,00124.0357,W,0.00,111.15,231217,,,A*79
$GPGGA,150329.000,4758.1033,N,00124.0358,W,1,07,1.5,74.3,M,48.1,M,,0000*7A
$GPGSA,M,3,05,13,30,28,20,15,07,,,,,,3.0,1.5,2.6*32
$GPRMC,150329.000,A,4758.1033,N,00124.0358,W,0.00,111.15,231217,,,A*77
$GPGGA,150330.000,4758.1033,N,00124.0358,W,1,07,1.5,74.2,M,48.1,M,,0000*73
$GPGSA,M,3,05,13,30,28,20,15,07,,,,,,3.0,1.5,2.6*32
$GPGSV,3,1,12,05,64,203,33,13,58,292,40,30,54,060,38,28,40,117,35*7C
$GPGSV,3,2,12,20,39,300,35,15,26,287,31,07,26,055,41,02,00,207,04*7C
$GPGSV,3,3,12,08,03,044,11,21,12,317,15,36,26,138,40,04,12,225,*7D
$GPRMC,150330.000,A,4758.1033,N,00124.0358,W,0.00,111.15,231217,,,A*7F
$GPGGA,150331.000,4758.1033,N,00124.0358,W,1,07,1.5,74.2,M,48.1,M,,0000*72
$GPGSA,M,3,05,13,30,28,20,15,07,,,,,,3.0,1.5,2.6*32
$GPRMC,150331.000,A,4758.1033,N,00124.0358,W,0.00,111.15,231217,,,A*7E
$GPGGA,150332.000,4758.1033,N,00124.0358,W,1,07,1.5,74.1,M,48.1,M,,0000*72
$GPGSA,M,3,05,13,30,28,20,15,07,,,,,,3.0,1.5,2.6*32
$GPRMC,150332.000,A,4758.1033,N,00124.0358,W,0.00,111.15,231217,,,A*7D
$GPGGA,150333.000,4758.1033,N,00124.0358,W,1,07,1.5,74.1,M,48.1,M,,0000*73
$GPGSA,M,3,05,13,30,28,20,15,07,,,,,,3.0,1.5,2.6*32
arfcn: 1022 bsic: 45 rxLev: -88 ber: 0.00 mcc: 208 mnc: 20 lac: 284 cellId: 38538 cellStatus: CELL_SUITABLE numArfcn: 1 arfcn: 1022 numChannels: 23 array: 788 876 881 884 975 976 979 980 981 982 984 986 987 1011 1012 1013 1014 1015 1017 1018 1020 1021 1022 pbcch: 0 nom: 2 rac: 6 spgc: 0 pat: 6 nco: 0 t3168: 1500 t3192: 500 drxmax: 0 ctrlAck: 0 bsCVmax: 8 alpha: 6 pcMeasCh: 1 
arfcn: 977 bsic: 33 rxLev: -90 ber: 0.03 mcc: 208 mnc: 20 lac: 413 cellId: 20368 cellStatus: CELL_SUITABLE numArfcn: 1 arfcn: 977 numChannels: 20 array: 975 976 979 980 982 983 984 985 986 987 1011 1013 1014 1015 1018 1019 1021 1022 880 884 pbcch: 0 nom: 2 rac: 1 spgc: 0 pat: 6 nco: 0 t3168: 1500 t3192: 500 drxmax: 0 ctrlAck: 0 bsCVmax: 8 alpha: 6 pcMeasCh: 1 
arfcn: 124 rxLev: -92
$GPRMC,150333.000,A,4758.1033,N,00124.0358,W,0.00,111.15,231217,,,A*7C
$GPGGA,150334.000,4758.1033,N,00124.0358,W,1,07,1.5,74.1,M,48.1,M,,0000*74
$GPGSA,M,3,05,13,30,28,20,15,07,,,,,,3.0,1.5,2.6*32
$GPRMC,150334.000,A,4758.1033,N,00124.0358,W,0.00,111.15,231217,,,A*7B
$GPGGA,150335.000,4758.1033,N,00124.0358,W,1,07,1.5,74.0,M,48.1,M,,0000*74
$GPGSA,M,3,05,13,30,28,20,15,07,,,,,,3.0,1.5,2.6*32
$GPGSV,3,1,12,05,64,203,32,13,58,292,40,30,54,060,37,28,40,117,35*72
$GPGSV,3,2,12,20,39,300,35,15,26,287,31,07,26,055,41,08,03,044,09*7D
$GPGSV,3,3,12,21,12,317,15,36,26,138,40,04,12,225,,27,01,010,*73
$GPRMC,150335.000,A,4758.1033,N,00124.0358,W,0.00,111.15,231217,,,A*7A
$GPGGA,150336.000,4758.1033,N,00124.0358,W,1,07,1.5,74.0,M,48.1,M,,0000*77
$GPGSA,M,3,05,13,30,28,20,15,07,,,,,,3.0,1.5,2.6*32
$GPRMC,150336.000,A,4758.1033,N,00124.0358,W,0.00,111.15,231217,,,A*79
arfcn: 82 bsic: 4 rxLev: -92 ber: 0.00 mcc: 208 mnc: 10 lac: 6001 cellId: 13590 cellStatus: CELL_FORBIDDEN numArfcn: 3 arfcn: 78 80 82 numChannels: 13 array: 77 79 81 83 85 86 87 113 115 117 118 119 124 pbcch: 0 nom: 2 rac: 61 spgc: 0 pat: 6 nco: 0 t3168: 1000 t3192: 500 drxmax: 2 ctrlAck: 0 bsCVmax: 9 alpha: 7 pcMeasCh: 1 
$GPGGA,150337.000,4758.1034,N,00124.0359,W,1,07,1.5,74.0,M,48.1,M,,0000*70
$GPGSA,M,3,05,13,30,28,20,15,07,,,,,,3.0,1.5,2.6*32
$GPRMC,150337.000,A,4758.1034,N,00124.0359,W,0.00,111.15,231217,,,A*7E
$GPGGA,150338.000,4758.1034,N,00124.0359,W,1,07,1.5,73.9,M,48.1,M,,0000*71
$GPGSA,M,3,05,13,30,28,20,15,07,,,,,,3.0,1.5,2.6*32
$GPRMC,150338.000,A,4758.1034,N,00124.0359,W,0.00,111.15,231217,,,A*71
arfcn: 81 bsic: 11 rxLev: -93 ber: 0.07 mcc: 208 mnc: 10 lac: 6001 cellId: 49645 cellStatus: CELL_FORBIDDEN numArfcn: 2 arfcn: 81 83 numChannels: 17 array: 77 78 79 80 82 83 85 86 87 113 114 115 117 118 120 122 124 pbcch: 0 nom: 2 rac: 61 spgc: 0 pat: 6 nco: 0 t3168: 1000 t3192: 500 drxmax: 2 ctrlAck: 0 bsCVmax: 9 alpha: 7 pcMeasCh: 1 
$GPGGA,150339.000,4758.1034,N,00124.0359,W,1,07,1.5,73.9,M,48.1,M,,0000*70
$GPGSA,M,3,05,13,30,28,20,15,07,,,,,,3.0,1.5,2.6*32
$GPRMC,150339.000,A,4758.1034,N,00124.0359,W,0.00,111.15,231217,,,A*70
$GPGGA,150340.000,4758.1034,N,00124.0359,W,1,07,1.5,73.9,M,48.1,M,,0000*7E
$GPGSA,M,3,05,13,30,28,20,15,07,,,,,,3.0,1.5,2.6*32
$GPGSV,3,1,12,05,64,203,31,13,58,292,40,30,54,060,36,28,40,117,35*70
$GPGSV,3,2,12,20,39,300,35,15,26,287,31,07,26,055,41,08,03,044,08*7C
$GPGSV,3,3,12,21,12,317,14,36,26,138,40,04,12,225,,27,01,010,*72
$GPRMC,150340.000,A,4758.1034,N,00124.0359,W,0.00,111.15,231217,,,A*7E
$GPGGA,150341.000,4758.1034,N,00124.0359,W,1,07,1.5,73.9,M,48.1,M,,0000*7F
$GPGSA,M,3,05,13,30,28,20,15,07,,,,,,3.0,1.5,2.6*32
$GPRMC,150341.000,A,4758.1034,N,00124.0359,W,0.00,111.15,231217,,,A*7F
arfcn: 975 bsic: 60 rxLev: -93 ber: 0.06 mcc: 208 mnc: 20 lac: 413 cellId: 20247 cellStatus: CELL_SUITABLE numArfcn: 1 arfcn: 975 numChannels: 20 array: 977 978 979 980 981 982 983 984 985 987 1011 1013 1014 1015 1017 1018 1019 1020 1021 1022 pbcch: 0 nom: 2 rac: 1 spgc: 0 pat: 6 nco: 0 t3168: 1500 t3192: 500 drxmax: 0 ctrlAck: 0 bsCVmax: 8 alpha: 6 pcMeasCh: 1 
arfcn: 67 rxLev: -94
$GPGGA,150342.000,4758.1034,N,00124.0359,W,1,07,1.5,73.8,M,48.1,M,,0000*7D
$GPGSA,M,3,05,13,30,28,20,15,07,,,,,,3.0,1.5,2.6*32
$GPRMC,150342.000,A,4758.1034,N,00124.0359,W,0.00,111.15,231217,,,A*7C
$GPGGA,150343.000,4758.1034,N,00124.0359,W,1,07,1.5,73.8,M,48.1,M,,0000*7C
$GPGSA,M,3,05,13,30,28,20,15,07,,,,,,3.0,1.5,2.6*32
$GPRMC,150343.000,A,4758.1034,N,00124.0359,W,0.00,111.15,231217,,,A*7D
$GPGGA,150344.000,4758.1034,N,00124.0359,W,1,07,1.5,73.8,M,48.1,M,,0000*7B
$GPGSA,M,3,05,13,30,28,20,15,07,,,,,,3.0,1.5,2.6*32
$GPRMC,150344.000,A,4758.1034,N,00124.0359,W,0.00,111.15,231217,,,A*7A
$GPGGA,150345.000,4758.1034,N,00124.0359,W,1,07,1.5,73.7,M,48.1,M,,0000*75
$GPGSA,M,3,05,13,30,28,20,15,07,,,,,,3.0,1.5,2.6*32
arfcn: 79 bsic: 56 rxLev: -94 ber: 0.00 mcc: 208 mnc: 10 lac: 30514 cellId: 20244 cellStatus: CELL_FORBIDDEN numArfcn: 1 arfcn: 79 numChannels: 19 array: 76 77 78 79 81 82 83 85 86 87 113 114 115 117 118 119 121 122 124 pbcch: 0 nom: 2 rac: 1 spgc: 0 pat: 6 nco: 0 t3168: 1500 t3192: 500 drxmax: 0 ctrlAck: 0 bsCVmax: 8 alpha: 6 pcMeasCh: 1 
arfcn: 68 rxLev: -95
arfcn: 123 rxLev: -95
$GPGSV,3,1,12,05,64,203,30,13,58,292,40,30,54,060,35,28,40,117,35*72
$GPGSV,3,2,12,20,39,300,35,15,26,287,32,07,26,055,41,02,00,207,12*78
arfcn: 66 rxLev: -96
$GPGSV,3,3,12,21,12,317,13,36,26,138,40,04,12,225,,08,03,044,*7B
arfcn: 8 rxLev: -96
$GPRMC,150345.000,A,4758.1034,N,00124.0359,W,0.00,111.15,231217,,,A*7B
$GPGGA,150346.000,4758.1034,N,00124.0360,W,1,07,1.5,73.7,M,48.1,M,,0000*7C
$GPGSA,M,3,05,13,30,28,20,15,07,,,,,,3.0,1.5,2.6*32
$GPRMC,150346.000,A,4758.1034,N,00124.0360,W,0.00,111.15,231217,,,A*72
$GPGGA,150347.000,4758.1034,N,00124.0360,W,1,07,1.5,73.8,M,48.1,M,,0000*72
$GPGSA,M,3,05,13,30,28,20,15,07,,,,,,3.0,1.5,2.6*32
$GPRMC,150347.000,A,4758.1034,N,00124.0360,W,0.00,111.15,231217,,,A*73
arfcn: 11 bsic: 30 rxLev: -97 ber: 0.00 mcc: 208 mnc: 01 lac: 10300 cellId: 12921 cellStatus: CELL_FORBIDDEN numArfcn: 13 arfcn: 11 17 18 19 20 21 22 23 24 25 47 48 49 numChannels: 13 array: 1 2 3 4 5 6 7 9 11 12 13 14 15 pbcch: 0 nom: 2 rac: 1 spgc: 1 pat: 6 nco: 0 t3168: 1000 t3192: 500 drxmax: 4 ctrlAck: 1 bsCVmax: 9 alpha: 7 pcMeasCh: 0 
arfcn: 98 rxLev: -97
arfcn: 978 rxLev: -97
arfcn: 982 rxLev: -97
arfcn: 609 rxLev: -97
arfcn: 93 rxLev: -97
$GPGGA,150348.000,4758.1034,N,00124.0360,W,1,07,1.5,73.8,M,48.1,M,,0000*7D
arfcn: 63 rxLev: -97
arfcn: 95 rxLev: -98
$GPGSA,M,3,05,13,30,28,20,15,07,,,,,,3.0,1.5,2.6*32
arfcn: 99 rxLev: -98
arfcn: 97 rxLev: -98
$GPRMC,150348.000,A,4758.1034,N,00124.0360,W,0.00,111.15,231217,,,A*7C
arfcn: 96 rxLev: -98
arfcn: 976 rxLev: -98
$GPGGA,150349.000,4758.1035,N,00124.0360,W,1,07,1.5,73.8,M,48.1,M,,0000*7D
$GPGSA,M,3,05,13,30,28,20,15,07,,,,,,3.0,1.5,2.6*32
$GPRMC,150349.000,A,4758.1035,N,00124.0360,W,0.00,111.15,231217,,,A*7C
arfcn: 115 bsic: 8 rxLev: -98 ber: 5.07 mcc: FFF mnc: FF lac: 65535 cellId: 0 cellStatus: CELL_OTHER numArfcn: 0 arfcn: numChannels: 0 array:
$GPGGA,150350.000,4758.1035,N,00124.0360,W,1,07,1.5,73.9,M,48.1,M,,0000*74
arfcn: 94 rxLev: -98
arfcn: 78 rxLev: -98
$GPGSA,M,3,05,13,30,28,20,15,07,,,,,,3.0,1.5,2.6*32
arfcn: 73 rxLev: -99
$GPGSV,3,1,12,05,64,203,30,13,58,292,41,30,54,060,35,28,40,117,35*73
arfcn: 64 rxLev: -99
arfcn: 100 rxLev: -99
$GPGSV,3,2,12,20,39,300,35,15,26,287,32,07,26,055,41,02,00,207,14*7E
arfcn: 983 rxLev: -99
arfcn: 979 rxLev: -99
$GPGSV,3,3,12,08,03,044,14,21,12,317,12,36,26,138,40,04,12,225,*7F
arfcn: 980 rxLev: -99
arfcn: 981 rxLev: -99
$GPRMC,150350.000,A,4758.1035,N,00124.0360,W,0.00,111.15,231217,,,A*74
arfcn: 120 rxLev: -99
arfcn: 74 rxLev: -99
$GPGGA,150351.000,4758.1035,N,00124.0360,W,1,07,1.5,73.8,M,48.1,M,,0000*74
arfcn: 75 rxLev: -99
$GPGSA,M,3,05,13,30,28,20,15,07,,,,,,3.0,1.5,2.6*32
arfcn: 92 rxLev: -99
arfcn: 65 rxLev: -100
$GPRMC,150351.000,A,4758.1035,N,00124.0360,W,0.00,111.15,231217,,,A*75
arfcn: 122 rxLev: -100
arfcn: 101 rxLev: -100
arfcn: 5 rxLev: -100
arfcn: 61 rxLev: -100
arfcn: 77 rxLev: -100
arfcn: 91 rxLev: -100
arfcn: 729 rxLev: -100
$GPGGA,150352.000,4758.1035,N,00124.0360,W,1,07,1.5,73.8,M,48.1,M,,0000*77
arfcn: 849 rxLev: -101
$GPGSA,M,3,05,13,30,28,20,15,07,,,,,,3.0,1.5,2.6*32
arfcn: 80 rxLev: -101
arfcn: 102 rxLev: -101
$GPRMC,150352.000,A,4758.1035,N,00124.0360,W,0.00,111.15,231217,,,A*76
arfcn: 121 rxLev: -101
arfcn: 103 rxLev: -101
arfcn: 86 rxLev: -101
arfcn: 76 rxLev: -101
arfcn: 69 rxLev: -101
arfcn: 60 rxLev: -101
arfcn: 58 rxLev: -101
$GPGGA,150353.000,4758.1035,N,00124.0360,W,1,07,1.5,73.8,M,48.1,M,,0000*76
$GPGSA,M,3,05,13,30,28,20,15,07,,,,,,3.0,1.5,2.6*32
$GPRMC,150353.000,A,4758.1035,N,00124.0360,W,0.00,111.15,231217,,,A*77
$GPGGA,150354.000,4758.1035,N,00124.0360,W,1,07,1.5,73.8,M,48.1,M,,0000*71
$GPGSA,M,3,05,13,30,28,20,15,07,,,,,,3.0,1.5,2.6*32
$GPRMC,150354.000,A,4758.1035,N,00124.0360,W,0.00,111.15,231217,,,A*70
arfcn: 59 bsic: 0 rxLev: -101 ber: 17.02 mcc: FFF mnc: FF lac: 65535 cellId: 0 cellStatus: CELL_OTHER numArfcn: 0 arfcn: numChannels: 0 array:
$GPGGA,150355.000,4758.1035,N,00124.0361,W,1,07,1.5,73.8,M,48.1,M,,0000*71
$GPGSA,M,3,05,13,30,28,20,15,07,,,,,,3.0,1.5,2.6*32
$GPGSV,3,1,12,05,64,203,30,13,58,292,40,30,54,060,36,28,40,117,36*72
$GPGSV,3,2,12,20,39,300,34,15,26,287,31,07,26,055,41,02,00,207,13*7B
$GPGSV,3,3,12,08,03,044,13,21,12,317,12,36,26,138,40,04,12,225,*78
$GPRMC,150355.000,A,4758.1035,N,00124.0361,W,0.00,111.15,231217,,,A*70
$GPGGA,150356.000,4758.1036,N,00124.0361,W,1,07,1.5,73.8,M,48.1,M,,0000*71
$GPGSA,M,3,05,13,30,28,20,15,07,,,,,,3.0,1.5,2.6*32
$GPRMC,150356.000,A,4758.1036,N,00124.0361,W,0.00,111.15,231217,,,A*70
$GPGGA,150357.000,4758.1036,N,00124.0361,W,1,07,1.5,73.8,M,48.1,M,,0000*70
$GPGSA,M,3,05,13,30,28,20,15,07,,,,,,3.0,1.5,2.6*32
$GPRMC,150357.000,A,4758.1036,N,00124.0361,W,0.00,111.15,231217,,,A*71
$GPGGA,150358.000,4758.1036,N,00124.0361,W,1,07,1.5,73.8,M,48.1,M,,0000*7F
$GPGSA,M,3,05,13,30,28,20,15,07,,,,,,3.0,1.5,2.6*32
$GPRMC,150358.000,A,4758.1036,N,00124.0361,W,0.00,111.15,231217,,,A*7E
$GPGGA,150359.000,4758.1036,N,00124.0361,W,2,07,1.5,73.7,M,48.1,M,2.0,0000*5E
$GPGSA,M,3,05,13,30,28,20,15,07,,,,,,3.0,1.5,2.6*32
$GPRMC,150359.000,A,4758.1036,N,00124.0361,W,0.00,111.15,231217,,,D*7A
$GPGGA,150400.000,4758.1036,N,00124.0361,W,2,07,1.5,73.7,M,48.1,M,3.0,0000*54
$GPGSA,M,3,05,13,30,28,20,15,07,,,,,,3.0,1.5,2.6*32
$GPGSV,3,1,12,05,64,203,31,13,58,292,40,30,54,060,36,28,40,117,36*73
$GPGSV,3,2,12,20,39,300,34,15,26,287,31,07,26,055,41,02,00,207,14*7C
$GPGSV,3,3,12,08,03,044,13,21,12,317,14,36,26,138,40,04,12,225,*7E
$GPRMC,150400.000,A,4758.1036,N,00124.0361,W,0.00,111.15,231217,,,D*71
$GPGGA,150401.000,4758.1037,N,00124.0361,W,2,07,1.5,73.7,M,48.1,M,2.0,0000*55
$GPGSA,M,3,05,13,30,28,20,15,07,,,,,,3.0,1.5,2.6*32
$GPRMC,150401.000,A,4758.1037,N,00124.0361,W,0.00,111.15,231217,,,D*71
arfcn: 12 bsic: 8 rxLev: -101 ber: 7.02 mcc: 208 mnc: 01 lac: 10300 cellId: 57177 cellStatus: CELL_FORBIDDEN numArfcn: 13 arfcn: 12 17 18 19 20 21 22 23 24 25 47 48 49 numChannels: 15 array: 1 2 3 4 5 6 7 9 10 11 12 13 14 15 519 pbcch: 0 nom: 2 rac: 1 spgc: 1 pat: 6 nco: 0 t3168: 1000 t3192: 500 drxmax: 4 ctrlAck: 1 bsCVmax: 9 alpha: 7 pcMeasCh: 0 
arfcn: 13 rxLev: -101
arfcn: 14 rxLev: -101
arfcn: 15 rxLev: -102
arfcn: 991 rxLev: -102
$GPGGA,150402.000,4758.1037,N,00124.0361,W,2,07,1.5,73.7,M,48.1,M,2.0,0000*56
arfcn: 993 rxLev: -102
$GPGSA,M,3,05,13,30,28,20,15,07,,,,,,3.0,1.5,2.6*32
$GPRMC,150402.000,A,4758.1037,N,00124.0361,W,0.00,111.15,231217,,,D*72
$GPGGA,150403.000,4758.1037,N,00124.0361,W,2,07,1.5,73.7,M,48.1,M,2.0,0000*57
$GPGSA,M,3,05,13,30,28,20,15,07,,,,,,3.0,1.5,2.6*32
$GPRMC,150403.000,A,4758.1037,N,00124.0361,W,0.00,111.15,231217,,,D*73
$GPGGA,150404.000,4758.1037,N,00124.0361,W,2,07,1.5,73.7,M,48.1,M,3.0,0000*51
$GPGSA,M,3,05,13,30,28,20,15,07,,,,,,3.0,1.5,2.6*32
$GPRMC,150404.000,A,4758.1037,N,00124.0361,W,0.00,111.15,231217,,,D*74
arfcn: 1017 bsic: 9 rxLev: -102 ber: 1.06 mcc: 208 mnc: 20 lac: 284 cellId: 22570 cellStatus: CELL_SUITABLE numArfcn: 1 arfcn: 1017 numChannels: 20 array: 787 789 881 885 975 978 980 981 982 983 985 987 1011 1014 1015 1016 1018 1020 1021 1022 pbcch: 0 nom: 2 rac: 6 spgc: 0 pat: 6 nco: 0 t3168: 1500 t3192: 500 drxmax: 0 ctrlAck: 0 bsCVmax: 8 alpha: 6 pcMeasCh: 1 
arfcn: 992 rxLev: -102
arfcn: 990 rxLev: -102
arfcn: 987 rxLev: -102
arfcn: 994 rxLev: -102
arfcn: 996 rxLev: -102
$GPGGA,150405.000,4758.1037,N,00124.0361,W,2,07,1.5,73.7,M,48.1,M,2.0,0000*51
arfcn: 7 rxLev: -102
$GPGSA,M,3,05,13,30,28,20,15,07,,,,,,3.0,1.5,2.6*32
arfcn: 2 rxLev: -102
arfcn: 62 rxLev: -102
$GPGSV,3,1,12,05,64,203,31,13,58,292,40,30,54,060,35,28,40,117,37*71
arfcn: 55 rxLev: -102
arfcn: 70 rxLev: -102
$GPGSV,3,2,12,20,39,300,34,15,26,287,30,07,26,055,41,02,00,207,14*7D
arfcn: 72 rxLev: -102
arfcn: 90 rxLev: -102
$GPGSV,3,3,12,08,03,044,13,21,12,317,14,36,26,138,40,04,12,225,*7E
arfcn: 89 rxLev: -102
arfcn: 104 rxLev: -102
$GPRMC,150405.000,A,4758.1037,N,00124.0361,W,0.00,111.15,231217,,,D*75
arfcn: 107 rxLev: -102
arfcn: 118 rxLev: -102
arfcn: 119 rxLev: -103
$GPGGA,150406.000,4758.1038,N,00124.0362,W,2,07,1.5,73.7,M,48.1,M,2.0,0000*5E
arfcn: 88 rxLev: -103
$GPGSA,M,3,05,13,30,28,20,15,07,,,,,,3.0,1.5,2.6*32
$GPRMC,150406.000,A,4758.1038,N,00124.0362,W,0.00,111.15,231217,,,D*7A
arfcn: 83 rxLev: -103
arfcn: 57 rxLev: -103
arfcn: 39 rxLev: -103
arfcn: 40 rxLev: -103
arfcn: 44 rxLev: -103
arfcn: 4 rxLev: -103
arfcn: 9 rxLev: -103
$GPGGA,150407.000,4758.1038,N,00124.0362,W,2,07,1.5,73.7,M,48.1,M,2.0,0000*5F
arfcn: 19 rxLev: -103
arfcn: 22 rxLev: -103
$GPGSA,M,3,05,13,30,28,20,15,07,,,,,,3.0,1.5,2.6*32
arfcn: 1004 rxLev: -103
arfcn: 1021 rxLev: -103
$GPRMC,150407.000,A,4758.1038,N,00124.0362,W,0.00,111.15,231217,,,D*7B
arfcn: 611 rxLev: -103
arfcn: 606 rxLev: -103
arfcn: 607 rxLev: -103
arfcn: 605 rxLev: -103
arfcn: 1006 rxLev: -103
arfcn: 995 rxLev: -103
arfcn: 988 rxLev: -103
arfcn: 985 rxLev: -103
$GPGGA,150408.000,4758.1038,N,00124.0362,W,2,07,1.5,73.7,M,48.1,M,3.0,0000*51
arfcn: 18 rxLev: -103
$GPGSA,M,3,05,13,30,28,20,15,07,,,,,,3.0,1.5,2.6*32
arfcn: 16 rxLev: -103
arfcn: 17 rxLev: -103
$GPRMC,150408.000,A,4758.1038,N,00124.0362,W,0.00,111.15,231217,,,D*74
arfcn: 29 rxLev: -103
arfcn: 6 rxLev: -103
arfcn: 41 rxLev: -103
arfcn: 42 rxLev: -103
arfcn: 43 rxLev: -103
arfcn: 32 rxLev: -103
arfcn: 33 rxLev: -103
$GPGGA,150409.000,4758.1038,N,00124.0362,W,2,07,1.5,73.7,M,48.1,M,2.0,0000*51
arfcn: 56 rxLev: -103
arfcn: 54 rxLev: -103
$GPGSA,M,3,05,13,30,28,20,15,07,,,,,,3.0,1.5,2.6*32
arfcn: 52 rxLev: -103
arfcn: 49 rxLev: -103
$GPRMC,150409.000,A,4758.1038,N,00124.0362,W,0.00,111.15,231217,,,D*75
arfcn: 87 rxLev: -103
arfcn: 71 rxLev: -103
arfcn: 105 rxLev: -103
arfcn: 108 rxLev: -103
arfcn: 109 rxLev: -103
arfcn: 106 rxLev: -104
arfcn: 84 rxLev: -104
arfcn: 85 rxLev: -104
$GPGGA,150410.000,4758.1038,N,00124.0362,W,2,07,1.5,73.7,M,48.1,M,2.0,0000*59
arfcn: 53 rxLev: -104
$GPGSA,M,3,05,13,30,28,20,15,07,,,,,,3.0,1.5,2.6*32
arfcn: 38 rxLev: -104
arfcn: 45 rxLev: -104
$GPGSV,3,1,12,05,64,203,32,13,58,292,40,30,54,060,35,28,40,117,37*72
arfcn: 30 rxLev: -104
arfcn: 984 rxLev: -104
$GPGSV,3,2,12,20,39,300,34,15,26,287,30,07,26,055,41,02,00,207,14*7D
arfcn: 989 rxLev: -104
arfcn: 997 rxLev: -104
$GPGSV,3,3,12,08,03,044,08,21,12,317,15,36,26,138,39,04,12,225,*7B
arfcn: 1000 rxLev: -104
$GPRMC,150410.000,A,4758.1038,N,00124.0362,W,0.00,111.15,231217,,,D*7D
arfcn: 1001 rxLev: -104
arfcn: 1005 rxLev: -104
arfcn: 1002 rxLev: -104
$GPGGA,150411.000,4758.1039,N,00124.0362,W,2,07,1.5,73.7,M,48.1,M,2.0,0000*59
arfcn: 1003 rxLev: -104
$GPGSA,M,3,05,13,30,28,20,15,07,,,,,,3.0,1.5,2.6*32
arfcn: 1023 rxLev: -104
arfcn: 1007 rxLev: -104
$GPRMC,150411.000,A,4758.1039,N,00124.0362,W,0.00,111.15,231217,,,D*7D
arfcn: 998 rxLev: -104
arfcn: 28 rxLev: -104
arfcn: 27 rxLev: -104
arfcn: 36 rxLev: -104
arfcn: 34 rxLev: -104
arfcn: 48 rxLev: -104
arfcn: 111 rxLev: -104
arfcn: 117 rxLev: -105
$GPGGA,150412.000,4758.1039,N,00124.0362,W,2,07,1.5,73.7,M,48.1,M,3.0,0000*5B
arfcn: 37 rxLev: -105
arfcn: 26 rxLev: -105
$GPGSA,M,3,05,13,30,28,20,15,07,,,,,,3.0,1.5,2.6*32
arfcn: 31 rxLev: -105
arfcn: 23 rxLev: -105
$GPRMC,150412.000,A,4758.1039,N,00124.0362,W,0.00,111.15,231217,,,D*7E
arfcn: 20 rxLev: -105
arfcn: 999 rxLev: -105
arfcn: 986 rxLev: -105
arfcn: 608 rxLev: -105
arfcn: 789 rxLev: -105
arfcn: 51 rxLev: -105
arfcn: 35 rxLev: -106
$GPGGA,150413.000,4758.1039,N,00124.0362,W,2,07,1.5,73.7,M,48.1,M,2.0,0000*5B
arfcn: 46 rxLev: -106
$GPGSA,M,3,05,13,30,28,20,15,07,,,,,,3.0,1.5,2.6*32
arfcn: 21 rxLev: -106
arfcn: 25 rxLev: -106
$GPRMC,150413.000,A,4758.1039,N,00124.0362,W,0.00,111.15,231217,,,D*7F
arfcn: 669 rxLev: -106
arfcn: 603 rxLev: -106
arfcn: 547 rxLev: -106
arfcn: 1010 rxLev: -106
arfcn: 1008 rxLev: -106
arfcn: 1009 rxLev: -106
arfcn: 546 rxLev: -106
arfcn: 667 rxLev: -106
arfcn: 861 rxLev: -106
$GPGGA,150414.000,4758.1039,N,00124.0362,W,2,07,1.5,73.7,M,48.1,M,2.0,0000*5C
arfcn: 665 rxLev: -106
arfcn: 666 rxLev: -106
$GPGSA,M,3,05,13,30,28,20,15,07,,,,,,3.0,1.5,2.6*32
arfcn: 10 rxLev: -106
arfcn: 50 rxLev: -106
$GPRMC,150414.000,A,4758.1039,N,00124.0362,W,0.00,111.15,231217,,,D*78
arfcn: 110 rxLev: -106
arfcn: 116 rxLev: -107
arfcn: 47 rxLev: -107
arfcn: 24 rxLev: -107
arfcn: 618 rxLev: -107
arfcn: 1019 rxLev: -107
arfcn: 1013 rxLev: -107
$GPGGA,150415.000,4758.1039,N,00124.0362,W,2,07,1.5,73.7,M,48.1,M,2.0,0000*5D
arfcn: 1016 rxLev: -107
$GPGSA,M,3,05,13,30,28,20,15,07,,,,,,3.0,1.5,2.6*32
arfcn: 604 rxLev: -107
arfcn: 610 rxLev: -107
$GPGSV,3,1,12,05,64,203,32,13,58,292,40,30,54,060,35,28,40,117,36*73
arfcn: 601 rxLev: -107
arfcn: 599 rxLev: -107
$GPGSV,3,2,12,20,39,300,35,15,26,287,30,07,26,055,42,02,00,207,13*78
arfcn: 549 rxLev: -107
arfcn: 1014 rxLev: -107
$GPGSV,3,3,12,08,03,044,10,21,12,317,17,36,26,138,40,04,12,225,*7E
arfcn: 1015 rxLev: -107
arfcn: 617 rxLev: -107
$GPRMC,150415.000,A,4758.1039,N,00124.0362,W,0.00,111.15,231217,,,D*79
arfcn: 727 rxLev: -107
arfcn: 3 rxLev: -107
arfcn: 1 rxLev: -107
$GPGGA,150416.000,4758.1040,N,00124.0362,W,2,07,1.5,73.7,M,48.1,M,,0000*7C
arfcn: 114 rxLev: -107
$GPGSA,M,3,05,13,30,28,20,15,07,,,,,,3.0,1.5,2.6*32
arfcn: 112 rxLev: -107
arfcn: 113 rxLev: -107
$GPRMC,150416.000,A,4758.1040,N,00124.0362,W,0.00,111.15,231217,,,D*74
arfcn: 0 rxLev: -108
arfcn: 786 rxLev: -108
arfcn: 615 rxLev: -108
arfcn: 612 rxLev: -108
arfcn: 613 rxLev: -108
arfcn: 626 rxLev: -108
arfcn: 1012 rxLev: -108
arfcn: 1011 rxLev: -108
$GPGGA,150417.000,4758.1040,N,00124.0362,W,2,07,1.5,73.7,M,48.1,M,,0000*7D
$GPGSA,M,3,05,13,30,28,20,15,07,,,,,,3.0,1.5,2.6*32
arfcn: 1018 rxLev: -108
$GPRMC,150417.000,A,4758.1040,N,00124.0362,W,0.00,111.15,231217,,,D*75
arfcn: 1020 rxLev: -108
arfcn: 594 rxLev: -108
arfcn: 596 rxLev: -108
arfcn: 597 rxLev: -108
arfcn: 598 rxLev: -108
Network survey ended
Survey end at #CCLK: "17/12/23,16:04:17+04"
Survey duration: 53 seconds, 11 bases detected over 208 freqs scanned.
$GPGGA,150418.000,4758.1040,N,00124.0362,W,2,07,1.5,73.7,M,48.1,M,,0000*72
$GPGSA,M,3,05,13,30,28,20,15,07,,,,,,3.0,1.5,2.6*32
$GPRMC,150418.000,A,4758.1040,N,00124.0362,W,0.00,111.15,231217,,,D*7A
$GPGGA,150419.000,4758.1040,N,00124.0362,W,2,07,1.5,73.7,M,48.1,M,,0000*73
$GPGSA,M,3,05,13,30,28,20,15,07,,,,,,3.0,1.5,2.6*32
$GPRMC,150419.000,A,4758.1040,N,00124.0362,W,0.00,111.15,231217,,,D*7B
Survey start at #CCLK: "17/12/23,16:04:19+04"
at#csurv
Network survey started ...
$GPGGA,150420.000,4758.1040,N,00124.0362,W,2,07,1.5,73.7,M,48.1,M,3.0,0000*54
$GPGSA,M,3,05,13,30,28,20,15,07,,,,,,3.0,1.5,2.6*32
$GPGSV,3,1,12,05,64,203,31,13,58,292,40,30,54,060,35,28,40,117,36*70
$GPGSV,3,2,12,20,39,300,35,15,26,287,31,07,26,055,42,08,03,044,16*70
$GPGSV,3,3,12,21,12,317,18,36,26,138,40,04,12,225,,27,01,010,*7E
$GPRMC,150420.000,A,4758.1040,N,00124.0362,W,0.00,111.15,231217,,,D*71
$GPGGA,150421.000,4758.1040,N,00124.0363,W,2,07,1.5,73.7,M,48.1,M,,0000*79
$GPGSA,M,3,05,13,30,28,20,15,07,,,,,,3.0,1.5,2.6*32
$GPRMC,150421.000,A,4758.1040,N,00124.0363,W,0.00,111.15,231217,,,D*71
$GPGGA,150422.000,4758.1041,N,00124.0363,W,2,07,1.5,73.7,M,48.1,M,,0000*7B
$GPGSA,M,3,05,13,30,28,20,15,07,,,,,,3.0,1.5,2.6*32
$GPRMC,150422.000,A,4758.1041,N,00124.0363,W,0.00,111.15,231217,,,D*73
$GPGGA,150423.000,4758.1041,N,00124.0363,W,2,07,1.5,73.7,M,48.1,M,,0000*7A
$GPGSA,M,3,05,13,30,28,20,15,07,,,,,,3.0,1.5,2.6*32
$GPRMC,150423.000,A,4758.1041,N,00124.0363,W,0.00,111.15,231217,,,D*72
$GPGGA,150424.000,4758.1041,N,00124.0363,W,2,07,1.5,73.7,M,48.1,M,3.0,0000*50
$GPGSA,M,3,05,13,30,28,20,15,07,,,,,,3.0,1.5,2.6*32
$GPRMC,150424.000,A,4758.1041,N,00124.0363,W,0.00,111.15,231217,,,D*75
$GPGGA,150425.000,4758.1041,N,00124.0363,W,2,07,1.5,73.7,M,48.1,M,,0000*7C
$GPGSA,M,3,05,13,30,28,20,15,07,,,,,,3.0,1.5,2.6*32
$GPGSV,3,1,12,05,64,203,31,13,58,292,40,30,54,060,34,28,40,117,37*70
$GPGSV,3,2,12,20,39,300,36,15,26,287,31,07,26,055,42,08,03,044,16*73
$GPGSV,3,3,12,21,12,317,19,36,26,138,40,04,12,225,,27,01,010,*7F
$GPRMC,150425.000,A,4758.1041,N,00124.0363,W,0.00,111.15,231217,,,D*74
$GPGGA,150426.000,4758.1041,N,00124.0363,W,2,07,1.5,73.7,M,48.1,M,,0000*7F
$GPGSA,M,3,05,13,30,28,20,15,07,,,,,,3.0,1.5,2.6*32
$GPRMC,150426.000,A,4758.1041,N,00124.0363,W,0.00,111.15,231217,,,D*77
$GPGGA,150427.000,4758.1041,N,00124.0363,W,2,07,1.5,73.7,M,48.1,M,,0000*7E
$GPGSA,M,3,05,13,30,28,20,15,07,,,,,,3.0,1.5,2.6*32
$GPRMC,150427.000,A,4758.1041,N,00124.0363,W,0.00,111.15,231217,,,D*76
$GPGGA,150428.000,4758.1042,N,00124.0363,W,2,07,1.5,73.7,M,48.1,M,,0000*72
$GPGSA,M,3,05,13,30,28,20,15,07,,,,,,3.0,1.5,2.6*32
$GPRMC,150428.000,A,4758.1042,N,00124.0363,W,0.00,111.15,231217,,,D*7A
$GPGGA,150429.000,4758.1042,N,00124.0363,W,2,07,1.5,73.7,M,48.1,M,,0000*73
$GPGSA,M,3,05,13,30,28,20,15,07,,,,,,3.0,1.5,2.6*32
$GPRMC,150429.000,A,4758.1042,N,00124.0363,W,0.00,111.15,231217,,,D*7B
arfcn: 1022 bsic: 45 rxLev: -88 ber: 0.00 mcc: 208 mnc: 20 lac: 284 cellId: 38538 cellStatus: CELL_SUITABLE numArfcn: 1 arfcn: 1022 numChannels: 23 array: 788 876 881 884 975 976 979 980 981 982 984 986 987 1011 1012 1013 1014 1015 1017 1018 1020 1021 1022 pbcch: 0 nom: 2 rac: 6 spgc: 0 pat: 6 nco: 0 t3168: 1500 t3192: 500 drxmax: 0 ctrlAck: 0 bsCVmax: 8 alpha: 6 pcMeasCh: 1 
arfcn: 977 bsic: 33 rxLev: -90 ber: 50.00 mcc: 208 mnc: 20 lac: 413 cellId: 20368 cellStatus: CELL_SUITABLE numArfcn: 1 arfcn: 977 numChannels: 20 array: 975 976 979 980 982 983 984 985 986 987 1011 1013 1014 1015 1018 1019 1021 1022 880 884 pbcch: 0 nom: 2 rac: 1 spgc: 0 pat: 6 nco: 0 t3168: 1500 t3192: 500 drxmax: 0 ctrlAck: 0 bsCVmax: 8 alpha: 6 pcMeasCh: 1 
arfcn: 124 rxLev: -92
$GPGGA,150430.000,4758.1042,N,00124.0363,W,2,07,1.5,73.7,M,48.1,M,,0000*7B
$GPGSA,M,3,05,13,30,28,20,15,07,,,,,,3.0,1.5,2.6*32
$GPGSV,3,1,12,05,64,203,30,13,58,292,39,30,54,060,34,28,40,117,37*7F
$GPGSV,3,2,12,20,39,300,36,15,26,287,32,07,26,055,42,08,03,044,14*72
$GPGSV,3,3,12,21,12,317,19,36,26,138,40,04,12,225,,27,01,010,*7F
$GPRMC,150430.000,A,4758.1042,N,00124.0363,W,0.00,111.15,231217,,,D*73
$GPGGA,150431.000,4758.1042,N,00124.0363,W,2,07,1.5,73.7,M,48.1,M,,0000*7A
$GPGSA,M,3,05,13,30,28,20,15,07,,,,,,3.0,1.5,2.6*32
$GPRMC,150431.000,A,4758.1042,N,00124.0363,W,0.00,111.15,231217,,,D*72
arfcn: 82 bsic: 4 rxLev: -92 ber: 0.00 mcc: 208 mnc: 10 lac: 6001 cellId: 13590 cellStatus: CELL_FORBIDDEN numArfcn: 3 arfcn: 78 80 82 numChannels: 13 array: 77 79 81 83 85 86 87 113 115 117 118 119 124 pbcch: 0 nom: 2 rac: 61 spgc: 0 pat: 6 nco: 0 t3168: 1000 t3192: 500 drxmax: 2 ctrlAck: 0 bsCVmax: 9 alpha: 7 pcMeasCh: 1 
$GPGGA,150432.000,4758.1042,N,00124.0363,W,2,07,1.5,73.7,M,48.1,M,3.0,0000*54
$GPGSA,M,3,05,13,30,28,20,15,07,,,,,,3.0,1.5,2.6*32
$GPRMC,150432.000,A,4758.1042,N,00124.0363,W,0.00,111.15,231217,,,D*71
$GPGGA,150433.000,4758.1042,N,00124.0363,W,2,07,1.5,73.7,M,48.1,M,2.0,0000*54
arfcn: 81 bsic: 11 rxLev: -93 ber: 0.04 mcc: 208 mnc: 10 lac: 6001 cellId: 49645 cellStatus: CELL_FORBIDDEN numArfcn: 2 arfcn: 81 83 numChannels: 17 array: 77 78 79 80 82 83 85 86 87 113 114 115 117 118 120 122 124 pbcch: 0 nom: 2 rac: 61 spgc: 0 pat: 6 nco: 0 t3168: 1000 t3192: 500 drxmax: 2 ctrlAck: 0 bsCVmax: 9 alpha: 7 pcMeasCh: 1 
arfcn: 67 rxLev: -93
$GPGSA,M,3,05,13,30,28,20,15,07,,,,,,3.0,1.5,2.6*32
$GPRMC,150433.000,A,4758.1042,N,00124.0363,W,0.00,111.15,231217,,,D*70
$GPGGA,150434.000,4758.1043,N,00124.0363,W,2,07,1.5,73.7,M,48.1,M,2.0,0000*52
$GPGSA,M,3,05,13,30,28,20,15,07,,,,,,3.0,1.5,2.6*32
$GPRMC,150434.000,A,4758.1043,N,00124.0363,W,0.00,111.15,231217,,,D*76
$GPGGA,150435.000,4758.1043,N,00124.0363,W,2,07,1.5,73.7,M,48.1,M,2.0,0000*53
$GPGSA,M,3,05,13,30,28,20,15,07,,,,,,3.0,1.5,2.6*32
$GPGSV,3,1,12,05,64,203,29,13,58,292,39,30,54,060,35,28,40,117,37*76
$GPGSV,3,2,12,20,39,300,36,15,26,287,32,07,26,055,42,08,03,044,04*73
$GPGSV,3,3,12,21,12,317,19,36,26,138,40,04,12,225,,27,01,010,*7F
$GPRMC,150435.000,A,4758.1043,N,00124.0363,W,0.00,111.15,231217,,,D*77
arfcn: 975 bsic: 60 rxLev: -93 ber: 0.01 mcc: 208 mnc: 20 lac: 413 cellId: 20247 cellStatus: CELL_SUITABLE numArfcn: 1 arfcn: 975 numChannels: 20 array: 977 978 979 980 981 982 983 984 985 987 1011 1013 1014 1015 1017 1018 1019 1020 1021 1022 pbcch: 0 nom: 2 rac: 1 spgc: 0 pat: 6 nco: 0 t3168: 1500 t3192: 500 drxmax: 0 ctrlAck: 0 bsCVmax: 8 alpha: 6 pcMeasCh: 1 
$GPGGA,150436.000,4758.1043,N,00124.0363,W,2,07,1.5,73.7,M,48.1,M,3.0,0000*51
$GPGSA,M,3,05,13,30,28,20,15,07,,,,,,3.0,1.5,2.6*32
$GPRMC,150436.000,A,4758.1043,N,00124.0363,W,0.00,111.15,231217,,,D*74
$GPGGA,150437.000,4758.1043,N,00124.0363,W,2,07,1.5,73.7,M,48.1,M,2.0,0000*51
$GPGSA,M,3,05,13,30,28,20,15,07,,,,,,3.0,1.5,2.6*32
$GPRMC,150437.000,A,4758.1043,N,00124.0363,W,0.00,111.15,231217,,,D*75
$GPGGA,150438.000,4758.1043,N,00124.0363,W,2,07,1.5,73.7,M,48.1,M,2.0,0000*5E
$GPGSA,M,3,05,13,30,28,20,15,07,,,,,,3.0,1.5,2.6*32
$GPRMC,150438.000,A,4758.1043,N,00124.0363,W,0.00,111.15,231217,,,D*7A
$GPGGA,150439.000,4758.1043,N,00124.0363,W,2,07,1.5,73.7,M,48.1,M,,0000*73
$GPGSA,M,3,05,13,30,28,20,15,07,,,,,,3.0,1.5,2.6*32
$GPRMC,150439.000,A,4758.1043,N,00124.0363,W,0.00,111.15,231217,,,D*7B
arfcn: 79 bsic: 56 rxLev: -95 ber: 0.04 mcc: 208 mnc: 10 lac: 30514 cellId: 20244 cellStatus: CELL_FORBIDDEN numArfcn: 1 arfcn: 79 numChannels: 19 array: 76 77 78 79 81 82 83 85 86 87 113 114 115 117 118 119 121 122 124 pbcch: 0 nom: 2 rac: 1 spgc: 0 pat: 6 nco: 0 t3168: 1500 t3192: 500 drxmax: 0 ctrlAck: 0 bsCVmax: 8 alpha: 6 pcMeasCh: 1 
arfcn: 66 rxLev: -96
arfcn: 978 rxLev: -96
arfcn: 123 rxLev: -96
arfcn: 68 rxLev: -96
$GPGGA,150440.000,4758.1043,N,00124.0363,W,2,07,1.5,73.7,M,48.1,M,3.0,0000*50
$GPGSA,M,3,05,13,30,28,20,15,07,,,,,,3.0,1.5,2.6*32
$GPGSV,3,1,12,05,64,203,29,13,58,292,38,30,54,060,35,28,40,117,37*77
$GPGSV,3,2,12,20,39,300,36,15,26,287,32,07,26,055,42,02,00,207,12*78
$GPGSV,3,3,12,08,03,044,13,21,12,317,19,36,26,138,40,04,12,225,*73
$GPRMC,150440.000,A,4758.1043,N,00124.0363,W,0.00,111.15,231217,,,D*75
$GPGGA,150441.000,4758.1044,N,00124.0364,W,2,07,1.5,73.7,M,48.1,M,,0000*7C
$GPGSA,M,3,05,13,30,28,20,15,07,,,,,,3.0,1.5,2.6*32
$GPRMC,150441.000,A,4758.1044,N,00124.0364,W,0.00,111.15,231217,,,D*74
$GPGGA,150442.000,4758.1044,N,00124.0364,W,2,07,1.5,73.7,M,48.1,M,,0000*7F
arfcn: 11 bsic: 30 rxLev: -96 ber: 0.00 mcc: 208 mnc: 01 lac: 10300 cellId: 12921 cellStatus: CELL_FORBIDDEN numArfcn: 13 arfcn: 11 17 18 19 20 21 22 23 24 25 47 48 49 numChannels: 13 array: 1 2 3 4 5 6 7 9 11 12 13 14 15 pbcch: 0 nom: 2 rac: 1 spgc: 1 pat: 6 nco: 0 t3168: 1000 t3192: 500 drxmax: 4 ctrlAck: 1 bsCVmax: 9 alpha: 7 pcMeasCh: 0 
arfcn: 63 rxLev: -96
$GPGSA,M,3,05,13,30,28,20,15,07,,,,,,3.0,1.5,2.6*32
arfcn: 609 rxLev: -97
arfcn: 979 rxLev: -98
$GPRMC,150442.000,A,4758.1044,N,00124.0364,W,0.00,111.15,231217,,,D*77
arfcn: 982 rxLev: -98
arfcn: 93 rxLev: -98
arfcn: 95 rxLev: -98
arfcn: 115 rxLev: -98
arfcn: 120 rxLev: -99
arfcn: 976 rxLev: -99
$GPGGA,150443.000,4758.1044,N,00124.0364,W,2,07,1.5,73.6,M,48.1,M,,0000*7F
arfcn: 97 rxLev: -99
arfcn: 98 rxLev: -99
$GPGSA,M,3,05,13,30,28,20,15,07,,,,,,3.0,1.5,2.6*32
arfcn: 94 rxLev: -99
arfcn: 75 rxLev: -99
$GPRMC,150443.000,A,4758.1044,N,00124.0364,W,0.00,111.15,231217,,,D*76
arfcn: 64 rxLev: -99
arfcn: 8 rxLev: -99
arfcn: 96 rxLev: -99
arfcn: 92 rxLev: -99
arfcn: 99 rxLev: -99
arfcn: 983 rxLev: -99
arfcn: 981 rxLev: -100
arfcn: 980 rxLev: -100
$GPGGA,150444.000,4758.1044,N,00124.0364,W,2,07,1.5,73.6,M,48.1,M,,0000*78
arfcn: 606 rxLev: -100
arfcn: 111 rxLev: -100
$GPGSA,M,3,05,13,30,28,20,15,07,,,,,,3.0,1.5,2.6*32
arfcn: 73 rxLev: -100
arfcn: 78 rxLev: -100
$GPRMC,150444.000,A,4758.1044,N,00124.0364,W,0.00,111.15,231217,,,D*71
arfcn: 65 rxLev: -100
arfcn: 69 rxLev: -100
arfcn: 74 rxLev: -100
arfcn: 100 rxLev: -100
arfcn: 122 rxLev: -100
$GPGGA,150445.000,4758.1044,N,00124.0364,W,2,07,1.5,73.6,M,48.1,M,,0000*79
$GPGSA,M,3,05,13,30,28,20,15,07,,,,,,3.0,1.5,2.6*32
$GPGSV,3,1,12,05,64,203,29,13,58,292,39,30,54,060,36,28,40,117,37*75
$GPGSV,3,2,12,20,39,300,36,15,26,287,32,07,26,055,42,02,00,207,13*79
$GPGSV,3,3,12,08,03,044,13,21,12,317,18,36,26,138,40,04,12,225,*72
$GPRMC,150445.000,A,4758.1044,N,00124.0364,W,0.00,111.15,231217,,,D*70
$GPGGA,150446.000,4758.1044,N,00124.0364,W,2,07,1.5,73.6,M,48.1,M,,0000*7A
$GPGSA,M,3,05,13,30,28,20,15,07,,,,,,3.0,1.5,2.6*32
$GPRMC,150446.000,A,4758.1044,N,00124.0364,W,0.00,111.15,231217,,,D*73
$GPGGA,150447.000,4758.1044,N,00124.0364,W,2,07,1.5,73.6,M,48.1,M,,0000*7B
$GPGSA,M,3,05,13,30,28,20,15,07,,,,,,3.0,1.5,2.6*32
$GPRMC,150447.000,A,4758.1044,N,00124.0364,W,0.00,111.15,231217,,,D*72
arfcn: 5 bsic: 43 rxLev: -100 ber: 8.10 mcc: FFF mnc: FF lac: 65535 cellId: 0 cellStatus: CELL_OTHER numArfcn: 0 arfcn: numChannels: 14 array: 1 2 3 4 5 6 7 8 9 11 12 13 14 15
$GPGGA,150448.000,4758.1044,N,00124.0364,W,2,07,1.5,73.6,M,48.1,M,,0000*74
$GPGSA,M,3,05,13,30,28,20,15,07,,,,,,3.0,1.5,2.6*32
$GPRMC,150448.000,A,4758.1044,N,00124.0364,W,0.00,111.15,231217,,,D*7D
$GPGGA,150449.000,4758.1044,N,00124.0364,W,2,07,1.5,73.6,M,48.1,M,,0000*75
$GPGSA,M,3,05,13,30,28,20,15,07,,,,,,3.0,1.5,2.6*32
$GPRMC,150449.000,A,4758.1044,N,00124.0364,W,0.00,111.15,231217,,,D*7C
$GPGGA,150450.000,4758.1045,N,00124.0364,W,2,07,1.5,73.6,M,48.1,M,,0000*7C
$GPGSA,M,3,05,13,30,28,20,15,07,,,,,,3.0,1.5,2.6*32
$GPGSV,3,1,12,05,64,203,30,13,58,292,39,30,54,060,36,28,40,117,37*7D
$GPGSV,3,2,12,20,39,300,36,15,26,287,31,07,26,055,42,02,00,207,12*7B
$GPGSV,3,3,12,21,12,317,16,36,26,138,40,04,12,225,,08,03,044,*7E
$GPRMC,150450.000,A,4758.1045,N,00124.0364,W,0.00,111.15,231217,,,D*75
$GPGGA,150451.000,4758.1045,N,00124.0364,W,2,07,1.5,73.6,M,48.1,M,,0000*7D
$GPGSA,M,3,05,13,30,28,20,15,07,,,,,,3.0,1.5,2.6*32
$GPRMC,150451.000,A,4758.1045,N,00124.0364,W,0.00,111.15,231217,,,D*74
$GPGGA,150452.000,4758.1045,N,00124.0364,W,2,07,1.5,73.5,M,48.1,M,3.0,0000*50
$GPGSA,M,3,05,13,30,28,20,15,07,,,,,,3.0,1.5,2.6*32
$GPRMC,150452.000,A,4758.1045,N,00124.0364,W,0.00,111.15,231217,,,D*77
arfcn: 13 bsic: 59 rxLev: -100 ber: 4.09 mcc: 208 mnc: 01 lac: 10300 cellId: 1558 cellStatus: CELL_FORBIDDEN numArfcn: 13 arfcn: 13 17 18 19 20 21 22 23 24 25 47 48 49 numChannels: 14 array: 1 2 3 4 5 6 7 9 11 12 13 14 15 16 pbcch: 0 nom: 2 rac: 1 spgc: 1 pat: 6 nco: 0 t3168: 1000 t3192: 500 drxmax: 4 ctrlAck: 1 bsCVmax: 9 alpha: 7 pcMeasCh: 0 
arfcn: 729 rxLev: -100
$GPGGA,150453.000,4758.1045,N,00124.0364,W,2,07,1.5,73.5,M,48.1,M,2.0,0000*50
arfcn: 849 rxLev: -100
$GPGSA,M,3,05,13,30,28,20,15,07,,,,,,3.0,1.5,2.6*32
$GPRMC,150453.000,A,4758.1045,N,00124.0364,W,0.00,111.15,231217,,,D*76
$GPGGA,150454.000,4758.1045,N,00124.0364,W,2,07,1.5,73.5,M,48.1,M,2.0,0000*57
$GPGSA,M,3,05,13,30,28,20,15,07,,,,,,3.0,1.5,2.6*32
$GPRMC,150454.000,A,4758.1045,N,00124.0364,W,0.00,111.15,231217,,,D*71
arfcn: 14 bsic: 40 rxLev: -101 ber: 14.07 mcc: FFF mnc: FF lac: 65535 cellId: 0 cellStatus: CELL_OTHER numArfcn: 13 arfcn: 14 17 18 19 20 21 22 23 24 25 47 48 49 numChannels: 0 array:
arfcn: 61 rxLev: -101
arfcn: 60 rxLev: -101
$GPGGA,150455.000,4758.1045,N,00124.0364,W,2,07,1.5,73.5,M,48.1,M,2.0,0000*56
arfcn: 121 rxLev: -101
$GPGSA,M,3,05,13,30,28,20,15,07,,,,,,3.0,1.5,2.6*32
arfcn: 101 rxLev: -101
$GPGSV,3,1,12,05,64,203,31,13,58,292,39,30,54,060,36,28,40,117,37*7C
arfcn: 80 rxLev: -101
arfcn: 77 rxLev: -101
$GPGSV,3,2,12,20,39,300,36,15,26,287,31,07,26,055,42,21,12,317,14*7F
arfcn: 83 rxLev: -101
$GPGSV,3,3,12,36,26,138,40,04,12,225,,08,03,044,,27,01,010,*79
arfcn: 62 rxLev: -101
$GPRMC,150455.000,A,4758.1045,N,00124.0364,W,0.00,111.15,231217,,,D*70
arfcn: 12 rxLev: -101
arfcn: 9 rxLev: -101
arfcn: 15 rxLev: -102
$GPGGA,150456.000,4758.1045,N,00124.0364,W,2,07,1.5,73.5,M,48.1,M,3.0,0000*54
arfcn: 7 rxLev: -102
$GPGSA,M,3,05,13,30,28,20,15,07,,,,,,3.0,1.5,2.6*32
arfcn: 59 rxLev: -102
$GPRMC,150456.000,A,4758.1045,N,00124.0364,W,0.00,111.15,231217,,,D*73
arfcn: 58 rxLev: -102
arfcn: 86 rxLev: -102
arfcn: 91 rxLev: -102
$GPGGA,150457.000,4758.1045,N,00124.0365,W,2,07,1.5,73.5,M,48.1,M,2.0,0000*55
$GPGSA,M,3,05,13,30,28,20,15,07,,,,,,3.0,1.5,2.6*32
$GPRMC,150457.000,A,4758.1045,N,00124.0365,W,0.00,111.15,231217,,,D*73
$GPGGA,150458.000,4758.1045,N,00124.0365,W,2,07,1.5,73.5,M,48.1,M,2.0,0000*5A
$GPGSA,M,3,05,13,30,28,20,15,07,,,,,,3.0,1.5,2.6*32
$GPRMC,150458.000,A,4758.1045,N,00124.0365,W,0.00,111.15,231217,,,D*7C
$GPGGA,150459.000,4758.1045,N,00124.0365,W,2,07,1.5,73.4,M,48.1,M,2.0,0000*5A
$GPGSA,M,3,05,13,30,28,20,15,07,,,,,,3.0,1.5,2.6*32
arfcn: 1017 bsic: 9 rxLev: -102 ber: 0.10 mcc: 208 mnc: 20 lac: 284 cellId: 22570 cellStatus: CELL_SUITABLE numArfcn: 1 arfcn: 1017 numChannels: 20 array: 787 789 881 885 975 978 980 981 982 983 985 987 1011 1014 1015 1016 1018 1020 1021 1022 pbcch: 0 nom: 2 rac: 6 spgc: 0 pat: 6 nco: 0 t3168: 1500 t3192: 500 drxmax: 0 ctrlAck: 0 bsCVmax: 8 alpha: 6 pcMeasCh: 1 
arfcn: 993 rxLev: -102
arfcn: 994 rxLev: -102
$GPRMC,150459.000,A,4758.1045,N,00124.0365,W,0.00,111.15,231217,,,D*7D
arfcn: 991 rxLev: -102
arfcn: 992 rxLev: -102
arfcn: 990 rxLev: -102
arfcn: 996 rxLev: -102
arfcn: 102 rxLev: -102
arfcn: 118 rxLev: -102
arfcn: 44 rxLev: -102
$GPGGA,150500.000,4758.1046,N,00124.0365,W,2,07,1.5,73.4,M,48.1,M,3.0,0000*55
arfcn: 2 rxLev: -102
$GPGSA,M,3,05,13,30,28,20,15,07,,,,,,3.0,1.5,2.6*32
arfcn: 4 rxLev: -103
$GPGSV,3,1,12,05,64,203,33,13,58,292,38,30,54,060,36,28,40,117,36*7E
arfcn: 17 rxLev: -103
arfcn: 32 rxLev: -103
$GPGSV,3,2,12,20,39,300,37,15,26,287,30,07,26,055,42,21,12,317,13*78
arfcn: 43 rxLev: -103
arfcn: 55 rxLev: -103
$GPGSV,3,3,12,36,26,138,40,04,12,225,,08,03,044,,27,01,010,*79
arfcn: 119 rxLev: -103
arfcn: 103 rxLev: -103
$GPRMC,150500.000,A,4758.1046,N,00124.0365,W,0.00,111.15,231217,,,D*73
arfcn: 89 rxLev: -103
arfcn: 90 rxLev: -103
arfcn: 70 rxLev: -103
$GPGGA,150501.000,4758.1046,N,00124.0365,W,2,07,1.5,73.4,M,48.1,M,2.0,0000*55
arfcn: 71 rxLev: -103
$GPGSA,M,3,05,13,30,28,20,15,07,,,,,,3.0,1.5,2.6*32
arfcn: 72 rxLev: -103
arfcn: 995 rxLev: -103
$GPRMC,150501.000,A,4758.1046,N,00124.0365,W,0.00,111.15,231217,,,D*72
arfcn: 1000 rxLev: -103
arfcn: 1001 rxLev: -103
arfcn: 1002 rxLev: -103
arfcn: 1004 rxLev: -103
arfcn: 987 rxLev: -103
arfcn: 611 rxLev: -103
arfcn: 988 rxLev: -103
$GPGGA,150502.000,4758.1046,N,00124.0365,W,2,07,1.5,73.4,M,48.1,M,2.0,0000*56
arfcn: 989 rxLev: -103
$GPGSA,M,3,05,13,30,28,20,15,07,,,,,,3.0,1.5,2.6*32
arfcn: 1005 rxLev: -103
arfcn: 1006 rxLev: -103
$GPRMC,150502.000,A,4758.1046,N,00124.0365,W,0.00,111.15,231217,,,D*71
arfcn: 997 rxLev: -103
arfcn: 1021 rxLev: -103
arfcn: 76 rxLev: -103
arfcn: 87 rxLev: -103
arfcn: 107 rxLev: -103
arfcn: 56 rxLev: -103
arfcn: 57 rxLev: -103
$GPGGA,150503.000,4758.1046,N,00124.0365,W,2,07,1.5,73.4,M,48.1,M,2.0,0000*57
arfcn: 41 rxLev: -103
arfcn: 42 rxLev: -103
$GPGSA,M,3,05,13,30,28,20,15,07,,,,,,3.0,1.5,2.6*32
arfcn: 45 rxLev: -103
$GPRMC,150503.000,A,4758.1046,N,00124.0365,W,0.00,111.15,231217,,,D*70
arfcn: 33 rxLev: -103
arfcn: 38 rxLev: -103
arfcn: 39 rxLev: -103
arfcn: 40 rxLev: -103
arfcn: 28 rxLev: -103
arfcn: 22 rxLev: -103
arfcn: 30 rxLev: -104
arfcn: 34 rxLev: -104
$GPGGA,150504.000,4758.1046,N,00124.0365,W,2,07,1.5,73.4,M,48.1,M,3.0,0000*51
arfcn: 36 rxLev: -104
$GPGSA,M,3,05,13,30,28,20,15,07,,,,,,3.0,1.5,2.6*32
arfcn: 53 rxLev: -104
arfcn: 106 rxLev: -104
$GPRMC,150504.000,A,4758.1046,N,00124.0365,W,0.00,111.15,231217,,,D*77
arfcn: 109 rxLev: -104
arfcn: 88 rxLev: -104
arfcn: 1023 rxLev: -104
arfcn: 607 rxLev: -104
arfcn: 998 rxLev: -104
arfcn: 999 rxLev: -104
arfcn: 1003 rxLev: -104
arfcn: 1007 rxLev: -104
arfcn: 984 rxLev: -104
$GPGGA,150505.000,4758.1046,N,00124.0365,W,2,07,1.5,73.4,M,48.1,M,2.0,0000*51
arfcn: 985 rxLev: -104
arfcn: 986 rxLev: -104
$GPGSA,M,3,05,13,30,28,20,15,07,,,,,,3.0,1.5,2.6*32
arfcn: 1008 rxLev: -104
arfcn: 546 rxLev: -104
$GPGSV,3,1,12,05,64,203,33,13,58,292,38,30,54,060,35,28,40,117,36*7D
arfcn: 84 rxLev: -104
arfcn: 105 rxLev: -104
$GPGSV,3,2,12,20,39,300,37,15,26,287,30,07,26,055,42,21,12,317,14*7F
arfcn: 108 rxLev: -104
$GPGSV,3,3,12,36,26,138,40,04,12,225,,08,03,044,,27,01,010,*79
arfcn: 54 rxLev: -104
arfcn: 37 rxLev: -104
$GPRMC,150505.000,A,4758.1046,N,00124.0365,W,0.00,111.15,231217,,,D*76
arfcn: 29 rxLev: -104
arfcn: 31 rxLev: -104
$GPGGA,150506.000,4758.1046,N,00124.0365,W,2,07,1.5,73.4,M,48.1,M,2.0,0000*52
arfcn: 19 rxLev: -104
$GPGSA,M,3,05,13,30,28,20,15,07,,,,,,3.0,1.5,2.6*32
arfcn: 18 rxLev: -105
arfcn: 27 rxLev: -105
$GPRMC,150506.000,A,4758.1046,N,00124.0365,W,0.00,111.15,231217,,,D*75
arfcn: 6 rxLev: -105
arfcn: 16 rxLev: -105
arfcn: 35 rxLev: -105
arfcn: 51 rxLev: -105
arfcn: 52 rxLev: -105
arfcn: 104 rxLev: -105
arfcn: 117 rxLev: -105
arfcn: 608 rxLev: -105
