$GPGSA,M,3,07,09,02,23,16,,,,,,,,3.9,2.4,3.1*3A
$GPRMC,092550.000,A,4806.8932,N,00139.4550,W,1.06,320.23,060218,,,A*78
Survey start at #CCLK: "18/02/06,10:25:51+04"
at#csurv
Network survey started ...
Survey end at #CCLK: "18/02/06,10:25:51+04"
Survey duration: 0 seconds, 0 bases detected over 0 freqs scanned.
$GPGGA,092551.000,4806.8930,N,00139.4539,W,1,05,2.4,-1.7,M,48.3,M,,0000*6B
$GPGSA,M,3,07,09,02,23,16,,,,,,,,3.9,2.4,3.1*3A
$GPRMC,092551.000,A,4806.8930,N,00139.4539,W,0.73,320.23,060218,,,A*77
$GPGGA,092552.000,4806.8933,N,00139.4524,W,1,05,2.4,-0.6,M,48.3,M,,0000*67
$GPGSA,M,3,07,09,02,23,16,,,,,,,,3.9,2.4,3.1*3A
$GPRMC,092552.000,A,4806.8933,N,00139.4524,W,0.92,320.23,060218,,,A*74
$GPGGA,092553.000,4806.8931,N,00139.4513,W,1,05,2.4,-0.6,M,48.3,M,,0000*60
$GPGSA,M,3,07,09,02,23,16,,,,,,,,3.9,2.4,3.1*3A
$GPGSV,3,1,12,07,58,138,18,09,57,062,24,02,49,265,17,23,21,068,20*7E
$GPGSV,3,2,12,16,11,042,12,39,31,144,,06,43,204,,30,40,172,*74
$GPGSV,3,3,12,04,37,298,,05,31,298,,29,08,324,,26,01,016,*79
$GPRMC,092553.000,A,4806.8931,N,00139.4513,W,0.56,320.23,060218,,,A*7B
$GPGGA,092554.000,4806.8928,N,00139.4507,W,1,05,2.4,-0.4,M,48.3,M,,0000*68
$GPGSA,M,3,07,09,02,23,16,,,,,,,,3.9,2.4,3.1*3A
$GPRMC,092554.000,A,4806.8928,N,00139.4507,W,0.26,320.23,060218,,,A*76
Survey start at #CCLK: "18/02/06,10:25:55+04"
at#csurv
Network survey started ...
$GPGGA,092555.000,4806.8925,N,00139.4499,W,1,05,2.4,1.0,M,48.3,M,,0000*4A
$GPGSA,M,3,07,09,02,23,16,,,,,,,,3.9,2.4,3.1*3A
$GPRMC,092555.000,A,4806.8925,N,00139.4499,W,0.45,320.23,060218,,,A*79
$GPGGA,092556.000,4806.8924,N,00139.4486,W,1,05,2.4,3.2,M,48.3,M,,0000*46
$GPGSA,M,3,07,09,02,23,16,,,,,,,,3.9,2.4,3.1*3A
$GPRMC,092556.000,A,4806.8924,N,00139.4486,W,0.61,320.23,060218,,,A*73
$GPGGA,092557.000,4806.8918,N,00139.4478,W,1,05,2.4,3.2,M,48.3,M,,0000*49
$GPGSA,M,3,07,09,02,23,16,,,,,,,,3.9,2.4,3.1*3A
$GPRMC,092557.000,A,4806.8918,N,00139.4478,W,0.93,320.23,060218,,,A*71
$GPGGA,092558.000,4806.8916,N,00139.4470,W,1,05,2.4,3.4,M,48.3,M,,0000*46
$GPGSA,M,3,07,09,02,23,16,,,,,,,,3.9,2.4,3.1*3A
$GPGSV,3,1,12,07,58,138,17,09,57,062,24,02,49,265,17,23,21,068,21*70
$GPGSV,3,2,12,16,11,042,13,39,31,144,,06,43,204,,30,40,172,*75
$GPGSV,3,3,12,04,37,298,,05,31,298,,29,08,324,,26,01,016,*79
$GPRMC,092558.000,A,4806.8916,N,00139.4470,W,0.80,320.23,060218,,,A*7A
$GPGGA,092559.000,4806.8921,N,00139.4467,W,1,05,2.4,3.6,M,48.3,M,,0000*47
$GPGSA,M,3,07,09,02,23,16,,,,,,,,3.9,2.4,3.1*3A
$GPRMC,092559.000,A,4806.8921,N,00139.4467,W,0.42,320.23,060218,,,A*77
$GPGGA,092600.000,4806.8920,N,00139.4458,W,1,05,2.4,3.8,M,48.3,M,,0000*4B
$GPGSA,M,3,07,09,02,23,16,,,,,,,,3.9,2.4,3.1*3A
$GPRMC,092600.000,A,4806.8920,N,00139.4458,W,0.51,320.23,060218,,,A*77
arfcn: 981 bsic: 46 rxLev: -45 ber: 0.00 mcc: 208 mnc: 20 lac: 418 cellId: 21807 cellStatus: CELL_SUITABLE numArfcn: 1 arfcn: 981 numChannels: 16 array: 979 982 983 985 1012 1014 1017 1019 1020 787 790 791 793 796 882 884 pbcch: 0 nom: 2 rac: 6 spgc: 0 pat: 6 nco: 0 t3168: 1500 t3192: 500 drxmax: 0 ctrlAck: 0 bsCVmax: 8 alpha: 6 pcMeasCh: 1 
$GPGGA,092601.000,4806.8921,N,00139.4447,W,1,05,2.4,4.3,M,48.3,M,,0000*49
$GPGSA,M,3,07,09,02,23,16,,,,,,,,3.9,2.4,3.1*3A
$GPRMC,092601.000,A,4806.8921,N,00139.4447,W,0.76,320.23,060218,,,A*7C
$GPGGA,092602.000,4806.8922,N,00139.4440,W,1,05,2.4,4.9,M,48.3,M,,0000*44
$GPGSA,M,3,07,09,02,23,16,,,,,,,,3.9,2.4,3.1*3A
$GPRMC,092602.000,A,4806.8922,N,00139.4440,W,0.94,320.23,060218,,,A*77
$GPGGA,092603.000,4806.8923,N,00139.4436,W,1,05,2.4,5.4,M,48.3,M,,0000*49
$GPGSA,M,3,07,09,02,23,16,,,,,,,,3.9,2.4,3.1*3A
$GPGSV,3,1,12,07,58,138,16,09,57,062,24,02,49,265,17,23,21,068,21*71
$GPGSV,3,2,12,16,11,042,14,26,01,016,11,39,31,144,,06,43,204,*73
$GPGSV,3,3,12,30,40,172,,04,37,298,,05,31,298,,29,08,324,*78
$GPRMC,092603.000,A,4806.8923,N,00139.4436,W,0.66,320.23,060218,,,A*7B
$GPGGA,092604.000,4806.8925,N,00139.4432,W,1,05,2.4,5.9,M,48.3,M,,0000*41
$GPGSA,M,3,07,09,02,23,16,,,,,,,,3.9,2.4,3.1*3A
$GPRMC,092604.000,A,4806.8925,N,00139.4432,W,0.91,320.23,060218,,,A*76
$GPGGA,092605.000,4806.8921,N,00139.4421,W,1,05,2.4,6.3,M,48.3,M,,0000*4F
$GPGSA,M,3,07,09,02,23,16,,,,,,,,3.9,2.4,3.1*3A
$GPRMC,092605.000,A,4806.8921,N,00139.4421,W,1.12,320.23,060218,,,A*7B
$GPGGA,092606.000,4806.8921,N,00139.4413,W,1,05,2.4,6.8,M,48.3,M,,0000*46
$GPGSA,M,3,07,09,02,23,16,,,,,,,,3.9,2.4,3.1*3A
$GPRMC,092606.000,A,4806.8921,N,00139.4413,W,0.95,320.23,060218,,,A*77
$GPGGA,092607.000,4806.8920,N,00139.4403,W,1,05,2.4,6.8,M,48.3,M,,0000*47
$GPGSA,M,3,07,09,02,23,16,,,,,,,,3.9,2.4,3.1*3A
$GPRMC,092607.000,A,4806.8920,N,00139.4403,W,0.98,320.23,060218,,,A*7B
Survey end at #CCLK: "18/02/06,10:26:08+04"
Survey duration: 13 seconds, 1 bases detected over 1 freqs scanned.
$GPGGA,092608.000,4806.8916,N,00139.4396,W,1,05,2.4,6.4,M,48.3,M,,0000*4A
$GPGSA,M,3,07,09,02,23,16,,,,,,,,3.9,2.4,3.1*3A
$GPGSV,3,1,12,07,58,138,16,09,57,062,24,02,49,265,17,23,21,068,21*71
$GPGSV,3,2,12,16,11,042,15,05,31,298,,26,01,016,12,39,31,144,*72
$GPGSV,3,3,12,06,43,204,,30,40,172,,04,37,298,,29,08,324,*7B
$GPRMC,092608.000,A,4806.8916,N,00139.4396,W,0.43,320.23,060218,,,A*7C
$GPGGA,092609.000,4806.8912,N,00139.4394,W,1,05,2.4,6.1,M,48.3,M,,0000*48
Survey start at #CCLK: "18/02/06,10:26:09+04"
$GPGSA,M,3,07,09,02,23,16,,,,,,,,3.9,2.4,3.1*3A
at#csurv
Network survey started ...
$GPRMC,092609.000,A,4806.8912,N,00139.4394,W,0.17,320.23,060218,,,A*7A
$GPGGA,092610.000,4806.8910,N,00139.4395,W,1,05,2.4,6.1,M,48.3,M,,0000*43
$GPGSA,M,3,07,09,02,23,16,,,,,,,,3.9,2.4,3.1*3A
$GPRMC,092610.000,A,4806.8910,N,00139.4395,W,0.38,320.23,060218,,,A*7C
$GPGGA,092611.000,4806.8910,N,00139.4396,W,1,05,2.4,6.2,M,48.3,M,,0000*42
$GPGSA,M,3,07,09,02,23,16,,,,,,,,3.9,2.4,3.1*3A
$GPRMC,092611.000,A,4806.8910,N,00139.4396,W,0.98,320.23,060218,,,A*74
$GPGGA,092612.000,4806.8909,N,00139.4396,W,1,05,2.4,6.3,M,48.3,M,,0000*48
$GPGSA,M,3,07,09,02,23,16,,,,,,,,3.9,2.4,3.1*3A
$GPRMC,092612.000,A,4806.8909,N,00139.4396,W,0.89,320.23,060218,,,A*7F
$GPGGA,092613.000,4806.8908,N,00139.4392,W,1,05,2.4,6.4,M,48.3,M,,0000*4B
$GPGSA,M,3,07,09,02,23,16,,,,,,,,3.9,2.4,3.1*3A
$GPGSV,3,1,12,07,58,138,16,09,57,062,24,02,49,265,18,23,21,068,22*7D
$GPGSV,3,2,12,16,11,042,15,05,31,298,04,26,01,016,12,39,31,144,*76
$GPGSV,3,3,12,06,43,204,,30,40,172,,04,37,298,,29,08,324,*7B
$GPRMC,092613.000,A,4806.8908,N,00139.4392,W,1.06,320.23,060218,,,A*7D
$GPGGA,092614.000,4806.8906,N,00139.4393,W,1,05,2.4,6.7,M,48.3,M,,0000*40
$GPGSA,M,3,07,09,02,23,16,,,,,,,,3.9,2.4,3.1*3A
$GPRMC,092614.000,A,4806.8906,N,00139.4393,W,0.69,320.23,060218,,,A*7D
$GPGGA,092615.000,4806.8900,N,00139.4392,W,1,05,2.4,6.6,M,48.3,M,,0000*47
$GPGSA,M,3,07,09,02,23,16,,,,,,,,3.9,2.4,3.1*3A
$GPRMC,092615.000,A,4806.8900,N,00139.4392,W,0.21,320.23,060218,,,A*77
arfcn: 981 bsic: 46 rxLev: -45 ber: 0.00 mcc: 208 mnc: 20 lac: 418 cellId: 21807 cellStatus: CELL_SUITABLE numArfcn: 1 arfcn: 981 numChannels: 16 array: 979 982 983 985 1012 1014 1017 1019 1020 787 790 791 793 796 882 884 pbcch: 0 nom: 2 rac: 6 spgc: 0 pat: 6 nco: 0 t3168: 1500 t3192: 500 drxmax: 0 ctrlAck: 0 bsCVmax: 8 alpha: 6 pcMeasCh: 1 
$GPGGA,092616.000,4806.8898,N,00139.4399,W,1,05,2.4,6.8,M,48.3,M,,0000*41
$GPGSA,M,3,07,09,02,23,16,,,,,,,,3.9,2.4,3.1*3A
$GPRMC,092616.000,A,4806.8898,N,00139.4399,W,0.65,320.23,060218,,,A*7F
$GPGGA,092617.000,4806.8893,N,00139.4404,W,1,05,2.4,6.8,M,48.3,M,,0000*48
$GPGSA,M,3,07,09,02,23,16,,,,,,,,3.9,2.4,3.1*3A
$GPRMC,092617.000,A,4806.8893,N,00139.4404,W,1.03,320.23,060218,,,A*77
$GPGGA,092618.000,4806.8888,N,00139.4402,W,1,05,2.4,6.4,M,48.3,M,,0000*47
$GPGSA,M,3,07,09,02,23,16,,,,,,,,3.9,2.4,3.1*3A
$GPGSV,3,1,12,07,58,138,16,09,57,062,24,02,49,265,17,23,21,068,23*73
$GPGSV,3,2,12,16,11,042,15,05,31,298,04,26,01,016,04,30,40,172,09*72
$GPGSV,3,3,12,39,31,144,,06,43,204,,04,37,298,,29,08,324,*71
$GPRMC,092618.000,A,4806.8888,N,00139.4402,W,1.20,296.82,060218,,,A*72
$GPGGA,092619.000,4806.8887,N,00139.4400,W,1,05,2.4,5.8,M,48.3,M,,0000*44
$GPGSA,M,3,07,09,02,23,16,,,,,,,,3.9,2.4,3.1*3A
$GPRMC,092619.000,A,4806.8887,N,00139.4400,W,0.82,296.82,060218,,,A*77
$GPGGA,092620.000,4806.8881,N,00139.4396,W,1,06,1.5,5.2,M,48.3,M,,0000*4B
$GPGSA,M,3,07,09,02,30,23,16,,,,,,,2.7,1.5,2.3*37
$GPRMC,092620.000,A,4806.8881,N,00139.4396,W,1.12,296.82,060218,,,A*7B
$GPGGA,092621.000,4806.8878,N,00139.4392,W,1,06,1.5,5.0,M,48.3,M,,0000*4A
$GPGSA,M,3,07,09,02,30,23,16,,,,,,,2.7,1.5,2.3*37
$GPRMC,092621.000,A,4806.8878,N,00139.4392,W,1.39,272.15,060218,,,A*75
$GPGGA,092622.000,4806.8879,N,00139.4388,W,1,06,1.5,5.0,M,48.3,M,,0000*43
$GPGSA,M,3,07,09,02,30,23,16,,,,,,,2.7,1.5,2.3*37
$GPRMC,092622.000,A,4806.8879,N,00139.4388,W,0.71,272.15,060218,,,A*71
$GPGGA,092623.000,4806.8879,N,00139.4380,W,1,06,1.5,5.6,M,48.3,M,,0000*4C
$GPGSA,M,3,07,09,02,30,23,16,,,,,,,2.7,1.5,2.3*37
$GPGSV,3,1,12,07,58,138,16,09,57,062,23,02,49,265,16,30,40,172,14*7E
$GPGSV,3,2,12,23,21,068,23,16,11,042,08,05,31,298,04,26,01,016,04*79
$GPGSV,3,3,12,33,33,198,,06,43,204,,04,37,298,,29,08,324,*78
$GPRMC,092623.000,A,4806.8879,N,00139.4380,W,0.83,272.15,060218,,,A*75
$GPGGA,092624.000,4806.8880,N,00139.4379,W,1,05,1.6,6.2,M,48.3,M,,0000*4C
$GPGSA,M,3,07,09,02,30,23,,,,,,,,3.3,1.6,2.9*3C
$GPRMC,092624.000,A,4806.8880,N,00139.4379,W,0.65,272.15,060218,,,A*7A
Survey end at #CCLK: "18/02/06,10:26:25+04"
Survey duration: 15 seconds, 1 bases detected over 1 freqs scanned.
$GPGGA,092625.000,4806.8873,N,00139.4379,W,1,04,2.5,6.7,M,48.3,M,,0000*45
$GPGSA,M,3,07,09,02,23,,,,,,,,,4.3,2.5,3.4*34
$GPRMC,092625.000,A,4806.8873,N,00139.4379,W,1.36,253.32,060218,,,A*76
Survey start at #CCLK: "18/02/06,10:26:26+04"
at#csurv
Network survey started ...
$GPGGA,092626.000,4806.8868,N,00139.4381,W,1,04,2.5,7.0,M,48.3,M,,0000*4D
Survey end at #CCLK: "18/02/06,10:26:26+04"
Survey duration: 0 seconds, 0 bases detected over 0 freqs scanned.
$GPGSA,M,3,07,09,02,23,,,,,,,,,4.3,2.5,3.4*34
$GPRMC,092626.000,A,4806.8868,N,00139.4381,W,1.60,242.75,060218,,,A*78
$GPGGA,092627.000,4806.8865,N,00139.4387,W,1,04,2.5,7.4,M,48.3,M,,0000*43
$GPGSA,M,3,07,09,02,23,,,,,,,,,4.3,2.5,3.4*34
$GPRMC,092627.000,A,4806.8865,N,00139.4387,W,1.83,235.64,060218,,,A*7F
Survey start at #CCLK: "18/02/06,10:26:28+04"
at#csurv
Network survey started ...
Survey end at #CCLK: "18/02/06,10:26:28+04"
Survey duration: 0 seconds, 0 bases detected over 0 freqs scanned.
