™†ÆÆÆÆÆÆÆÆ†æVÆ†æÆ&æV¦6Ö
$GPRMC,081953.000,A,4806.8617,N,00139.4169,W,0.32,23.96,201217,,,A*41
at#cclk?
#CCLK: "17/12/20,09:19:53+04"
OKat#csurv
at#csu
Network survey started ...
ERRORat#cclk?
at#ccl
#CCLK: "17/12/20,09:19:53+04"
OKat#cclk?
#CCLK: "17/12/20,09:19:53+04"
OKat#csurv
Network survey started ...
ERRORat#cclk?
at#cclk?
#CCLK: "17/12/20,09:19:54+04"
OK$GPGGA,081954.000,4806.8624,N,00139.4179,W,1,05,8.1,49.7,M,48.3,M,,0000*74
$GPGSA,M,3,03,22,14,32,28,,,,,,,,8.5,8.1,2.5*30
at#cclk?
#CCLK: "17/12/20,09:19:54+04"
OKat#csurv
at#csurv
Network survey started ...
ERRORat#cclk?
#CCLK: "17/12/20,09:19:54+04"
OK$GPRMC,081954.000,A,4806.8624,N,00139.4179,W,0.76,23.96,201217,,,A*47
$GPGGA,081955.000,4806.8630,N,00139.4187,W,1,05,8.1,49.6,M,48.3,M,,0000*70
$GPGSA,M,3,03,22,14,32,28,,,,,,,,8.5,8.1,2.5*30
$GPRMC,081955.000,A,4806.8630,N,00139.4187,W,1.12,23.96,201217,,,A*41
$GPGGA,081956.000,4806.8630,N,00139.4196,W,1,05,8.1,49.4,M,48.3,M,,0000*71
$GPGSA,M,3,03,22,14,32,28,,,,,,,,8.5,8.1,2.5*30
$GPGSV,3,1,12,03,79,263,28,22,76,060,24,14,28,049,24,32,11,037,21*7B
$GPGSV,3,2,12,28,10,247,15,01,68,102,23,17,43,299,04,19,26,314,04*71
$GPGSV,3,3,12,31,10,081,23,37,27,150,,11,51,144,,23,29,181,*73
$GPRMC,081956.000,A,4806.8630,N,00139.4196,W,1.31,10.72,201217,,,A*49
$GPGGA,081957.000,4806.8633,N,00139.4205,W,1,05,8.1,49.1,M,48.3,M,,0000*7F
$GPGSA,M,3,03,22,14,32,28,,,,,,,,8.5,8.1,2.5*30
$GPRMC,081957.000,A,4806.8633,N,00139.4205,W,1.37,0.17,201217,,,A*76
$GPGGA,081958.000,4806.8632,N,00139.4210,W,1,05,8.1,48.9,M,48.3,M,,0000*7C
$GPGSA,M,3,03,22,14,32,28,,,,,,,,8.5,8.1,2.5*30
$GPRMC,081958.000,A,4806.8632,N,00139.4210,W,1.08,0.17,201217,,,A*70
$GPGGA,081959.000,4806.8631,N,00139.4215,W,1,05,8.1,48.6,M,48.3,M,,0000*74
$GPGSA,M,3,03,22,14,32,28,,,,,,,,8.5,8.1,2.5*30
$GPRMC,081959.000,A,4806.8631,N,00139.4215,W,0.91,0.17,201217,,,A*76
$GPGGA,082000.000,4806.8628,N,00139.4216,W,1,05,8.1,48.3,M,48.3,M,,0000*7C
$GPGSA,M,3,03,22,14,32,28,,,,,,,,8.5,8.1,2.5*30
$GPRMC,082000.000,A,4806.8628,N,00139.4216,W,0.79,0.17,201217,,,A*7D
$GPGGA,082001.000,4806.8622,N,00139.4210,W,1,05,8.1,48.2,M,48.3,M,,0000*70
$GPGSA,M,3,03,22,14,32,28,,,,,,,,8.5,8.1,2.5*30
$GPGSV,3,1,12,03,79,263,27,22,76,060,24,14,28,049,24,32,11,037,21*74
$GPGSV,3,2,12,28,10,247,14,01,68,102,22,31,10,081,23,37,27,150,*76
$GPGSV,3,3,12,11,51,144,,17,43,299,,23,29,181,,19,26,314,*74
$GPRMC,082001.000,A,4806.8622,N,00139.4210,W,0.01,0.17,201217,,,A*7F
$GPGGA,082002.000,4806.8620,N,00139.4206,W,1,05,8.1,48.1,M,48.3,M,,0000*75
$GPGSA,M,3,03,22,14,32,28,,,,,,,,8.5,8.1,2.5*30
$GPRMC,082002.000,A,4806.8620,N,00139.4206,W,0.56,0.17,201217,,,A*7B
$GPGGA,082003.000,4806.8611,N,00139.4193,W,1,05,8.1,47.9,M,48.3,M,,0000*7E
$GPGSA,M,3,03,22,14,32,28,,,,,,,,8.5,8.1,2.5*30
$GPRMC,082003.000,A,4806.8611,N,00139.4193,W,0.85,0.17,201217,,,A*79
$GPGGA,082004.000,4806.8605,N,00139.4188,W,1,05,8.1,47.8,M,48.3,M,,0000*77
$GPGSA,M,3,03,22,14,32,28,,,,,,,,8.5,8.1,2.5*30
$GPRMC,082004.000,A,4806.8605,N,00139.4188,W,0.75,0.17,201217,,,A*7E
$GPGGA,082005.000,4806.8596,N,00139.4178,W,1,05,8.1,47.7,M,48.3,M,,0000*7F
$GPGSA,M,3,03,22,14,32,28,,,,,,,,8.5,8.1,2.5*30
$GPRMC,082005.000,A,4806.8596,N,00139.4178,W,1.11,0.17,201217,,,A*7A
$GPGGA,082006.000,4806.8596,N,00139.4179,W,1,05,8.1,47.7,M,48.3,M,,0000*7D
$GPGSA,M,3,03,22,14,32,28,,,,,,,,8.5,8.1,2.5*30
$GPGSV,3,1,12,03,79,263,27,22,76,060,24,14,28,049,24,32,11,037,22*77
$GPGSV,3,2,12,28,10,247,14,01,68,102,21,19,26,314,15,31,10,081,23*7E
$GPGSV,3,3,12,36,26,138,,11,51,144,,17,43,299,,23,29,181,*75
$GPRMC,082006.000,A,4806.8596,N,00139.4179,W,0.91,0.17,201217,,,A*71
$GPGGA,082007.000,4806.8594,N,00139.4173,W,1,05,8.1,47.6,M,48.3,M,,0000*75
$GPGSA,M,3,03,22,14,32,28,,,,,,,,8.5,8.1,2.5*30
$GPRMC,082007.000,A,4806.8594,N,00139.4173,W,1.10,0.17,201217,,,A*70
$GPGGA,082008.000,4806.8599,N,00139.4175,W,1,05,8.1,47.6,M,48.3,M,,0000*71
$GPGSA,M,3,03,22,14,32,28,,,,,,,,8.5,8.1,2.5*30
$GPRMC,082008.000,A,4806.8599,N,00139.4175,W,0.66,0.17,201217,,,A*74
$GPGGA,082009.000,4806.8595,N,00139.4171,W,1,05,8.1,47.6,M,48.3,M,,0000*78
$GPGSA,M,3,03,22,14,32,28,,,,,,,,8.5,8.1,2.5*30
$GPRMC,082009.000,A,4806.8595,N,00139.4171,W,0.51,0.17,201217,,,A*79
$GPGGA,082010.000,4806.8588,N,00139.4164,W,1,05,8.1,47.5,M,48.3,M,,0000*7B
$GPGSA,M,3,03,22,14,32,28,,,,,,,,8.5,8.1,2.5*30
$GPRMC,082010.000,A,4806.8588,N,00139.4164,W,0.78,0.17,201217,,,A*72
$GPGGA,082011.000,4806.8589,N,00139.4165,W,1,05,8.1,47.5,M,48.3,M,,0000*7A
$GPGSA,M,3,03,22,14,32,28,,,,,,,,8.5,8.1,2.5*30
$GPGSV,3,1,12,03,79,263,27,22,76,060,25,14,28,049,25,32,11,037,22*77
$GPGSV,3,2,12,28,10,247,14,01,68,102,20,09,00,198,12,31,10,081,23*7B
$GPGSV,3,3,12,36,26,138,,11,51,144,,17,43,299,,23,29,181,*75
$GPRMC,082011.000,A,4806.8589,N,00139.4165,W,0.68,0.17,201217,,,A*72
$GPGGA,082012.000,4806.8593,N,00139.4170,W,1,05,8.1,47.6,M,48.3,M,,0000*75
$GPGSA,M,3,03,22,14,32,28,,,,,,,,8.5,8.1,2.5*30
$GPRMC,082012.000,A,4806.8593,N,00139.4170,W,0.36,0.17,201217,,,A*75
$GPGGA,082013.000,4806.8597,N,00139.4176,W,1,05,8.1,47.5,M,48.3,M,,0000*75
$GPGSA,M,3,03,22,14,32,28,,,,,,,,8.5,8.1,2.5*30
$GPRMC,082013.000,A,4806.8597,N,00139.4176,W,0.11,0.17,201217,,,A*73
$GPGGA,082014.000,4806.8604,N,00139.4184,W,1,06,2.1,47.5,M,48.3,M,,0000*7F
$GPGSA,M,3,03,22,17,14,32,28,,,,,,,2.5,2.1,1.3*33
$GPRMC,082014.000,A,4806.8604,N,00139.4184,W,0.23,0.17,201217,,,A*71
$GPGGA,082015.000,4806.8604,N,00139.4183,W,1,06,2.1,47.4,M,48.3,M,,0000*78
$GPGSA,M,3,03,22,17,14,32,28,,,,,,,2.5,2.1,1.3*33
$GPRMC,082015.000,A,4806.8604,N,00139.4183,W,0.42,0.17,201217,,,A*70
$GPGGA,082016.000,4806.8589,N,00139.4164,W,1,06,2.1,47.2,M,48.3,M,,0000*72
$GPGSA,M,3,03,22,17,14,32,28,,,,,,,2.5,2.1,1.3*33
$GPGSV,3,1,12,03,79,264,27,22,76,060,24,17,44,299,16,14,28,048,25*76
$GPGSV,3,2,12,32,10,037,22,28,10,247,11,01,68,102,16,31,10,081,22*74
$GPGSV,3,3,12,36,26,138,,11,51,144,,23,29,181,,19,26,314,*7C
$GPRMC,082016.000,A,4806.8589,N,00139.4164,W,1.35,44.34,201217,,,A*4C
$GPGGA,082017.000,4806.8581,N,00139.4153,W,1,04,7.2,47.4,M,48.3,M,,0000*7D
$GPGSA,M,3,03,22,14,32,,,,,,,,,7.9,7.2,3.1*30
$GPRMC,082017.000,A,4806.8581,N,00139.4153,W,1.73,78.25,201217,,,A*4C
$GPGGA,082018.000,4806.8577,N,00139.4147,W,1,04,7.2,47.5,M,48.3,M,,0000*7F
$GPGSA,M,3,03,22,14,32,,,,,,,,,7.9,7.2,3.1*30
$GPRMC,082018.000,A,4806.8577,N,00139.4147,W,1.75,93.60,201217,,,A*4D
$GPGGA,082019.000,4806.8571,N,00139.4138,W,1,05,8.1,47.5,M,48.3,M,,0000*7D
$GPGSA,M,3,03,22,14,32,28,,,,,,,,8.5,8.1,2.5*30
$GPRMC,082019.000,A,4806.8571,N,00139.4138,W,1.81,100.30,201217,,,A*77
$GPGGA,082020.000,4806.8567,N,00139.4131,W,1,05,8.1,47.5,M,48.3,M,,0000*79
$GPGSA,M,3,03,22,14,32,28,,,,,,,,8.5,8.1,2.5*30
$GPRMC,082020.000,A,4806.8567,N,00139.4131,W,2.07,106.56,201217,,,A*78
$GPGGA,082021.000,4806.8568,N,00139.4128,W,1,05,8.1,47.5,M,48.3,M,,0000*7F
$GPGSA,M,3,03,22,14,32,28,,,,,,,,8.5,8.1,2.5*30
$GPGSV,3,1,12,03,79,264,27,22,76,060,24,14,28,048,25,32,10,037,22*71
$GPGSV,3,2,12,28,10,247,11,01,68,102,16,31,10,081,22,36,26,138,*7B
$GPGSV,3,3,12,11,51,144,,17,44,299,,23,29,181,,19,26,314,*73
$GPRMC,082021.000,A,4806.8568,N,00139.4128,W,1.97,108.90,201217,,,A*70
$GPGGA,082022.000,4806.8565,N,00139.4122,W,1,05,8.1,47.5,M,48.3,M,,0000*7B
$GPGSA,M,3,03,22,14,32,28,,,,,,,,8.5,8.1,2.5*30
$GPRMC,082022.000,A,4806.8565,N,00139.4122,W,2.04,110.88,201217,,,A*7D
$GPGGA,082023.000,4806.8562,N,00139.4117,W,1,05,8.1,47.4,M,48.3,M,,0000*7A
$GPGSA,M,3,03,22,14,32,28,,,,,,,,8.5,8.1,2.5*30
$GPRMC,082023.000,A,4806.8562,N,00139.4117,W,2.03,114.55,201217,,,A*7E
$GPGGA,082024.000,4806.8560,N,00139.4113,W,1,05,8.1,47.3,M,48.3,M,,0000*7C
$GPGSA,M,3,03,22,14,32,28,,,,,,,,8.5,8.1,2.5*30
$GPRMC,082024.000,A,4806.8560,N,00139.4113,W,1.90,116.38,201217,,,A*7F
$GPGGA,082025.000,4806.8561,N,00139.4114,W,1,05,8.1,47.3,M,48.3,M,,0000*7B
$GPGSA,M,3,03,22,14,32,28,,,,,,,,8.5,8.1,2.5*30
$GPRMC,082025.000,A,4806.8561,N,00139.4114,W,1.56,118.87,201217,,,A*78
$GPGGA,082026.000,4806.8557,N,00139.4112,W,1,05,8.1,47.3,M,48.3,M,,0000*7B
$GPGSA,M,3,03,22,14,32,28,,,,,,,,8.5,8.1,2.5*30
$GPGSV,3,1,12,03,79,264,27,22,76,060,23,14,28,048,25,32,10,037,22*76
$GPGSV,3,2,12,28,10,247,13,01,68,102,17,31,10,081,22,36,26,138,*78
$GPGSV,3,3,12,11,51,144,,17,44,299,,23,29,181,,19,26,314,*73
$GPRMC,082026.000,A,4806.8557,N,00139.4112,W,1.73,124.75,201217,,,A*7D
$GPGGA,082027.000,4806.8562,N,00139.4119,W,1,05,8.1,47.2,M,48.3,M,,0000*76
$GPGSA,M,3,03,22,14,32,28,,,,,,,,8.5,8.1,2.5*30
$GPRMC,082027.000,A,4806.8562,N,00139.4119,W,1.19,127.18,201217,,,A*75
$GPGGA,082028.000,4806.8569,N,00139.4129,W,1,05,8.1,47.2,M,48.3,M,,0000*71
$GPGSA,M,3,03,22,14,32,28,,,,,,,,8.5,8.1,2.5*30
$GPRMC,082028.000,A,4806.8569,N,00139.4129,W,0.47,127.18,201217,,,A*78
$GPGGA,082029.000,4806.8575,N,00139.4139,W,1,05,8.1,47.2,M,48.3,M,,0000*7C
$GPGSA,M,3,03,22,14,32,28,,,,,,,,8.5,8.1,2.5*30
$GPRMC,082029.000,A,4806.8575,N,00139.4139,W,0.24,127.18,201217,,,A*70
$GPGGA,082030.000,4806.8578,N,00139.4144,W,1,05,8.1,47.1,M,48.3,M,,0000*70
$GPGSA,M,3,03,22,14,32,28,,,,,,,,8.5,8.1,2.5*30
$GPRMC,082030.000,A,4806.8578,N,00139.4144,W,0.57,127.18,201217,,,A*7B
$GPGGA,082031.000,4806.8576,N,00139.4146,W,1,05,8.1,47.0,M,48.3,M,,0000*7C
$GPGSA,M,3,03,22,14,32,28,,,,,,,,8.4,8.1,2.5*31
$GPGSV,3,1,12,03,79,264,27,22,76,060,22,14,28,048,26,32,10,037,22*74
$GPGSV,3,2,12,28,10,247,12,01,68,102,18,17,44,299,14,31,10,081,22*7C
$GPGSV,3,3,12,36,26,138,,11,51,144,,23,29,181,,19,26,314,*7C
$GPRMC,082031.000,A,4806.8576,N,00139.4146,W,0.65,127.18,201217,,,A*77
$GPGGA,082032.000,4806.8582,N,00139.4155,W,1,06,2.1,47.2,M,48.3,M,,0000*7D
$GPGSA,M,3,03,22,17,14,32,28,,,,,,,2.5,2.1,1.3*33
$GPRMC,082032.000,A,4806.8582,N,00139.4155,W,0.38,127.18,201217,,,A*75
$GPGGA,082033.000,4806.8577,N,00139.4153,W,1,05,8.1,47.2,M,48.3,M,,0000*79
$GPGSA,M,3,03,22,14,32,28,,,,,,,,8.4,8.1,2.5*31
$GPRMC,082033.000,A,4806.8577,N,00139.4153,W,0.49,127.18,201217,,,A*7E
$GPGGA,082034.000,4806.8584,N,00139.4161,W,1,06,2.1,47.3,M,48.3,M,,0000*7B
$GPGSA,M,3,03,22,17,14,32,28,,,,,,,2.5,2.1,1.3*33
$GPRMC,082034.000,A,4806.8584,N,00139.4161,W,0.15,127.18,201217,,,A*7D
$GPGGA,082035.000,4806.8592,N,00139.4169,W,1,06,2.1,47.6,M,48.3,M,,0000*70
$GPGSA,M,3,03,22,17,14,32,28,,,,,,,2.5,2.1,1.3*33
$GPRMC,082035.000,A,4806.8592,N,00139.4169,W,0.16,127.18,201217,,,A*70
$GPGGA,082036.000,4806.8596,N,00139.4174,W,1,05,3.8,47.7,M,48.3,M,,0000*71
$GPGSA,M,3,03,22,17,14,32,,,,,,,,4.8,3.8,3.0*3B
$GPGSV,3,1,12,03,79,264,27,22,76,060,22,17,44,299,11,14,28,048,26*74
$GPGSV,3,2,12,32,10,037,22,01,68,102,19,28,10,247,04,31,10,081,22*7F
$GPGSV,3,3,12,49,34,171,,11,51,144,,23,29,181,,19,26,314,*7A
$GPRMC,082036.000,A,4806.8596,N,00139.4174,W,0.17,127.18,201217,,,A*7A
$GPGGA,082037.000,4806.8603,N,00139.4183,W,1,05,3.8,47.8,M,48.3,M,,0000*78
$GPGSA,M,3,03,22,17,14,32,,,,,,,,4.8,3.8,3.0*3B
$GPRMC,082037.000,A,4806.8603,N,00139.4183,W,0.15,127.18,201217,,,A*7E
$GPGGA,082038.000,4806.8611,N,00139.4194,W,1,05,3.8,47.9,M,48.3,M,,0000*73
$GPGSA,M,3,03,22,17,14,32,,,,,,,,4.8,3.8,3.0*3B
$GPRMC,082038.000,A,4806.8611,N,00139.4194,W,0.53,127.18,201217,,,A*76
$GPGGA,082039.000,4806.8622,N,00139.4208,W,1,05,3.8,47.9,M,48.3,M,,0000*74
$GPGSA,M,3,03,22,17,14,32,,,,,,,,4.8,3.8,3.0*3B
$GPRMC,082039.000,A,4806.8622,N,00139.4208,W,0.63,127.18,201217,,,A*72
$GPGGA,082040.000,4806.8629,N,00139.4217,W,1,05,3.8,48.0,M,48.3,M,,0000*79
$GPGSA,M,3,03,22,17,14,32,,,,,,,,4.8,3.8,3.0*3B
$GPRMC,082040.000,A,4806.8629,N,00139.4217,W,0.58,127.18,201217,,,A*71
$GPGGA,082041.000,4806.8634,N,00139.4224,W,1,05,3.8,48.0,M,48.3,M,,0000*74
$GPGSA,M,3,03,22,17,14,32,,,,,,,,4.8,3.8,3.0*3B
$GPGSV,3,1,12,03,79,264,27,22,76,060,22,17,44,299,10,14,28,048,26*75
$GPGSV,3,2,12,32,10,037,22,01,68,102,19,23,29,181,15,28,10,247,07*70
$GPGSV,3,3,12,31,10,081,22,49,34,171,,11,51,144,,19,26,314,*72
$GPRMC,082041.000,A,4806.8634,N,00139.4224,W,0.25,127.18,201217,,,A*76
$GPGGA,082042.000,4806.8639,N,00139.4231,W,1,05,3.8,48.0,M,48.3,M,,0000*7E
$GPGSA,M,3,03,22,17,14,32,,,,,,,,4.8,3.8,3.0*3B
$GPRMC,082042.000,A,4806.8639,N,00139.4231,W,0.05,127.18,201217,,,A*7E
$GPGGA,082043.000,4806.8643,N,00139.4236,W,1,06,2.1,48.0,M,48.3,M,,0000*7E
$GPGSA,M,3,03,22,17,14,32,28,,,,,,,2.5,2.1,1.3*33
$GPRMC,082043.000,A,4806.8643,N,00139.4236,W,0.27,127.18,201217,,,A*75
$GPGGA,082044.000,4806.8646,N,00139.4240,W,1,06,2.1,48.0,M,48.3,M,,0000*7D
$GPGSA,M,3,03,22,17,14,32,28,,,,,,,2.5,2.1,1.3*33
$GPRMC,082044.000,A,4806.8646,N,00139.4240,W,0.51,127.18,201217,,,A*77
$GPGGA,082045.000,4806.8646,N,00139.4240,W,1,06,2.1,48.0,M,48.3,M,,0000*7C
$GPGSA,M,3,03,22,17,14,32,28,,,,,,,2.5,2.1,1.3*33
$GPRMC,082045.000,A,4806.8646,N,00139.4240,W,0.92,127.18,201217,,,A*79
$GPGGA,082046.000,4806.8649,N,00139.4243,W,1,06,2.1,48.0,M,48.3,M,,0000*73
$GPGSA,M,3,03,22,17,14,32,28,,,,,,,2.5,2.1,1.3*33
$GPGSV,3,1,12,03,79,265,27,22,75,060,23,17,44,299,09,14,28,048,26*7E
$GPGSV,3,2,12,32,10,037,23,28,10,246,09,01,67,102,20,23,29,181,14*7A
$GPGSV,3,3,12,31,10,081,23,49,34,171,,11,51,144,,19,26,314,*73
$GPRMC,082046.000,A,4806.8649,N,00139.4243,W,1.07,127.18,201217,,,A*7B
$GPGGA,082047.000,4806.8656,N,00139.4250,W,1,06,2.1,48.1,M,48.3,M,,0000*7F
$GPGSA,M,3,03,22,17,14,32,28,,,,,,,2.5,2.1,1.3*33
$GPRMC,082047.000,A,4806.8656,N,00139.4250,W,1.06,127.18,201217,,,A*77
$GPGGA,082048.000,4806.8653,N,00139.4247,W,0,00,,48.1,M,48.3,M,,0000*59
$GPGSA,M,1,,,,,,,,,,,,,,,*12
$GPRMC,082048.000,V,4806.8653,N,00139.4247,W,,,201217,,,N*69
$GPGGA,082049.000,4806.8651,N,00139.4244,W,0,00,,48.1,M,48.3,M,,0000*59
$GPGSA,M,1,,,,,,,,,,,,,,,*12
$GPRMC,082049.000,V,4806.8651,N,00139.4244,W,,,201217,,,N*69
$GPGGA,082050.103,4806.8654,N,00139.4240,W,1,04,7.3,47.9,M,48.3,M,,0000*7A
$GPGSA,M,3,03,22,14,32,,,,,,,,,7.9,7.3,3.2*32
$GPRMC,082050.103,A,4806.8654,N,00139.4240,W,1.10,127.18,201217,,,A*77
$GPGGA,082051.103,4806.8656,N,00139.4232,W,1,04,7.3,47.8,M,48.3,M,,0000*7D
$GPGSA,M,3,03,22,14,32,,,,,,,,,7.9,7.3,3.2*32
$GPGSV,3,1,12,03,79,265,26,22,75,060,22,14,28,048,25,32,10,037,24*72
$GPGSV,3,2,12,28,10,246,11,49,34,171,,01,67,102,,11,51,144,*7B
$GPGSV,3,3,12,17,44,299,,23,29,181,,19,26,314,,31,10,081,*7C
$GPRMC,082051.103,A,4806.8656,N,00139.4232,W,1.68,112.30,201217,,,A*72
$GPGGA,082052.000,4806.8657,N,00139.4227,W,1,04,7.3,47.8,M,48.3,M,,0000*79
$GPGSA,M,3,03,22,14,32,,,,,,,,,7.9,7.3,3.2*32
$GPRMC,082052.000,A,4806.8657,N,00139.4227,W,1.65,105.25,201217,,,A*79
$GPGGA,082053.000,4806.8651,N,00139.4223,W,1,05,8.1,47.7,M,48.3,M,,0000*79
$GPGSA,M,3,03,22,14,32,28,,,,,,,,8.4,8.1,2.4*30
$GPRMC,082053.000,A,4806.8651,N,00139.4223,W,1.17,105.25,201217,,,A*7F
$GPGGA,082054.000,4806.8645,N,00139.4222,W,1,05,8.1,47.8,M,48.3,M,,0000*75
$GPGSA,M,3,03,22,14,32,28,,,,,,,,8.4,8.1,2.4*30
$GPRMC,082054.000,A,4806.8645,N,00139.4222,W,0.88,105.25,201217,,,A*7B
$GPGGA,082055.000,4806.8642,N,00139.4233,W,1,05,8.1,47.5,M,48.3,M,,0000*7E
$GPGSA,M,3,03,22,14,32,28,,,,,,,,8.4,8.1,2.4*30
$GPRMC,082055.000,A,4806.8642,N,00139.4233,W,0.62,105.25,201217,,,A*79
$GPGGA,082056.000,4806.8636,N,00139.4239,W,1,05,8.1,47.6,M,48.3,M,,0000*77
$GPGSA,M,3,03,22,14,32,28,,,,,,,,8.4,8.1,2.4*30
$GPGSV,3,1,12,03,79,265,25,22,75,060,22,14,28,048,25,32,10,037,24*71
$GPGSV,3,2,12,28,10,246,13,01,67,102,25,31,10,081,28,49,34,171,*7B
$GPGSV,3,3,12,11,51,144,,17,44,299,,23,29,181,,19,26,314,*73
$GPRMC,082056.000,A,4806.8636,N,00139.4239,W,0.80,105.25,201217,,,A*7F
$GPGGA,082057.000,4806.8634,N,00139.4242,W,1,05,8.1,47.5,M,48.3,M,,0000*7B
$GPGSA,M,3,03,22,14,32,28,,,,,,,,8.4,8.1,2.4*30
$GPRMC,082057.000,A,4806.8634,N,00139.4242,W,0.48,105.25,201217,,,A*74
$GPGGA,082058.000,4806.8630,N,00139.4249,W,1,05,8.1,47.1,M,48.3,M,,0000*7F
$GPGSA,M,3,03,22,14,32,28,,,,,,,,8.4,8.1,2.4*30
$GPRMC,082058.000,A,4806.8630,N,00139.4249,W,0.76,105.25,201217,,,A*79
$GPGGA,082059.000,4806.8628,N,00139.4252,W,1,05,8.1,46.8,M,48.3,M,,0000*75
$GPGSA,M,3,03,22,14,32,28,,,,,,,,8.4,8.1,2.4*30
$GPRMC,082059.000,A,4806.8628,N,00139.4252,W,0.79,105.25,201217,,,A*74
$GPGGA,082100.000,4806.8626,N,00139.4251,W,1,05,8.1,46.6,M,48.3,M,,0000*7B
$GPGSA,M,3,03,22,14,32,28,,,,,,,,8.4,8.1,2.4*30
$GPRMC,082100.000,A,4806.8626,N,00139.4251,W,0.57,105.25,201217,,,A*78
$GPGGA,082101.000,4806.8626,N,00139.4252,W,1,05,8.1,46.1,M,48.3,M,,0000*7E
$GPGSA,M,3,03,22,14,32,28,,,,,,,,8.4,8.1,2.4*30
$GPGSV,3,1,12,03,79,265,23,22,75,060,22,14,28,048,18,32,10,037,17*79
$GPGSV,3,2,12,28,10,246,18,01,67,102,21,11,51,144,19,31,10,081,21*7D
$GPGSV,3,3,12,49,34,171,,17,44,299,,23,29,181,,19,26,314,*7B
$GPRMC,082101.000,A,4806.8626,N,00139.4252,W,0.44,105.25,201217,,,A*78
$GPGGA,082102.000,4806.8626,N,00139.4251,W,1,05,8.1,45.3,M,48.3,M,,0000*7F
$GPGSA,M,3,03,22,14,32,28,,,,,,,,8.4,8.1,2.4*30
$GPRMC,082102.000,A,4806.8626,N,00139.4251,W,0.17,105.25,201217,,,A*7E
$GPGGA,082103.000,4806.8627,N,00139.4253,W,1,05,8.1,44.2,M,48.3,M,,0000*7D
$GPGSA,M,3,03,22,14,32,28,,,,,,,,8.4,8.1,2.4*30
$GPRMC,082103.000,A,4806.8627,N,00139.4253,W,0.18,105.25,201217,,,A*73
$GPGGA,082104.000,4806.8621,N,00139.4247,W,1,05,8.1,43.2,M,48.3,M,,0000*7E
$GPGSA,M,3,03,22,14,32,28,,,,,,,,8.4,8.1,2.4*30
$GPRMC,082104.000,A,4806.8621,N,00139.4247,W,0.17,105.25,201217,,,A*78
$GPGGA,082105.000,4806.8622,N,00139.4246,W,1,04,9.5,43.1,M,48.3,M,,0000*7A
$GPGSA,M,3,03,14,32,28,,,,,,,,,9.8,9.5,2.5*39
$GPRMC,082105.000,A,4806.8622,N,00139.4246,W,0.31,105.25,201217,,,A*7F
$GPGGA,082106.000,4806.8623,N,00139.4243,W,1,05,8.1,42.7,M,48.3,M,,0000*7E
$GPGSA,M,3,03,22,14,32,28,,,,,,,,8.4,8.1,2.4*30
$GPGSV,3,1,12,03,79,265,16,22,75,060,18,14,28,048,18,32,10,037,16*77
$GPGSV,3,2,12,28,10,246,32,01,67,102,21,11,51,144,17,31,10,081,23*79
$GPGSV,3,3,12,33,33,198,,17,44,299,,23,29,181,,19,26,314,*76
$GPRMC,082106.000,A,4806.8623,N,00139.4243,W,0.74,105.25,201217,,,A*79
$GPGGA,082107.000,4806.8628,N,00139.4243,W,1,05,8.0,42.6,M,48.3,M,,0000*74
$GPGSA,M,3,03,22,14,32,28,,,,,,,,8.4,8.0,2.4*31
$GPRMC,082107.000,A,4806.8628,N,00139.4243,W,0.96,105.25,201217,,,A*7F
$GPGGA,082108.000,4806.8626,N,00139.4239,W,1,05,8.0,42.4,M,48.3,M,,0000*7A
$GPGSA,M,3,03,22,14,32,28,,,,,,,,8.4,8.0,2.4*31
$GPRMC,082108.000,A,4806.8626,N,00139.4239,W,0.62,105.25,201217,,,A*78
$GPGGA,082109.000,4806.8629,N,00139.4241,W,1,05,8.0,42.2,M,48.3,M,,0000*7D
$GPGSA,M,3,03,22,14,32,28,,,,,,,,8.4,8.0,2.4*31
$GPRMC,082109.000,A,4806.8629,N,00139.4241,W,0.50,105.25,201217,,,A*78
$GPGGA,082110.000,4806.8611,N,00139.4220,W,1,05,3.8,41.9,M,48.3,M,,0000*72
$GPGSA,M,3,03,22,17,14,32,,,,,,,,4.8,3.8,3.0*3B
$GPRMC,082110.000,A,4806.8611,N,00139.4220,W,0.81,105.25,201217,,,A*70
$GPGGA,082111.000,4806.8609,N,00139.4214,W,1,05,3.8,42.1,M,48.3,M,,0000*76
$GPGSA,M,3,03,22,17,14,32,,,,,,,,4.8,3.8,3.0*3B
$GPGSV,3,1,12,03,79,265,19,22,75,060,18,17,44,299,17,14,28,048,18*79
$GPGSV,3,2,12,32,10,037,16,01,67,102,14,11,51,144,27,19,26,314,08*7C
$GPGSV,3,3,12,31,10,081,27,33,33,198,,23,29,181,,28,10,246,*7C
$GPRMC,082111.000,A,4806.8609,N,00139.4214,W,1.03,105.25,201217,,,A*74
$GPGGA,082112.000,4806.8610,N,00139.4213,W,1,05,3.8,42.3,M,48.3,M,,0000*78
$GPGSA,M,3,03,22,17,14,32,,,,,,,,4.8,3.8,3.0*3B
$GPRMC,082112.000,A,4806.8610,N,00139.4213,W,0.95,105.25,201217,,,A*76
$GPGGA,082113.000,4806.8622,N,00139.4221,W,0,06,,42.3,M,48.3,M,,0000*5E
$GPGSA,M,1,,,,,,,,,,,,,,,*12
$GPRMC,082113.000,V,4806.8622,N,00139.4221,W,,,201217,,,N*60
$GPGGA,082114.000,4806.8631,N,00139.4226,W,0,06,,42.3,M,48.3,M,,0000*5C
$GPGSA,M,1,,,,,,,,,,,,,,,*12
$GPRMC,082114.000,V,4806.8631,N,00139.4226,W,,,201217,,,N*62
$GPGGA,082115.000,4806.8641,N,00139.4233,W,0,06,,42.2,M,48.3,M,,0000*5F
$GPGSA,M,1,,,,,,,,,,,,,,,*12
$GPRMC,082115.000,V,4806.8641,N,00139.4233,W,,,201217,,,N*60
$GPGGA,082116.000,4806.8646,N,00139.4236,W,0,06,,42.2,M,48.3,M,,0000*5E
$GPGSA,M,1,,,,,,,,,,,,,,,*12
$GPGSV,3,1,12,03,79,265,20,22,75,060,18,17,44,299,18,14,28,048,17*73
$GPGSV,3,2,12,19,26,314,15,32,10,037,16,01,67,102,16,11,51,144,27*72
$GPGSV,3,3,12,31,10,081,29,33,33,198,,23,29,181,,28,10,246,*72
$GPRMC,082116.000,V,4806.8646,N,00139.4236,W,,,201217,,,N*61
$GPGGA,082117.000,4806.8651,N,00139.4239,W,0,06,,42.2,M,48.3,M,,0000*56
$GPGSA,M,1,,,,,,,,,,,,,,,*12
$GPRMC,082117.000,V,4806.8651,N,00139.4239,W,,,201217,,,N*69
$GPGGA,082118.000,4806.8661,N,00139.4245,W,0,06,,42.3,M,48.3,M,,0000*50
$GPGSA,M,1,,,,,,,,,,,,,,,*12
$GPRMC,082118.000,V,4806.8661,N,00139.4245,W,,,201217,,,N*6E
$GPGGA,082119.000,4806.8667,N,00139.4252,W,0,06,,42.5,M,48.3,M,,0000*57
$GPGSA,M,1,,,,,,,,,,,,,,,*12
$GPRMC,082119.000,V,4806.8667,N,00139.4252,W,,,201217,,,N*6F
$GPGGA,082120.000,4806.8669,N,00139.4256,W,0,06,,42.5,M,48.3,M,,0000*57
$GPGSA,M,1,,,,,,,,,,,,,,,*12
$GPRMC,082120.000,V,4806.8669,N,00139.4256,W,,,201217,,,N*6F
$GPGGA,082121.000,4806.8675,N,00139.4262,W,0,06,,43.4,M,48.3,M,,0000*5C
$GPGSA,M,1,,,,,,,,,,,,,,,*12
$GPGSV,3,1,12,03,79,265,20,22,75,060,17,17,44,299,18,14,28,048,16*7D
$GPGSV,3,2,12,19,26,314,17,32,10,037,16,01,67,102,17,11,51,144,27*71
$GPGSV,3,3,12,31,10,081,30,33,33,198,,23,29,181,,28,10,246,*7A
$GPRMC,082121.000,V,4806.8675,N,00139.4262,W,,,201217,,,N*64
$GPGGA,082122.000,4806.8671,N,00139.4261,W,0,06,,43.5,M,48.3,M,,0000*59
$GPGSA,M,1,,,,,,,,,,,,,,,*12
$GPRMC,082122.000,V,4806.8671,N,00139.4261,W,,,201217,,,N*60
$GPGGA,082123.000,4806.8673,N,00139.4263,W,0,06,,43.7,M,48.3,M,,0000*5A
$GPGSA,M,1,,,,,,,,,,,,,,,*12
$GPRMC,082123.000,V,4806.8673,N,00139.4263,W,,,201217,,,N*61
$GPGGA,082124.000,4806.8676,N,00139.4265,W,0,06,,44.0,M,48.3,M,,0000*5E
$GPGSA,M,1,,,,,,,,,,,,,,,*12
$GPRMC,082124.000,V,4806.8676,N,00139.4265,W,,,201217,,,N*65
$GPGGA,082125.000,4806.8678,N,00139.4267,W,0,06,,44.1,M,48.3,M,,0000*52
$GPGSA,M,1,,,,,,,,,,,,,,,*12
$GPRMC,082125.000,V,4806.8678,N,00139.4267,W,,,201217,,,N*68
$GPGGA,082126.000,4806.8682,N,00139.4271,W,0,06,,44.3,M,48.3,M,,0000*51
$GPGSA,M,1,,,,,,,,,,,,,,,*12
$GPGSV,3,1,12,03,79,265,21,22,75,060,18,17,44,299,18,14,28,048,15*70
$GPGSV,3,2,12,19,26,314,17,32,10,037,17,01,67,102,17,11,51,144,27*70
$GPGSV,3,3,12,31,10,081,30,33,33,198,,23,29,181,,28,10,246,*7A
$GPRMC,082126.000,V,4806.8682,N,00139.4271,W,,,201217,,,N*69
$GPGGA,082127.000,4806.8688,N,00139.4277,W,0,06,,44.4,M,48.3,M,,0000*5B
$GPGSA,M,1,,,,,,,,,,,,,,,*12
$GPRMC,082127.000,V,4806.8688,N,00139.4277,W,,,201217,,,N*64
$GPGGA,082128.000,4806.8695,N,00139.4285,W,0,06,,44.5,M,48.3,M,,0000*54
$GPGSA,M,1,,,,,,,,,,,,,,,*12
$GPRMC,082128.000,V,4806.8695,N,00139.4285,W,,,201217,,,N*6A
$GPGGA,082129.000,4806.8702,N,00139.4290,W,0,06,,44.6,M,48.3,M,,0000*5D
$GPGSA,M,1,,,,,,,,,,,,,,,*12
$GPRMC,082129.000,V,4806.8702,N,00139.4290,W,,,201217,,,N*60
$GPGGA,082130.000,4806.8707,N,00139.4297,W,1,07,1.5,44.7,M,48.3,M,,0000*7C
$GPGSA,M,3,03,22,17,14,19,32,28,,,,,,2.0,1.5,1.3*39
$GPRMC,082130.000,A,4806.8707,N,00139.4297,W,0.55,100.86,201217,,,A*7D
$GPGGA,082131.000,4806.8691,N,00139.4287,W,1,09,1.0,44.2,M,48.3,M,,0000*7C
$GPGSA,M,3,03,22,17,14,19,32,28,11,31,,,,1.5,1.0,1.1*3A
$GPGSV,3,1,12,03,79,266,21,22,75,060,18,17,44,298,19,14,27,048,14*7D
$GPGSV,3,2,12,19,26,313,17,32,10,037,16,28,10,246,17,11,51,144,28*71
$GPGSV,3,3,12,31,10,081,27,01,67,103,19,33,33,198,,23,29,180,*7C
$GPRMC,082131.000,A,4806.8691,N,00139.4287,W,0.63,100.86,201217,,,A*76
$GPGGA,082132.000,4806.8689,N,00139.4289,W,1,09,1.0,44.2,M,48.3,M,,0000*78
$GPGSA,M,3,03,22,11,17,14,19,31,32,28,,,,1.5,1.0,1.1*3A
$GPRMC,082132.000,A,4806.8689,N,00139.4289,W,0.32,100.86,201217,,,A*76
$GPGGA,082133.000,4806.8685,N,00139.4286,W,1,09,1.0,43.9,M,48.3,M,,0000*76
$GPGSA,M,3,03,22,11,17,14,19,31,32,28,,,,1.5,1.0,1.1*3A
$GPRMC,082133.000,A,4806.8685,N,00139.4286,W,0.29,100.86,201217,,,A*7E
$GPGGA,082134.000,4806.8681,N,00139.4279,W,1,09,1.0,43.3,M,48.3,M,,0000*7F
$GPGSA,M,3,03,22,11,17,14,19,31,32,28,,,,1.5,1.0,1.1*3A
$GPRMC,082134.000,A,4806.8681,N,00139.4279,W,0.33,100.86,201217,,,A*76
$GPGGA,082135.000,4806.8680,N,00139.4278,W,1,09,1.0,43.2,M,48.3,M,,0000*7F
$GPGSA,M,3,03,22,11,17,14,19,31,32,28,,,,1.5,1.0,1.1*3A
$GPRMC,082135.000,A,4806.8680,N,00139.4278,W,0.00,100.86,201217,,,A*77
$GPGGA,082136.000,4806.8676,N,00139.4273,W,1,09,1.0,42.7,M,48.3,M,,0000*7A
$GPGSA,M,3,03,22,11,17,14,19,31,32,28,,,,1.5,1.0,1.1*3A
$GPGSV,3,1,12,03,79,266,22,22,75,060,19,11,51,144,28,17,44,298,19*79
$GPGSV,3,2,12,14,27,048,10,19,26,313,17,31,10,081,30,32,10,037,16*77
$GPGSV,3,3,12,28,10,246,18,01,67,103,24,37,27,150,,23,29,180,*7A
$GPRMC,082136.000,A,4806.8676,N,00139.4273,W,0.15,100.86,201217,,,A*72
$GPGGA,082137.000,4806.8672,N,00139.4270,W,1,09,1.0,42.3,M,48.3,M,,0000*78
$GPGSA,M,3,03,22,11,17,14,19,31,32,28,,,,1.5,1.0,1.1*3A
$GPRMC,082137.000,A,4806.8672,N,00139.4270,W,0.38,100.86,201217,,,A*7B
$GPGGA,082138.000,4806.8673,N,00139.4270,W,1,09,1.0,42.3,M,48.3,M,,0000*76
$GPGSA,M,3,03,22,11,17,14,19,31,32,28,,,,1.5,1.0,1.1*3A
$GPRMC,082138.000,A,4806.8673,N,00139.4270,W,0.00,100.86,201217,,,A*7E
$GPGGA,082139.000,4806.8673,N,00139.4270,W,1,09,1.0,42.3,M,48.3,M,,0000*77
$GPGSA,M,3,03,22,11,17,14,19,31,32,28,,,,1.5,1.0,1.1*3A
$GPRMC,082139.000,A,4806.8673,N,00139.4270,W,0.00,100.86,201217,,,A*7F
$GPGGA,082140.000,4806.8673,N,00139.4271,W,1,08,1.1,42.3,M,48.3,M,,0000*78
$GPGSA,M,3,03,22,11,17,14,19,31,28,,,,,1.6,1.1,1.2*3A
$GPRMC,082140.000,A,4806.8673,N,00139.4271,W,0.00,100.86,201217,,,A*70
$GPGGA,082141.000,4806.8673,N,00139.4271,W,1,08,1.1,42.3,M,48.3,M,,0000*79
$GPGSA,M,3,03,22,11,17,14,19,31,28,,,,,1.6,1.1,1.2*3A
$GPGSV,3,1,12,03,79,266,22,22,75,060,20,11,51,144,28,17,44,298,19*73
$GPGSV,3,2,12,14,27,048,11,19,26,313,17,31,10,081,31,28,10,246,19*77
$GPGSV,3,3,12,01,67,103,24,32,10,037,04,37,27,150,,23,29,180,*78
$GPRMC,082141.000,A,4806.8673,N,00139.4271,W,0.00,100.86,201217,,,A*71
$GPGGA,082142.000,4806.8673,N,00139.4271,W,1,08,1.1,42.3,M,48.3,M,,0000*7A
$GPGSA,M,3,03,22,11,17,14,19,31,28,,,,,1.6,1.1,1.2*3A
$GPRMC,082142.000,A,4806.8673,N,00139.4271,W,0.00,100.86,201217,,,A*72
$GPGGA,082143.000,4806.8673,N,00139.4271,W,1,08,1.1,42.3,M,48.3,M,,0000*7B
$GPGSA,M,3,03,22,11,17,14,19,31,28,,,,,1.6,1.1,1.2*3A
$GPRMC,082143.000,A,4806.8673,N,00139.4271,W,0.00,100.86,201217,,,A*73
$GPGGA,082144.000,4806.8673,N,00139.4271,W,1,08,1.1,42.3,M,48.3,M,,0000*7C
$GPGSA,M,3,03,22,11,17,14,19,31,28,,,,,1.6,1.1,1.2*3A
$GPRMC,082144.000,A,4806.8673,N,00139.4271,W,0.00,100.86,201217,,,A*74
$GPGGA,082145.000,4806.8673,N,00139.4271,W,1,08,1.1,42.3,M,48.3,M,,0000*7D
$GPGSA,M,3,03,22,11,17,14,19,31,28,,,,,1.6,1.1,1.2*3A
$GPRMC,082145.000,A,4806.8673,N,00139.4271,W,0.00,100.86,201217,,,A*75
$GPGGA,082146.000,4806.8673,N,00139.4271,W,1,08,1.1,42.3,M,48.3,M,,0000*7E
$GPGSA,M,3,03,22,11,17,14,19,31,28,,,,,1.6,1.1,1.2*3A
$GPGSV,3,1,12,03,79,266,22,22,75,060,22,11,50,144,27,17,44,298,19*7F
$GPGSV,3,2,12,14,27,048,13,19,26,313,17,31,10,081,32,28,10,246,19*76
$GPGSV,3,3,12,01,67,103,24,32,10,037,04,37,27,150,,23,30,180,*70
$GPRMC,082146.000,A,4806.8673,N,00139.4271,W,0.00,100.86,201217,,,A*76
$GPGGA,082147.000,4806.8673,N,00139.4271,W,1,08,1.1,42.3,M,48.3,M,,0000*7F
$GPGSA,M,3,03,22,11,17,14,19,31,28,,,,,1.6,1.1,1.2*3A
$GPRMC,082147.000,A,4806.8673,N,00139.4271,W,0.00,100.86,201217,,,A*77
$GPGGA,082148.000,4806.8673,N,00139.4271,W,1,08,1.1,42.3,M,48.3,M,,0000*70
$GPGSA,M,3,03,22,11,17,14,19,31,28,,,,,1.6,1.1,1.2*3A
$GPRMC,082148.000,A,4806.8673,N,00139.4271,W,0.00,100.86,201217,,,A*78
$GPGGA,082149.000,4806.8673,N,00139.4271,W,1,08,1.1,42.3,M,48.3,M,,0000*71
$GPGSA,M,3,03,22,11,17,14,19,31,28,,,,,1.6,1.1,1.2*3A
$GPRMC,082149.000,A,4806.8673,N,00139.4271,W,0.00,100.86,201217,,,A*79
$GPGGA,082150.000,4806.8678,N,00139.4276,W,1,08,1.1,42.2,M,48.3,M,,0000*74
$GPGSA,M,3,03,22,11,17,14,19,31,28,,,,,1.6,1.1,1.2*3A
$GPRMC,082150.000,A,4806.8678,N,00139.4276,W,0.19,100.86,201217,,,A*75
$GPGGA,082151.000,4806.8679,N,00139.4279,W,1,07,1.1,42.2,M,48.3,M,,0000*74
$GPGSA,M,3,03,22,11,14,19,31,28,,,,,,1.7,1.1,1.2*3D
$GPGSV,3,1,12,03,79,266,22,22,75,060,23,11,50,144,21,14,27,048,13*7B
$GPGSV,3,2,12,19,26,313,17,31,10,081,29,28,10,246,22,01,67,103,24*7E
$GPGSV,3,3,12,17,44,298,04,32,10,037,10,37,27,150,,23,30,180,*70
$GPRMC,082151.000,A,4806.8679,N,00139.4279,W,0.10,100.86,201217,,,A*73
$GPGGA,082152.000,4806.8679,N,00139.4281,W,1,08,1.1,42.3,M,48.3,M,,0000*7E
$GPGSA,M,3,03,22,11,14,19,31,32,28,,,,,1.6,1.1,1.1*3E
$GPRMC,082152.000,A,4806.8679,N,00139.4281,W,0.41,100.86,201217,,,A*73
$GPGGA,082153.000,4806.8679,N,00139.4281,W,1,08,1.1,42.4,M,48.3,M,,0000*78
$GPGSA,M,3,03,22,11,14,19,31,32,28,,,,,1.6,1.1,1.1*3E
$GPRMC,082153.000,A,4806.8679,N,00139.4281,W,0.52,100.86,201217,,,A*70
$GPGGA,082154.000,4806.8680,N,00139.4284,W,1,08,1.1,42.4,M,48.3,M,,0000*7C
$GPGSA,M,3,03,22,11,14,19,31,32,28,,,,,1.6,1.1,1.1*3E
$GPRMC,082154.000,A,4806.8680,N,00139.4284,W,0.21,100.86,201217,,,A*70
$GPGGA,082155.000,4806.8681,N,00139.4288,W,1,08,1.1,42.5,M,48.3,M,,0000*71
$GPGSA,M,3,03,22,11,14,19,31,32,28,,,,,1.6,1.1,1.1*3E
$GPRMC,082155.000,A,4806.8681,N,00139.4288,W,0.37,100.86,201217,,,A*7B
$GPGGA,082156.000,4806.8681,N,00139.4290,W,1,09,1.0,42.5,M,48.3,M,,0000*7B
$GPGSA,M,3,03,22,11,17,14,19,31,32,28,,,,1.5,1.0,1.1*3A
$GPGSV,3,1,12,03,79,266,17,22,75,060,22,11,50,144,18,17,44,298,08*75
$GPGSV,3,2,12,14,27,048,14,19,26,313,18,31,10,081,27,32,10,037,14*78
$GPGSV,3,3,12,28,10,246,24,01,67,103,24,37,27,150,,23,30,180,*7D
$GPRMC,082156.000,A,4806.8681,N,00139.4290,W,0.41,100.86,201217,,,A*70
$GPGGA,082157.000,4806.8682,N,00139.4292,W,1,09,1.0,42.5,M,48.3,M,,0000*7B
$GPGSA,M,3,03,22,11,17,14,19,31,32,28,,,,1.5,1.0,1.1*3A
$GPRMC,082157.000,A,4806.8682,N,00139.4292,W,0.12,100.86,201217,,,A*76
$GPGGA,082158.000,4806.8684,N,00139.4292,W,1,07,1.1,42.6,M,48.3,M,,0000*7E
$GPGSA,M,3,03,11,14,19,31,32,28,,,,,,1.7,1.1,1.4*3A
$GPRMC,082158.000,A,4806.8684,N,00139.4292,W,0.34,100.86,201217,,,A*7B
$GPGGA,082159.000,4806.8684,N,00139.4294,W,1,09,1.0,42.7,M,48.3,M,,0000*77
$GPGSA,M,3,03,22,11,17,14,19,31,32,28,,,,1.5,1.0,1.1*3A
$GPRMC,082159.000,A,4806.8684,N,00139.4294,W,0.15,100.86,201217,,,A*7F
$GPGGA,082200.000,4806.8684,N,00139.4297,W,1,09,1.0,42.7,M,48.3,M,,0000*7B
$GPGSA,M,3,03,22,11,17,14,19,31,32,28,,,,1.5,1.0,1.1*3A
$GPRMC,082200.000,A,4806.8684,N,00139.4297,W,0.36,100.86,201217,,,A*72
$GPGGA,082201.000,4806.8685,N,00139.4299,W,1,09,1.0,42.7,M,48.3,M,,0000*75
$GPGSA,M,3,03,22,11,17,14,19,31,32,28,,,,1.5,1.0,1.1*3A
$GPGSV,3,1,12,03,79,266,17,22,75,060,16,11,50,144,19,17,44,298,10*7A
$GPGSV,3,2,12,14,27,048,17,19,26,313,17,31,10,081,24,32,10,037,16*75
$GPGSV,3,3,12,28,10,246,23,01,67,103,24,37,27,150,,23,30,180,*7A
$GPRMC,082201.000,A,4806.8685,N,00139.4299,W,0.18,100.86,201217,,,A*70
$GPGGA,082202.000,4806.8685,N,00139.4300,W,1,09,1.0,42.7,M,48.3,M,,0000*77
$GPGSA,M,3,03,22,11,17,14,19,31,32,28,,,,1.5,1.0,1.1*3A
$GPRMC,082202.000,A,4806.8685,N,00139.4300,W,0.27,100.86,201217,,,A*7E
$GPGGA,082203.000,4806.8681,N,00139.4300,W,1,09,1.0,42.4,M,48.3,M,,0000*71
$GPGSA,M,3,03,22,11,17,14,19,31,32,28,,,,1.5,1.0,1.1*3A
$GPRMC,082203.000,A,4806.8681,N,00139.4300,W,0.27,100.86,201217,,,A*7B
$GPGGA,082204.000,4806.8680,N,00139.4302,W,1,09,1.0,42.3,M,48.3,M,,0000*72
$GPGSA,M,3,03,22,11,17,14,19,31,32,28,,,,1.5,1.0,1.1*3A
$GPRMC,082204.000,A,4806.8680,N,00139.4302,W,0.38,100.86,201217,,,A*71
$GPGGA,082205.000,4806.8682,N,00139.4305,W,1,09,1.0,42.2,M,48.3,M,,0000*77
$GPGSA,M,3,03,22,11,17,14,19,31,32,28,,,,1.5,1.0,1.1*3A
$GPRMC,082205.000,A,4806.8682,N,00139.4305,W,0.81,100.86,201217,,,A*77
$GPGGA,082206.000,4806.8684,N,00139.4309,W,1,08,1.1,42.1,M,48.3,M,,0000*7D
$GPGSA,M,3,03,22,11,17,14,19,32,28,,,,,1.7,1.1,1.3*39
$GPGSV,3,1,12,03,79,266,18,22,75,060,14,11,50,144,19,17,44,298,16*71
$GPGSV,3,2,12,14,27,048,22,19,26,313,15,32,10,037,21,28,10,246,19*7A
$GPGSV,3,3,12,01,67,103,24,31,10,081,11,36,26,138,,23,30,180,*74
$GPRMC,082206.000,A,4806.8684,N,00139.4309,W,1.11,100.86,201217,,,A*76
$GPGGA,082207.000,4806.8686,N,00139.4310,W,1,09,1.0,41.9,M,48.3,M,,0000*7D
$GPGSA,M,3,03,22,11,17,14,19,31,32,28,,,,1.5,1.0,1.1*3A
$GPRMC,082207.000,A,4806.8686,N,00139.4310,W,0.78,100.86,201217,,,A*73
$GPGGA,082208.000,4806.8685,N,00139.4309,W,1,09,1.0,41.9,M,48.3,M,,0000*79
$GPGSA,M,3,03,22,11,17,14,19,31,32,28,,,,1.5,1.0,1.1*3A
$GPRMC,082208.000,A,4806.8685,N,00139.4309,W,0.14,100.86,201217,,,A*7D
$GPGGA,082209.000,4806.8684,N,00139.4308,W,1,08,1.0,41.9,M,48.3,M,,0000*79
$GPGSA,M,3,03,22,11,17,19,31,32,28,,,,,1.5,1.0,1.1*3F
$GPRMC,082209.000,A,4806.8684,N,00139.4308,W,0.06,100.86,201217,,,A*7F
$GPGGA,082210.000,4806.8684,N,00139.4308,W,1,09,1.0,41.9,M,48.3,M,,0000*70
$GPGSA,M,3,03,22,11,17,14,19,31,32,28,,,,1.5,1.0,1.1*3A
$GPRMC,082210.000,A,4806.8684,N,00139.4308,W,0.13,100.86,201217,,,A*73
$GPGGA,082211.000,4806.8684,N,00139.4307,W,1,09,1.0,41.9,M,48.3,M,,0000*7E
$GPGSA,M,3,03,22,11,17,14,19,31,32,28,,,,1.5,1.0,1.1*3A
$GPGSV,3,1,12,03,79,266,18,22,75,060,14,11,50,144,19,17,44,298,15*72
$GPGSV,3,2,12,14,27,048,17,19,26,313,14,31,10,081,22,32,10,037,16*70
$GPGSV,3,3,12,28,10,246,27,01,67,103,19,36,26,138,,23,30,180,*7E
$GPRMC,082211.000,A,4806.8684,N,00139.4307,W,0.18,100.86,201217,,,A*76
$GPGGA,082212.000,4806.8685,N,00139.4309,W,1,09,1.0,42.0,M,48.3,M,,0000*78
$GPGSA,M,3,03,22,11,17,14,19,31,32,28,,,,1.5,1.0,1.1*3A
$GPRMC,082212.000,A,4806.8685,N,00139.4309,W,0.09,100.86,201217,,,A*7A
$GPGGA,082213.000,4806.8684,N,00139.4308,W,1,09,1.0,42.0,M,48.3,M,,0000*79
$GPGSA,M,3,03,22,11,17,14,19,31,32,28,,,,1.5,1.0,1.1*3A
$GPRMC,082213.000,A,4806.8684,N,00139.4308,W,0.25,100.86,201217,,,A*75
$GPGGA,082214.000,4806.8680,N,00139.4306,W,1,09,1.0,42.0,M,48.3,M,,0000*74
$GPGSA,M,3,03,22,11,17,14,19,31,32,28,,,,1.5,1.0,1.1*3A
$GPRMC,082214.000,A,4806.8680,N,00139.4306,W,0.86,100.86,201217,,,A*71
$GPGGA,082215.000,4806.8679,N,00139.4305,W,1,09,1.0,42.0,M,48.3,M,,0000*70
$GPGSA,M,3,03,22,11,17,14,19,31,32,28,,,,1.5,1.0,1.1*3A
$GPRMC,082215.000,A,4806.8679,N,00139.4305,W,0.72,100.86,201217,,,A*7E
$GPGGA,082216.000,4806.8677,N,00139.4304,W,1,07,1.4,42.0,M,48.3,M,,0000*76
$GPGSA,M,3,03,22,11,14,31,32,28,,,,,,1.8,1.4,1.1*3D
$GPGSV,3,1,12,03,79,266,17,22,75,060,13,11,50,144,19,14,27,048,18*7E
$GPGSV,3,2,12,31,10,081,21,32,10,037,11,28,10,246,28,01,67,103,19*7D
$GPGSV,3,3,12,17,44,298,04,19,26,313,07,36,26,138,,23,30,180,*71
$GPRMC,082216.000,A,4806.8677,N,00139.4304,W,0.73,100.86,201217,,,A*73
$GPGGA,082217.000,4806.8674,N,00139.4302,W,1,07,1.4,42.1,M,48.3,M,,0000*73
$GPGSA,M,3,03,22,11,14,31,32,28,,,,,,1.8,1.4,1.1*3D
$GPRMC,082217.000,A,4806.8674,N,00139.4302,W,0.83,100.86,201217,,,A*78
$GPGGA,082218.000,4806.8674,N,00139.4302,W,1,08,1.1,42.2,M,48.3,M,,0000*75
$GPGSA,M,3,03,22,11,14,19,31,32,28,,,,,1.6,1.1,1.1*3E
$GPRMC,082218.000,A,4806.8674,N,00139.4302,W,0.57,100.86,201217,,,A*7E
$GPGGA,082219.000,4806.8673,N,00139.4303,W,1,08,1.1,42.4,M,48.3,M,,0000*74
$GPGSA,M,3,03,22,11,14,19,31,32,28,,,,,1.6,1.1,1.1*3E
$GPRMC,082219.000,A,4806.8673,N,00139.4303,W,0.48,100.86,201217,,,A*77
$GPGGA,082220.000,4806.8671,N,00139.4304,W,1,08,1.1,42.5,M,48.3,M,,0000*7A
$GPGSA,M,3,03,22,11,14,19,31,32,28,,,,,1.6,1.1,1.1*3E
$GPRMC,082220.000,A,4806.8671,N,00139.4304,W,0.46,100.86,201217,,,A*76
$GPGGA,082221.000,4806.8668,N,00139.4304,W,1,08,1.1,42.6,M,48.3,M,,0000*70
$GPGSA,M,3,03,22,11,14,19,31,32,28,,,,,1.6,1.1,1.1*3E
$GPGSV,3,1,12,03,79,266,17,22,75,060,14,11,50,144,19,14,27,048,18*79
$GPGSV,3,2,12,19,26,313,10,31,10,081,22,32,10,037,23,28,10,246,28*79
$GPGSV,3,3,12,01,67,103,20,17,44,298,04,36,26,138,,23,30,180,*7B
$GPRMC,082221.000,A,4806.8668,N,00139.4304,W,0.55,100.86,201217,,,A*7D
$GPGGA,082222.000,4806.8667,N,00139.4305,W,1,08,1.1,42.7,M,48.3,M,,0000*7C
$GPGSA,M,3,03,22,11,14,19,31,32,28,,,,,1.6,1.1,1.1*3E
$GPRMC,082222.000,A,4806.8667,N,00139.4305,W,0.23,100.86,201217,,,A*71
$GPGGA,082223.000,4806.8668,N,00139.4305,W,1,08,1.1,42.8,M,48.3,M,,0000*7D
$GPGSA,M,3,03,22,11,14,19,31,32,28,,,,,1.6,1.1,1.1*3E
$GPRMC,082223.000,A,4806.8668,N,00139.4305,W,0.25,100.86,201217,,,A*79
$GPGGA,082224.000,4806.8667,N,00139.4304,W,1,08,1.1,42.8,M,48.3,M,,0000*74
$GPGSA,M,3,03,22,11,14,19,31,32,28,,,,,1.6,1.1,1.1*3E
$GPRMC,082224.000,A,4806.8667,N,00139.4304,W,0.42,100.86,201217,,,A*71
$GPGGA,082225.000,4806.8668,N,00139.4304,W,1,07,1.1,42.7,M,48.3,M,,0000*7A
$GPGSA,M,3,03,22,11,19,31,32,28,,,,,,1.6,1.1,1.1*3B
$GPRMC,082225.000,A,4806.8668,N,00139.4304,W,0.22,100.86,201217,,,A*79
$GPGGA,082226.000,4806.8670,N,00139.4304,W,1,07,1.1,42.5,M,48.3,M,,0000*72
$GPGSA,M,3,03,22,11,19,31,32,28,,,,,,1.6,1.1,1.1*3B
$GPGSV,3,1,12,03,79,266,18,22,75,060,16,11,50,144,20,19,26,313,11*76
$GPGSV,3,2,12,31,10,081,22,32,10,037,23,28,10,246,28,01,67,103,20*75
$GPGSV,3,3,12,14,27,048,06,17,44,298,04,36,26,138,,23,30,180,*71
$GPRMC,082226.000,A,4806.8670,N,00139.4304,W,0.28,100.86,201217,,,A*79
$GPGGA,082227.000,4806.8671,N,00139.4305,W,1,08,1.1,42.3,M,48.3,M,,0000*7A
$GPGSA,M,3,03,22,11,14,19,31,32,28,,,,,1.6,1.1,1.1*3E
$GPRMC,082227.000,A,4806.8671,N,00139.4305,W,0.55,100.86,201217,,,A*72
$GPGGA,082228.000,4806.8670,N,00139.4305,W,1,08,1.1,42.2,M,48.3,M,,0000*75
$GPGSA,M,3,03,22,11,14,19,31,32,28,,,,,1.6,1.1,1.1*3E
$GPRMC,082228.000,A,4806.8670,N,00139.4305,W,0.19,100.86,201217,,,A*74
$GPGGA,082229.000,4806.8669,N,00139.4305,W,1,08,1.1,42.1,M,48.3,M,,0000*7F
at#cclk?
#CCLK: "17/12/20,09:19:54+04"
OKat#csurv
Network survey started ...
arfcn: 981 bsic: 46 rxLev: -49 ber: 0.00 mcc: 208 mnc: 20 lac: 418 cellId: 21807 cellStatus: CELL_SUITABLE numArfcn: 1 arfcn: 981 numChannels: 16 array: 979 982 983 985 1012 1014 1017 1019 1020 787 790 791 793 796 882 884 pbcch: 0 nom: 2 rac: 6 spgc: 0 pat: 6 nco: 0 t3168: 1500 t3192: 500 drxmax: 0 ctrlAck: 0 bsCVmax: 8 alpha: 6 pcMeasCh: 1 
arfcn: 985 bsic: 44 rxLev: -57 ber: 0.00 mcc: 208 mnc: 20 lac: 418 cellId: 21808 cellStatus: CELL_SUITABLE numArfcn: 1 arfcn: 985 numChannels: 17 array: 975 977 978 979 980 981 982 983 1011 1012 1014 1015 1017 1019 1020 1021 1022 pbcch: 0 nom: 2 rac: 6 spgc: 0 pat: 6 nco: 0 t3168: 1500 t3192: 500 drxmax: 0 ctrlAck: 0 bsCVmax: 8 alpha: 6 pcMeasCh: 1 
arfcn: 982 rxLev: -66
arfcn: 980 rxLev: -67
arfcn: 12 rxLev: -67
arfcn: 78 bsic: 2 rxLev: -69 ber: 0.00 mcc: 208 mnc: 10 lac: 49415 cellId: 45280 cellStatus: CELL_FORBIDDEN numArfcn: 2 arfcn: 78 116 numChannels: 20 array: 76 77 78 79 80 82 83 84 85 86 114 115 116 117 118 120 121 122 123 124 pbcch: 0 nom: 2 rac: 31 spgc: 0 pat: 6 nco: 0 t3168: 1000 t3192: 500 drxmax: 4 ctrlAck: 1 bsCVmax: 9 alpha: 10 pcMeasCh: 0 
arfcn: 991 rxLev: -72
arfcn: 992 rxLev: -72
arfcn: 994 rxLev: -72
arfcn: 996 rxLev: -72
arfcn: 995 rxLev: -72
arfcn: 993 rxLev: -72
arfcn: 990 rxLev: -72
arfcn: 997 rxLev: -73
arfcn: 1000 rxLev: -73
arfcn: 1001 rxLev: -73
arfcn: 998 rxLev: -73
arfcn: 999 rxLev: -73
arfcn: 1003 rxLev: -73
arfcn: 1002 rxLev: -74
arfcn: 1004 rxLev: -74
arfcn: 1005 rxLev: -74
arfcn: 1006 rxLev: -74
arfcn: 1008 rxLev: -74
arfcn: 986 rxLev: -74
arfcn: 1007 rxLev: -75
arfcn: 984 rxLev: -75
arfcn: 8 bsic: 48 rxLev: -76 ber: 0.00 mcc: 208 mnc: 01 lac: 10300 cellId: 6473 cellStatus: CELL_FORBIDDEN numArfcn: 13 arfcn: 8 17 18 19 20 21 22 23 24 25 47 48 49 numChannels: 18 array: 1 2 3 4 5 10 12 13 14 15 512 513 514 515 516 517 605 610 pbcch: 0 nom: 2 rac: 1 spgc: 0 pat: 6 nco: 0 t3168: 1000 t3192: 500 drxmax: 2 ctrlAck: 0 bsCVmax: 9 alpha: 5 pcMeasCh: 1 
arfcn: 10 bsic: 1 rxLev: -79 ber: 0.00 mcc: 208 mnc: 01 lac: 10300 cellId: 39884 cellStatus: CELL_FORBIDDEN numArfcn: 13 arfcn: 10 17 18 19 20 21 22 23 24 25 47 48 49 numChannels: 16 array: 5 6 7 11 15 16 512 514 516 517 518 604 605 608 609 610 pbcch: 0 nom: 2 rac: 1 spgc: 0 pat: 6 nco: 0 t3168: 1000 t3192: 500 drxmax: 2 ctrlAck: 0 bsCVmax: 9 alpha: 5 pcMeasCh: 1 
arfcn: 512 bsic: 25 rxLev: -79 ber: 0.00 mcc: 208 mnc: 01 lac: 10300 cellId: 40155 cellStatus: CELL_FORBIDDEN numArfcn: 16 arfcn: 519 520 521 522 523 524 525 526 596 597 598 599 600 601 602 603 numChannels: 16 array: 2 3 5 8 10 11 12 15 16 517 518 604 605 606 609 610 pbcch: 0 nom: 2 rac: 1 spgc: 0 pat: 6 nco: 0 t3168: 1000 t3192: 500 drxmax: 2 ctrlAck: 0 bsCVmax: 9 alpha: 5 pcMeasCh: 1 
arfcn: 989 rxLev: -80
arfcn: 39 rxLev: -81
arfcn: 36 rxLev: -81
arfcn: 37 rxLev: -81
arfcn: 34 rxLev: -81
arfcn: 35 rxLev: -81
arfcn: 40 rxLev: -81
arfcn: 33 rxLev: -82
arfcn: 38 rxLev: -82
arfcn: 605 bsic: 33 rxLev: -82 ber: 0.00 mcc: 208 mnc: 01 lac: 10300 cellId: 27588 cellStatus: CELL_FORBIDDEN numArfcn: 22 arfcn: 525 526 527 528 529 530 531 532 533 534 535 587 588 589 590 591 592 593 594 595 596 597 numChannels: 18 array: 1 3 5 8 12 15 512 513 514 515 516 517 518 604 605 606 607 609 pbcch: 0 nom: 2 rac: 1 spgc: 0 pat: 6 nco: 0 t3168: 1000 t3192: 500 drxmax: 2 ctrlAck: 0 bsCVmax: 9 alpha: 5 pcMeasCh: 1 
arfcn: 42 rxLev: -82
arfcn: 85 bsic: 0 rxLev: -82 ber: 0.00 mcc: 208 mnc: 10 lac: 49415 cellId: 44814 cellStatus: CELL_FORBIDDEN numArfcn: 2 arfcn: 85 119 numChannels: 20 array: 76 77 78 79 80 82 83 85 86 114 115 116 117 118 119 120 121 122 123 124 pbcch: 0 nom: 2 rac: 31 spgc: 0 pat: 6 nco: 0 t3168: 1000 t3192: 500 drxmax: 4 ctrlAck: 1 bsCVmax: 9 alpha: 10 pcMeasCh: 0 
arfcn: 43 rxLev: -83
arfcn: 41 rxLev: -83
arfcn: 32 rxLev: -83
arfcn: 28 rxLev: -83
arfcn: 29 rxLev: -83
arfcn: 30 rxLev: -83
arfcn: 44 rxLev: -83
arfcn: 1009 rxLev: -83
arfcn: 604 bsic: 20 rxLev: -84 ber: 0.00 mcc: 208 mnc: 01 lac: 10300 cellId: 39915 cellStatus: CELL_FORBIDDEN numArfcn: 16 arfcn: 519 520 521 522 523 524 525 526 596 597 598 599 600 601 602 603 numChannels: 13 array: 5 6 10 15 16 512 514 516 517 518 608 609 610 pbcch: 0 nom: 2 rac: 1 spgc: 0 pat: 6 nco: 0 t3168: 1000 t3192: 500 drxmax: 2 ctrlAck: 0 bsCVmax: 9 alpha: 5 pcMeasCh: 1 
arfcn: 45 rxLev: -84
arfcn: 31 rxLev: -84
arfcn: 27 rxLev: -84
arfcn: 95 rxLev: -84
arfcn: 124 bsic: 2 rxLev: -84 ber: 0.00 mcc: 208 mnc: 10 lac: 49415 cellId: 43517 cellStatus: CELL_FORBIDDEN numArfcn: 2 arfcn: 112 124 numChannels: 14 array: 76 77 78 80 82 85 114 115 117 118 120 121 122 124 pbcch: 0 nom: 2 rac: 31 spgc: 0 pat: 6 nco: 0 t3168: 1000 t3192: 500 drxmax: 4 ctrlAck: 1 bsCVmax: 9 alpha: 10 pcMeasCh: 0 
arfcn: 793 rxLev: -84
arfcn: 800 rxLev: -84
arfcn: 96 rxLev: -84
arfcn: 97 rxLev: -84
arfcn: 99 rxLev: -84
arfcn: 98 rxLev: -85
arfcn: 100 rxLev: -85
arfcn: 101 rxLev: -85
arfcn: 105 rxLev: -85
arfcn: 93 rxLev: -85
arfcn: 5 bsic: 1 rxLev: -85 ber: 0.00 mcc: 208 mnc: 01 lac: 10300 cellId: 40079 cellStatus: CELL_FORBIDDEN numArfcn: 13 arfcn: 5 17 18 19 20 21 22 23 24 25 47 48 49 numChannels: 20 array: 1 2 3 4 5 8 9 10 11 13 14 15 16 512 513 518 604 606 608 610 pbcch: 0 nom: 2 rac: 1 spgc: 0 pat: 6 nco: 0 t3168: 1000 t3192: 500 drxmax: 2 ctrlAck: 0 bsCVmax: 9 alpha: 5 pcMeasCh: 1 
arfcn: 798 rxLev: -85
arfcn: 2 bsic: 54 rxLev: -85 ber: 0.00 mcc: 208 mnc: 01 lac: 10300 cellId: 42646 cellStatus: CELL_FORBIDDEN numArfcn: 13 arfcn: 2 17 18 19 20 21 22 23 24 25 47 48 49 numChannels: 22 array: 1 5 6 7 8 10 12 13 15 16 512 514 515 516 517 518 604 606 607 608 609 610 pbcch: 0 nom: 2 rac: 1 spgc: 0 pat: 6 nco: 0 t3168: 1000 t3192: 500 drxmax: 2 ctrlAck: 0 bsCVmax: 9 alpha: 5 pcMeasCh: 1 
arfcn: 11 rxLev: -85
arfcn: 13 rxLev: -85
arfcn: 62 rxLev: -85
arfcn: 94 rxLev: -85
arfcn: 106 rxLev: -85
arfcn: 103 rxLev: -85
arfcn: 102 rxLev: -86
arfcn: 107 rxLev: -86
arfcn: 104 rxLev: -86
arfcn: 92 rxLev: -86
arfcn: 91 rxLev: -86
arfcn: 108 rxLev: -86
arfcn: 63 rxLev: -86
arfcn: 1017 bsic: 33 rxLev: -86 ber: 0.00 mcc: 208 mnc: 20 lac: 418 cellId: 20104 cellStatus: CELL_SUITABLE numArfcn: 3 arfcn: 986 987 1017 numChannels: 20 array: 788 790 885 975 976 978 979 980 981 982 986 987 1011 1012 1015 1017 1019 1020 1021 1022 pbcch: 0 nom: 2 rac: 7 spgc: 0 pat: 6 nco: 0 t3168: 1500 t3192: 500 drxmax: 4 ctrlAck: 1 bsCVmax: 8 alpha: 6 pcMeasCh: 1 
arfcn: 804 rxLev: -86
arfcn: 821 rxLev: -86
arfcn: 61 rxLev: -87
arfcn: 46 rxLev: -87
arfcn: 109 rxLev: -87
arfcn: 79 rxLev: -87
arfcn: 77 rxLev: -87
arfcn: 64 rxLev: -87
arfcn: 68 rxLev: -87
arfcn: 69 rxLev: -87
arfcn: 70 rxLev: -87
arfcn: 58 rxLev: -87
arfcn: 26 rxLev: -87
arfcn: 515 bsic: 34 rxLev: -87 ber: 0.00 mcc: 208 mnc: 01 lac: 10300 cellId: 27586 cellStatus: CELL_FORBIDDEN numArfcn: 16 arfcn: 519 520 521 522 523 524 525 526 596 597 598 599 600 601 602 603 numChannels: 9 array: 1 8 12 512 513 516 605 606 607 pbcch: 0 nom: 2 rac: 1 spgc: 0 pat: 6 nco: 0 t3168: 1000 t3192: 500 drxmax: 2 ctrlAck: 0 bsCVmax: 9 alpha: 5 pcMeasCh: 1 
arfcn: 606 rxLev: -87
arfcn: 813 rxLev: -87
arfcn: 835 rxLev: -87
arfcn: 845 rxLev: -87
arfcn: 847 rxLev: -87
arfcn: 797 rxLev: -87
arfcn: 799 rxLev: -87
arfcn: 812 rxLev: -88
arfcn: 849 rxLev: -88
arfcn: 57 rxLev: -88
arfcn: 60 rxLev: -88
arfcn: 67 rxLev: -88
arfcn: 114 bsic: 6 rxLev: -88 ber: 0.00 mcc: 208 mnc: 10 lac: 49415 cellId: 44202 cellStatus: CELL_FORBIDDEN numArfcn: 2 arfcn: 80 114 numChannels: 20 array: 76 77 78 79 80 84 85 86 113 114 115 116 117 118 119 120 121 122 123 124 pbcch: 0 nom: 2 rac: 31 spgc: 0 pat: 6 nco: 0 t3168: 1000 t3192: 500 drxmax: 4 ctrlAck: 1 bsCVmax: 9 alpha: 10 pcMeasCh: 0 
arfcn: 56 rxLev: -88
arfcn: 53 rxLev: -88
arfcn: 54 rxLev: -88
arfcn: 829 rxLev: -88
arfcn: 831 rxLev: -88
arfcn: 832 rxLev: -88
arfcn: 837 rxLev: -88
arfcn: 801 rxLev: -88
arfcn: 794 rxLev: -88
arfcn: 791 rxLev: -88
arfcn: 792 rxLev: -89
arfcn: 795 rxLev: -89
arfcn: 796 rxLev: -89
arfcn: 803 rxLev: -89
arfcn: 805 rxLev: -89
arfcn: 806 rxLev: -89
arfcn: 839 rxLev: -89
arfcn: 833 rxLev: -89
arfcn: 814 rxLev: -89
arfcn: 815 rxLev: -89
arfcn: 820 rxLev: -89
arfcn: 55 rxLev: -89
arfcn: 59 rxLev: -89
arfcn: 122 bsic: 3 rxLev: -89 ber: 0.00 mcc: 208 mnc: 10 lac: 49415 cellId: 33517 cellStatus: CELL_FORBIDDEN numArfcn: 3 arfcn: 77 88 122 numChannels: 17 array: 77 78 79 80 82 84 85 86 114 115 117 118 119 120 122 123 124 pbcch: 0 nom: 2 rac: 31 spgc: 0 pat: 6 nco: 0 t3168: 1000 t3192: 500 drxmax: 4 ctrlAck: 1 bsCVmax: 9 alpha: 10 pcMeasCh: 0 
arfcn: 71 rxLev: -89
arfcn: 90 rxLev: -89
arfcn: 66 rxLev: -89
arfcn: 513 bsic: 27 rxLev: -89 ber: 3.01 mcc: 208 mnc: 01 lac: 10300 cellId: 27587 cellStatus: CELL_FORBIDDEN numArfcn: 16 arfcn: 519 520 521 522 523 524 525 526 596 597 598 599 600 601 602 603 numChannels: 14 array: 1 4 8 12 512 513 515 516 517 518 605 606 607 609 pbcch: 0 nom: 2 rac: 1 spgc: 0 pat: 6 nco: 0 t3168: 1000 t3192: 500 drxmax: 2 ctrlAck: 0 bsCVmax: 9 alpha: 5 pcMeasCh: 1 
arfcn: 827 rxLev: -89
arfcn: 840 rxLev: -89
arfcn: 876 rxLev: -89
arfcn: 810 rxLev: -89
arfcn: 802 rxLev: -89
arfcn: 807 rxLev: -90
arfcn: 808 rxLev: -90
arfcn: 861 rxLev: -90
arfcn: 851 rxLev: -90
arfcn: 848 rxLev: -90
arfcn: 838 rxLev: -90
arfcn: 841 rxLev: -90
arfcn: 843 rxLev: -90
arfcn: 830 rxLev: -90
arfcn: 819 rxLev: -90
arfcn: 817 rxLev: -90
arfcn: 818 rxLev: -90
arfcn: 1016 rxLev: -90
arfcn: 1014 bsic: 31 rxLev: -90 ber: 0.00 mcc: 208 mnc: 20 lac: 418 cellId: 20649 cellStatus: CELL_SUITABLE numArfcn: 1 arfcn: 1014 numChannels: 25 array: 788 789 790 791 793 795 796 879 884 977 978 979 980 981 982 983 984 985 987 1012 1013 1017 1020 1021 1022 pbcch: 0 nom: 2 rac: 6 spgc: 0 pat: 6 nco: 0 t3168: 1500 t3192: 500 drxmax: 0 ctrlAck: 0 bsCVmax: 8 alpha: 6 pcMeasCh: 1 
arfcn: 65 rxLev: -90
arfcn: 1 rxLev: -90
arfcn: 9 rxLev: -90
arfcn: 80 bsic: 47 rxLev: -90 ber: 0.00 mcc: 208 mnc: 10 lac: 49415 cellId: 23568 cellStatus: CELL_FORBIDDEN numArfcn: 2 arfcn: 80 89 numChannels: 19 array: 76 77 78 80 82 83 84 85 113 114 115 116 117 118 119 120 122 123 124 pbcch: 0 nom: 2 rac: 31 spgc: 0 pat: 6 nco: 0 t3168: 1000 t3192: 500 drxmax: 4 ctrlAck: 1 bsCVmax: 9 alpha: 10 pcMeasCh: 0 
arfcn: 117 bsic: 12 rxLev: -90 ber: 0.00 mcc: 208 mnc: 10 lac: 49415 cellId: 3568 cellStatus: CELL_FORBIDDEN numArfcn: 2 arfcn: 82 117 numChannels: 17 array: 76 77 78 79 80 83 84 85 87 113 114 116 117 120 122 123 124 pbcch: 0 nom: 2 rac: 31 spgc: 0 pat: 6 nco: 0 t3168: 1000 t3192: 500 drxmax: 4 ctrlAck: 1 bsCVmax: 9 alpha: 10 pcMeasCh: 0 
arfcn: 110 rxLev: -90
arfcn: 979 bsic: 19 rxLev: -90 ber: 0.00 mcc: 208 mnc: 20 lac: 418 cellId: 20718 cellStatus: CELL_SUITABLE numArfcn: 1 arfcn: 979 numChannels: 22 array: 788 789 790 792 793 795 878 882 884 977 981 983 984 985 986 987 1012 1013 1014 1017 1019 1020 pbcch: 0 nom: 2 rac: 6 spgc: 0 pat: 6 nco: 0 t3168: 1500 t3192: 500 drxmax: 0 ctrlAck: 0 bsCVmax: 8 alpha: 6 pcMeasCh: 1 
arfcn: 828 rxLev: -90
arfcn: 826 rxLev: -90
arfcn: 822 rxLev: -90
arfcn: 823 rxLev: -90
arfcn: 834 rxLev: -90
arfcn: 842 rxLev: -90
arfcn: 846 rxLev: -90
arfcn: 850 rxLev: -90
arfcn: 857 rxLev: -90
arfcn: 858 rxLev: -90
arfcn: 859 rxLev: -90
arfcn: 809 rxLev: -90
arfcn: 811 rxLev: -90
arfcn: 860 rxLev: -91
arfcn: 854 rxLev: -91
arfcn: 855 rxLev: -91
arfcn: 862 rxLev: -91
arfcn: 866 rxLev: -91
arfcn: 871 rxLev: -91
arfcn: 844 rxLev: -91
arfcn: 825 rxLev: -91
arfcn: 816 rxLev: -91
arfcn: 983 bsic: 21 rxLev: -91 ber: 0.10 mcc: 208 mnc: 20 lac: 418 cellId: 21809 cellStatus: CELL_SUITABLE numArfcn: 1 arfcn: 983 numChannels: 24 array: 788 790 792 793 795 796 878 882 884 976 977 979 981 985 986 987 1012 1013 1014 1016 1017 1019 1020 1022 pbcch: 0 nom: 2 rac: 6 spgc: 0 pat: 6 nco: 0 t3168: 1500 t3192: 500 drxmax: 0 ctrlAck: 0 bsCVmax: 8 alpha: 6 pcMeasCh: 1 
arfcn: 14 bsic: 35 rxLev: -91 ber: 0.00 mcc: 208 mnc: 01 lac: 10300 cellId: 39250 cellStatus: CELL_FORBIDDEN numArfcn: 13 arfcn: 14 17 18 19 20 21 22 23 24 25 47 48 49 numChannels: 13 array: 1 3 4 6 8 10 12 512 513 514 517 604 608 pbcch: 0 nom: 2 rac: 1 spgc: 0 pat: 6 nco: 0 t3168: 1000 t3192: 500 drxmax: 2 ctrlAck: 0 bsCVmax: 9 alpha: 5 pcMeasCh: 1 
arfcn: 72 rxLev: -91
arfcn: 836 rxLev: -91
arfcn: 874 rxLev: -91
arfcn: 864 rxLev: -91
arfcn: 856 rxLev: -91
arfcn: 853 rxLev: -91
arfcn: 852 rxLev: -91
arfcn: 865 rxLev: -92
arfcn: 873 rxLev: -92
arfcn: 872 rxLev: -92
arfcn: 824 rxLev: -92
arfcn: 878 rxLev: -92
arfcn: 120 bsic: 59 rxLev: -92 ber: 0.04 mcc: 208 mnc: 10 lac: 49415 cellId: 13571 cellStatus: CELL_FORBIDDEN numArfcn: 2 arfcn: 111 120 numChannels: 14 array: 76 77 79 80 83 84 85 114 115 116 117 120 122 124 pbcch: 0 nom: 2 rac: 31 spgc: 0 pat: 6 nco: 0 t3168: 1000 t3192: 500 drxmax: 4 ctrlAck: 1 bsCVmax: 9 alpha: 10 pcMeasCh: 0 
arfcn: 52 rxLev: -92
arfcn: 608 rxLev: -92
arfcn: 877 rxLev: -92
arfcn: 870 rxLev: -92
arfcn: 875 rxLev: -92
arfcn: 867 rxLev: -92
arfcn: 868 rxLev: -92
arfcn: 863 rxLev: -92
arfcn: 869 rxLev: -93
arfcn: 879 rxLev: -93
arfcn: 880 rxLev: -93
arfcn: 3 rxLev: -93
arfcn: 4 bsic: 54 rxLev: -93 ber: 4.06 mcc: 208 mnc: 01 lac: 10300 cellId: 43768 cellStatus: CELL_FORBIDDEN numArfcn: 13 arfcn: 4 17 18 19 20 21 22 23 24 25 47 48 49 numChannels: 20 array: 1 3 5 6 7 8 12 13 14 513 514 515 517 518 601 605 606 608 609 610 pbcch: 0 nom: 2 rac: 1 spgc: 0 pat: 6 nco: 0 t3168: 1000 t3192: 500 drxmax: 2 ctrlAck: 0 bsCVmax: 9 alpha: 5 pcMeasCh: 1 
arfcn: 47 rxLev: -93
arfcn: 7 rxLev: -94
arfcn: 25 rxLev: -94
arfcn: 123 bsic: 1 rxLev: -94 ber: 15.04 mcc: 208 mnc: 10 lac: 49415 cellId: 41634 cellStatus: CELL_FORBIDDEN numArfcn: 2 arfcn: 87 123 numChannels: 0 array:
arfcn: 115 bsic: 43 rxLev: -94 ber: 0.00 mcc: 208 mnc: 10 lac: 49415 cellId: 55710 cellStatus: CELL_FORBIDDEN numArfcn: 2 arfcn: 87 115 numChannels: 22 array: 76 77 78 79 80 82 83 84 85 86 113 114 115 116 117 118 119 120 121 122 123 124 pbcch: 0 nom: 2 rac: 31 spgc: 0 pat: 6 nco: 0 t3168: 1000 t3192: 500 drxmax: 4 ctrlAck: 1 bsCVmax: 9 alpha: 10 pcMeasCh: 0 
arfcn: 609 rxLev: -94
arfcn: 987 bsic: 40 rxLev: -95 ber: 8.08 mcc: 208 mnc: 20 lac: 418 cellId: 22381 cellStatus: CELL_SUITABLE numArfcn: 0 arfcn: numChannels: 7 array: 790 792 793 796 878 882 884
arfcn: 514 bsic: 1 rxLev: -95 ber: 0.00 mcc: 208 mnc: 01 lac: 10300 cellId: 39259 cellStatus: CELL_FORBIDDEN numArfcn: 16 arfcn: 519 520 521 522 523 524 525 526 596 597 598 599 600 601 602 603 numChannels: 13 array: 1 6 8 10 12 14 512 513 517 604 605 606 608 pbcch: 0 nom: 2 rac: 1 spgc: 0 pat: 6 nco: 0 t3168: 1000 t3192: 500 drxmax: 2 ctrlAck: 0 bsCVmax: 9 alpha: 5 pcMeasCh: 1 
arfcn: 1015 rxLev: -95
arfcn: 1020 bsic: 39 rxLev: -95 ber: 0.00 mcc: 208 mnc: 20 lac: 418 cellId: 38980 cellStatus: CELL_SUITABLE numArfcn: 1 arfcn: 1020 numChannels: 26 array: 787 788 790 791 793 795 796 879 884 885 978 979 981 982 983 985 986 987 1011 1012 1013 1014 1015 1017 1019 1022 pbcch: 0 nom: 2 rac: 6 spgc: 0 pat: 6 nco: 0 t3168: 1500 t3192: 500 drxmax: 0 ctrlAck: 0 bsCVmax: 8 alpha: 6 pcMeasCh: 1 
arfcn: 118 bsic: 3 rxLev: -95 ber: 0.00 mcc: 208 mnc: 10 lac: 49415 cellId: 45270 cellStatus: CELL_FORBIDDEN numArfcn: 2 arfcn: 86 118 numChannels: 22 array: 76 77 78 79 80 81 82 83 84 85 86 114 115 116 117 118 119 120 121 122 123 124 pbcch: 0 nom: 2 rac: 31 spgc: 0 pat: 6 nco: 0 t3168: 1000 t3192: 500 drxmax: 4 ctrlAck: 1 bsCVmax: 9 alpha: 10 pcMeasCh: 0 
arfcn: 881 rxLev: -95
arfcn: 729 rxLev: -96
arfcn: 76 rxLev: -96
arfcn: 89 rxLev: -96
arfcn: 978 bsic: 47 rxLev: -96 ber: 9.08 mcc: FFF mnc: FF lac: 65535 cellId: 0 cellStatus: CELL_OTHER numArfcn: 0 arfcn: numChannels: 8 array: 787 788 793 794 879 881 882 885
arfcn: 516 bsic: 38 rxLev: -96 ber: 11.03 mcc: FFF mnc: FF lac: 65535 cellId: 0 cellStatus: CELL_OTHER numArfcn: 16 arfcn: 519 520 521 522 523 524 525 526 596 597 598 599 600 601 602 603 numChannels: 8 array: 1 2 6 7 9 10 11 15
arfcn: 6 rxLev: -96
arfcn: 788 bsic: 63 rxLev: -97 ber: 0.00 mcc: 208 mnc: 20 lac: 418 cellId: 20615 cellStatus: CELL_SUITABLE numArfcn: 1 arfcn: 788 numChannels: 24 array: 787 789 790 792 796 879 883 885 975 978 980 981 982 983 985 986 987 1011 1014 1015 1017 1018 1019 1021 pbcch: 0 nom: 2 rac: 7 spgc: 0 pat: 6 nco: 0 t3168: 1500 t3192: 500 drxmax: 0 ctrlAck: 0 bsCVmax: 8 alpha: 6 pcMeasCh: 1 
arfcn: 1021 bsic: 35 rxLev: -97 ber: 7.10 mcc: 208 mnc: 20 lac: 418 cellId: 20102 cellStatus: CELL_SUITABLE numArfcn: 3 arfcn: 975 982 1021 numChannels: 21 array: 788 790 880 885 975 976 977 978 980 981 982 986 987 1011 1012 1015 1017 1019 1020 1021 1022 pbcch: 0 nom: 2 rac: 7 spgc: 0 pat: 6 nco: 0 t3168: 1500 t3192: 500 drxmax: 4 ctrlAck: 1 bsCVmax: 8 alpha: 6 pcMeasCh: 1 
arfcn: 610 rxLev: -97
arfcn: 82 bsic: 63 rxLev: -98 ber: 0.00 mcc: 208 mnc: 10 lac: 49415 cellId: 53517 cellStatus: CELL_FORBIDDEN numArfcn: 2 arfcn: 82 84 numChannels: 17 array: 76 77 78 79 80 82 85 86 114 115 118 119 120 121 122 123 124 pbcch: 0 nom: 2 rac: 31 spgc: 0 pat: 6 nco: 0 t3168: 1000 t3192: 500 drxmax: 4 ctrlAck: 1 bsCVmax: 9 alpha: 10 pcMeasCh: 0 
arfcn: 111 rxLev: -98
arfcn: 726 rxLev: -98
arfcn: 721 rxLev: -98
arfcn: 716 rxLev: -98
arfcn: 720 rxLev: -98
arfcn: 731 rxLev: -98
arfcn: 736 rxLev: -99
arfcn: 719 rxLev: -99
arfcn: 778 rxLev: -99
arfcn: 779 rxLev: -99
arfcn: 84 rxLev: -99
arfcn: 1019 rxLev: -99
arfcn: 1023 rxLev: -99
arfcn: 1013 rxLev: -99
arfcn: 518 rxLev: -99
arfcn: 988 rxLev: -99
arfcn: 83 rxLev: -99
arfcn: 73 rxLev: -99
arfcn: 121 rxLev: -99
arfcn: 977 rxLev: -99
arfcn: 15 rxLev: -99
arfcn: 51 rxLev: -99
arfcn: 748 rxLev: -99
arfcn: 717 rxLev: -99
arfcn: 715 rxLev: -99
arfcn: 725 rxLev: -99
arfcn: 727 rxLev: -99
arfcn: 728 rxLev: -99
arfcn: 733 rxLev: -99
arfcn: 738 rxLev: -99
arfcn: 739 rxLev: -99
arfcn: 732 rxLev: -100
arfcn: 722 rxLev: -100
arfcn: 724 rxLev: -100
arfcn: 747 rxLev: -100
arfcn: 746 rxLev: -100
arfcn: 750 rxLev: -100
arfcn: 1011 rxLev: -100
arfcn: 1018 rxLev: -100
arfcn: 659 rxLev: -100
arfcn: 662 rxLev: -100
arfcn: 667 rxLev: -100
arfcn: 669 rxLev: -100
arfcn: 976 rxLev: -100
arfcn: 975 rxLev: -100
arfcn: 75 rxLev: -100
arfcn: 86 rxLev: -100
arfcn: 752 rxLev: -100
arfcn: 755 rxLev: -100
arfcn: 756 rxLev: -100
arfcn: 763 rxLev: -100
arfcn: 772 rxLev: -100
arfcn: 773 rxLev: -100
arfcn: 774 rxLev: -100
arfcn: 780 rxLev: -100
arfcn: 723 rxLev: -100
arfcn: 730 rxLev: -100
arfcn: 734 rxLev: -100
arfcn: 740 rxLev: -100
arfcn: 737 rxLev: -100
arfcn: 741 rxLev: -100
arfcn: 742 rxLev: -101
arfcn: 743 rxLev: -101
arfcn: 680 rxLev: -101
arfcn: 764 rxLev: -101
arfcn: 765 rxLev: -101
arfcn: 754 rxLev: -101
arfcn: 757 rxLev: -101
arfcn: 758 rxLev: -101
arfcn: 751 rxLev: -101
arfcn: 745 rxLev: -101
arfcn: 670 rxLev: -101
arfcn: 668 rxLev: -101
arfcn: 661 rxLev: -101
arfcn: 635 rxLev: -101
arfcn: 603 rxLev: -101
arfcn: 1012 rxLev: -101
arfcn: 639 rxLev: -101
arfcn: 625 rxLev: -101
arfcn: 617 rxLev: -101
arfcn: 663 rxLev: -101
arfcn: 660 rxLev: -101
arfcn: 658 rxLev: -101
arfcn: 665 rxLev: -101
arfcn: 759 rxLev: -101
arfcn: 775 rxLev: -101
arfcn: 776 rxLev: -101
arfcn: 771 rxLev: -101
arfcn: 769 rxLev: -101
arfcn: 770 rxLev: -101
arfcn: 777 rxLev: -101
arfcn: 781 rxLev: -101
arfcn: 673 rxLev: -101
arfcn: 718 rxLev: -101
arfcn: 744 rxLev: -102
arfcn: 735 rxLev: -102
arfcn: 674 rxLev: -102
arfcn: 682 rxLev: -102
arfcn: 704 rxLev: -102
arfcn: 767 rxLev: -102
arfcn: 761 rxLev: -102
arfcn: 762 rxLev: -102
arfcn: 753 rxLev: -102
arfcn: 749 rxLev: -102
arfcn: 671 rxLev: -102
arfcn: 672 rxLev: -102
arfcn: 664 rxLev: -102
arfcn: 643 rxLev: -102
arfcn: 645 rxLev: -102
arfcn: 646 rxLev: -102
arfcn: 622 rxLev: -102
arfcn: 630 rxLev: -102
arfcn: 636 rxLev: -102
arfcn: 633 rxLev: -102
arfcn: 16 rxLev: -102
arfcn: 21 rxLev: -102
arfcn: 116 rxLev: -102
arfcn: 629 rxLev: -102
arfcn: 631 rxLev: -102
arfcn: 632 rxLev: -102
arfcn: 626 rxLev: -102
arfcn: 624 rxLev: -102
arfcn: 618 rxLev: -102
arfcn: 644 rxLev: -102
arfcn: 650 rxLev: -102
arfcn: 653 rxLev: -102
arfcn: 655 rxLev: -102
arfcn: 657 rxLev: -102
arfcn: 768 rxLev: -102
arfcn: 782 rxLev: -102
arfcn: 677 rxLev: -102
arfcn: 675 rxLev: -103
arfcn: 684 rxLev: -103
arfcn: 703 rxLev: -103
arfcn: 698 rxLev: -103
arfcn: 766 rxLev: -103
arfcn: 760 rxLev: -103
arfcn: 656 rxLev: -103
arfcn: 647 rxLev: -103
arfcn: 648 rxLev: -103
arfcn: 623 rxLev: -103
arfcn: 607 rxLev: -103
arfcn: 627 rxLev: -103
arfcn: 628 rxLev: -103
arfcn: 634 rxLev: -103
arfcn: 638 rxLev: -103
arfcn: 1010 rxLev: -103
arfcn: 81 rxLev: -103
arfcn: 48 rxLev: -103
arfcn: 74 rxLev: -103
arfcn: 1022 rxLev: -103
arfcn: 526 rxLev: -103
arfcn: 637 rxLev: -103
arfcn: 640 rxLev: -103
arfcn: 621 rxLev: -103
arfcn: 620 rxLev: -103
arfcn: 641 rxLev: -103
arfcn: 651 rxLev: -103
arfcn: 666 rxLev: -103
arfcn: 790 rxLev: -103
arfcn: 697 rxLev: -103
arfcn: 702 rxLev: -103
arfcn: 689 rxLev: -103
arfcn: 688 rxLev: -103
arfcn: 676 rxLev: -103
arfcn: 678 rxLev: -103
arfcn: 679 rxLev: -103
arfcn: 687 rxLev: -104
arfcn: 683 rxLev: -104
arfcn: 690 rxLev: -104
arfcn: 691 rxLev: -104
arfcn: 699 rxLev: -104
arfcn: 649 rxLev: -104
arfcn: 654 rxLev: -104
arfcn: 642 rxLev: -104
arfcn: 619 rxLev: -104
arfcn: 517 rxLev: -104
arfcn: 119 rxLev: -104
arfcn: 22 rxLev: -104
arfcn: 0 rxLev: -104
arfcn: 23 rxLev: -104
arfcn: 113 rxLev: -104
arfcn: 692 rxLev: -104
arfcn: 694 rxLev: -104
arfcn: 695 rxLev: -104
arfcn: 681 rxLev: -104
arfcn: 686 rxLev: -104
arfcn: 705 rxLev: -104
arfcn: 693 rxLev: -105
arfcn: 700 rxLev: -105
arfcn: 701 rxLev: -105
arfcn: 24 rxLev: -105
arfcn: 546 rxLev: -105
arfcn: 652 rxLev: -105
arfcn: 611 rxLev: -105
arfcn: 523 rxLev: -105
arfcn: 20 rxLev: -105
arfcn: 19 rxLev: -105
arfcn: 49 rxLev: -105
arfcn: 50 rxLev: -105
arfcn: 696 rxLev: -105
arfcn: 685 rxLev: -105
arfcn: 706 rxLev: -105
arfcn: 18 rxLev: -106
arfcn: 17 rxLev: -106
arfcn: 545 rxLev: -106
arfcn: 549 rxLev: -106
arfcn: 786 rxLev: -106
arfcn: 87 rxLev: -107
arfcn: 88 rxLev: -107
arfcn: 112 rxLev: -107
arfcn: 563 rxLev: -108
arfcn: 565 rxLev: -108
arfcn: 602 rxLev: -108
arfcn: 574 rxLev: -108
arfcn: 598 rxLev: -108
arfcn: 789 rxLev: -108
Network survey ended
OKat#cclk?
#CCLK: "17/12/20,09:22:29+04"
OK$GPGSA,M,3,03,22,11,14,19,31,32,28,,,,,1.6,1.1,1.1*3E
$GPRMC,082229.000,A,4806.8669,N,00139.4305,W,0.08,100.86,201217,,,A*7D
$GPGGA,082230.000,4806.8668,N,00139.4306,W,1,08,1.1,42.1,M,48.3,M,,0000*75
at#cclk?
#CCLK: "17/12/20,09:22:29+04"
OKat#csurv
Network survey started ...
ERRORat#cclk?
#CCLK: "17/12/20,09:22:30+04"
OK$GPGSA,M,3,03,22,11,14,19,31,32,28,,,,,1.6,1.1,1.1*3E
$GPRMC,082230.000,A,4806.8668,N,00139.4306,W,0.20,100.86,201217,,,A*7D
at#cclk?
#CCLK: "17/12/20,09:22:30+04"
OKat#csurv
Network survey started ...
ERRORat#cclk?
at#ccl
#CCLK: "17/12/20,09:22:30+04"
OK$GPGGA,082231.000,4806.8665,N,00139.4315,W,1,08,1.1,41.1,M,48.3,M,,0000*78
$GPGSA,M,3,03,22,11,14,19,31,32,28,,,,,1.6,1.1,1.1*3E
$GPGSV,3,1,12,03,80,267,18,22,75,060,16,11,50,144,20,14,27,048,09*79
$GPGSV,3,2,12,19,27,313,10,31,10,080,23,32,10,037,23,28,09,246,28*70
$GPGSV,3,3,12,01,67,103,19,36,26,138,,17,44,298,,23,30,180,*75
$GPRMC,082231.000,A,4806.8665,N,00139.4315,W,0.19,100.86,201217,,,A*79
$GPGGA,082232.000,4806.8662,N,00139.4316,W,1,08,1.1,41.1,M,48.3,M,,0000*7F
$GPGSA,M,3,03,22,11,14,19,31,32,28,,,,,1.6,1.1,1.1*3E
$GPRMC,082232.000,A,4806.8662,N,00139.4316,W,0.50,100.86,201217,,,A*73
$GPGGA,082233.000,4806.8662,N,00139.4318,W,1,08,1.1,40.9,M,48.3,M,,0000*79
$GPGSA,M,3,03,22,11,14,19,31,32,28,,,,,1.6,1.1,1.1*3E
$GPRMC,082233.000,A,4806.8662,N,00139.4318,W,0.26,100.86,201217,,,A*7D
$GPGGA,082234.000,4806.8663,N,00139.4319,W,1,08,1.1,40.6,M,48.3,M,,0000*71
$GPGSA,M,3,03,22,11,14,19,31,32,28,,,,,1.6,1.1,1.1*3E
