$GPGSA,M,3,01,32,14,27,10,,,,,,,,3.3,1.5,2.9*30
$GPRMC,025707.000,A,4806.8483,N,00139.4045,W,5.88,90.91,060218,,,A*41
Survey start at #CCLK: "18/02/06,03:57:07+04"
at#csurv
Network survey started ...
Survey end at #CCLK: "18/02/06,03:57:07+04"
Survey duration: 0 seconds, 0 bases detected over 0 freqs scanned.
$GPGGA,025708.000,4806.8499,N,00139.4028,W,1,05,1.5,185.0,M,48.3,M,,0000*47
$GPGSA,M,3,01,32,14,27,10,,,,,,,,3.3,1.5,2.9*30
$GPGSV,3,1,11,01,53,282,18,32,32,085,23,14,27,111,23,27,27,141,16*72
$GPGSV,3,2,11,10,23,049,14,33,33,198,,08,65,158,,11,63,291,*78
$GPGSV,3,3,11,22,45,211,,28,31,302,,03,24,215,*40
$GPRMC,025708.000,A,4806.8499,N,00139.4028,W,5.84,95.40,060218,,,A*4B
$GPGGA,025709.000,4806.8511,N,00139.4011,W,1,05,1.5,189.9,M,48.3,M,,0000*48
$GPGSA,M,3,01,32,14,27,10,,,,,,,,3.3,1.5,2.9*30
$GPRMC,025709.000,A,4806.8511,N,00139.4011,W,6.02,98.73,060218,,,A*41
$GPGGA,025710.000,4806.8529,N,00139.3999,W,1,05,1.5,193.5,M,48.3,M,,0000*42
Survey start at #CCLK: "18/02/06,03:57:09+04"
$GPGSA,M,3,01,32,14,27,10,,,,,,,,3.3,1.5,2.9*30
at#csurv
Network survey started ...
$GPRMC,025710.000,A,4806.8529,N,00139.3999,W,4.97,101.98,060218,,,A*76
$GPGGA,025711.000,4806.8548,N,00139.3987,W,1,05,1.5,195.8,M,48.3,M,,0000*40
$GPGSA,M,3,01,32,14,27,10,,,,,,,,3.3,1.5,2.9*30
$GPRMC,025711.000,A,4806.8548,N,00139.3987,W,4.86,108.34,060218,,,A*70
$GPGGA,025712.000,4806.8566,N,00139.3974,W,1,05,1.5,195.9,M,48.3,M,,0000*42
$GPGSA,M,3,01,32,14,27,10,,,,,,,,3.3,1.5,2.9*30
$GPRMC,025712.000,A,4806.8566,N,00139.3974,W,4.14,116.99,060218,,,A*70
$GPGGA,025713.000,4806.8581,N,00139.3964,W,1,05,1.5,195.9,M,48.3,M,,0000*4B
$GPGSA,M,3,01,32,14,27,10,,,,,,,,3.3,1.5,2.9*30
$GPGSV,3,1,11,01,53,282,17,32,32,085,24,14,27,111,23,27,27,141,16*7A
$GPGSV,3,2,11,10,23,049,14,33,33,198,,08,65,158,,11,63,291,*78
$GPGSV,3,3,11,22,45,211,,28,31,302,,03,24,215,*40
$GPRMC,025713.000,A,4806.8581,N,00139.3964,W,3.12,116.88,060218,,,A*78
$GPGGA,025714.000,4806.8590,N,00139.3961,W,1,05,1.5,194.7,M,48.3,M,,0000*46
$GPGSA,M,3,01,32,14,27,10,,,,,,,,3.3,1.5,2.9*30
$GPRMC,025714.000,A,4806.8590,N,00139.3961,W,3.76,121.83,060218,,,A*77
$GPGGA,025715.000,4806.8596,N,00139.3961,W,1,05,1.5,191.0,M,48.3,M,,0000*43
$GPGSA,M,3,01,32,14,27,10,,,,,,,,3.3,1.5,2.9*30
$GPRMC,025715.000,A,4806.8596,N,00139.3961,W,3.05,128.52,060218,,,A*71
$GPGGA,025716.000,4806.8601,N,00139.3961,W,1,05,1.5,187.4,M,48.3,M,,0000*4E
$GPGSA,M,3,01,32,14,27,10,,,,,,,,3.3,1.5,2.9*30
$GPRMC,025716.000,A,4806.8601,N,00139.3961,W,2.40,128.51,060218,,,A*7C
arfcn: 981 bsic: 46 rxLev: -53 ber: 0.00 mcc: 208 mnc: 20 lac: 418 cellId: 21807 cellStatus: CELL_SUITABLE numArfcn: 1 arfcn: 981 numChannels: 16 array: 979 982 983 985 1012 1014 1017 1019 1020 787 790 791 793 796 882 884 pbcch: 0 nom: 2 rac: 6 spgc: 0 pat: 6 nco: 0 t3168: 1500 t3192: 500 drxmax: 0 ctrlAck: 0 bsCVmax: 8 alpha: 6 pcMeasCh: 1 
$GPGGA,025717.000,4806.8602,N,00139.3961,W,1,05,1.5,183.3,M,48.3,M,,0000*4F
$GPGSA,M,3,01,32,14,27,10,,,,,,,,3.3,1.5,2.9*30
$GPRMC,025717.000,A,4806.8602,N,00139.3961,W,2.20,128.94,060218,,,A*71
$GPGGA,025718.000,4806.8603,N,00139.3959,W,1,05,1.5,179.0,M,48.3,M,,0000*4C
$GPGSA,M,3,01,32,14,27,10,,,,,,,,3.3,1.5,2.9*30
$GPGSV,3,1,11,01,53,282,17,32,32,085,24,14,27,111,23,27,27,141,15*79
$GPGSV,3,2,11,10,23,049,15,37,27,150,,08,65,158,,11,63,291,*7C
$GPGSV,3,3,11,22,45,211,,28,31,302,,03,24,215,*40
$GPRMC,025718.000,A,4806.8603,N,00139.3959,W,1.16,128.94,060218,,,A*72
$GPGGA,025719.000,4806.8608,N,00139.3958,W,1,05,1.5,174.7,M,48.3,M,,0000*4D
$GPGSA,M,3,01,32,14,27,10,,,,,,,,3.3,1.5,2.9*30
$GPRMC,025719.000,A,4806.8608,N,00139.3958,W,2.32,123.40,060218,,,A*7E
$GPGGA,025720.000,4806.8608,N,00139.3954,W,1,05,1.5,171.4,M,48.3,M,,0000*4D
$GPGSA,M,3,01,32,14,27,10,,,,,,,,3.3,1.5,2.9*30
$GPRMC,025720.000,A,4806.8608,N,00139.3954,W,2.46,122.12,060218,,,A*7D
$GPGGA,025721.000,4806.8605,N,00139.3945,W,0,00,,171.7,M,48.3,M,,0000*6C
$GPGSA,M,1,,,,,,,,,,,,,,,*12
$GPRMC,025721.000,V,4806.8605,N,00139.3945,W,,,060218,,,N*6B
$GPGGA,025722.000,4806.8602,N,00139.3936,W,0,00,,172.1,M,48.3,M,,0000*69
$GPGSA,M,1,,,,,,,,,,,,,,,*12
$GPRMC,025722.000,V,4806.8602,N,00139.3936,W,,,060218,,,N*6B
$GPGGA,025723.018,4806.8599,N,00139.3926,W,0,00,,172.4,M,48.3,M,,0000*64
$GPGSA,M,1,,,,,,,,,,,,,,,*12
$GPGSV,3,1,11,01,53,282,16,10,23,049,08,14,27,111,24,27,27,141,05*70
$GPGSV,3,2,11,32,32,085,24,37,27,150,,08,65,158,,11,63,291,*7E
$GPGSV,3,3,11,22,45,211,,28,31,302,,03,24,215,*40
$GPRMC,025723.018,V,4806.8599,N,00139.3926,W,,,060218,,,N*63
Survey end at #CCLK: "18/02/06,03:57:23+04"
Survey duration: 13 seconds, 1 bases detected over 1 freqs scanned.
$GPGGA,025724.017,4806.8596,N,00139.3917,W,0,00,,172.8,M,48.3,M,,0000*6D
$GPGSA,M,1,,,,,,,,,,,,,,,*12
$GPRMC,025724.017,V,4806.8596,N,00139.3917,W,,,060218,,,N*66
$GPGGA,025725.016,4806.8593,N,00139.3908,W,0,00,,173.1,M,48.3,M,,0000*6E
$GPGSA,M,1,,,,,,,,,,,,,,,*12
$GPRMC,025725.016,V,4806.8593,N,00139.3908,W,,,060218,,,N*6D
Survey start at #CCLK: "18/02/06,03:57:24+04"
at#csurv
Network survey started ...
$GPGGA,025726.016,4806.8591,N,00139.3899,W,0,00,,173.5,M,48.3,M,,0000*62
$GPGSA,M,1,,,,,,,,,,,,,,,*12
$GPRMC,025726.016,V,4806.8591,N,00139.3899,W,,,060218,,,N*65
$GPGGA,025727.017,4806.8546,N,00139.3917,W,1,04,2.1,172.1,M,48.3,M,,0000*42
$GPGSA,M,3,01,32,14,27,,,,,,,,,3.8,2.1,3.2*37
$GPRMC,025727.017,A,4806.8546,N,00139.3917,W,5.22,145.59,060218,,,A*79
$GPGGA,025728.017,4806.8526,N,00139.3932,W,1,04,2.1,170.9,M,48.3,M,,0000*46
$GPGSA,M,3,01,32,14,27,,,,,,,,,3.8,2.1,3.2*37
$GPGSV,3,1,11,01,53,282,16,32,32,085,24,14,27,111,24,27,27,141,13*79
$GPGSV,3,2,11,10,23,049,05,37,27,150,,08,65,158,,11,63,291,*7D
$GPGSV,3,3,11,22,45,211,,28,31,302,,03,24,215,*40
$GPRMC,025728.017,A,4806.8526,N,00139.3932,W,4.83,155.71,060218,,,A*76
$GPGGA,025729.000,4806.8519,N,00139.3938,W,1,04,2.1,169.9,M,48.3,M,,0000*4F
$GPGSA,M,3,01,32,14,27,,,,,,,,,3.8,2.1,3.2*37
$GPRMC,025729.000,A,4806.8519,N,00139.3938,W,3.58,157.85,060218,,,A*7F
$GPGGA,025730.000,4806.8506,N,00139.3945,W,1,04,2.1,168.9,M,48.3,M,,0000*42
$GPGSA,M,3,01,32,14,27,,,,,,,,,3.8,2.1,3.2*37
$GPRMC,025730.000,A,4806.8506,N,00139.3945,W,4.20,167.68,060218,,,A*7B
$GPGGA,025731.000,4806.8494,N,00139.3956,W,1,04,2.1,168.0,M,48.3,M,,0000*42
$GPGSA,M,3,01,32,14,27,,,,,,,,,3.8,2.1,3.2*37
$GPRMC,025731.000,A,4806.8494,N,00139.3956,W,4.13,177.99,060218,,,A*7D
arfcn: 981 bsic: 46 rxLev: -53 ber: 0.00 mcc: 208 mnc: 20 lac: 418 cellId: 21807 cellStatus: CELL_SUITABLE numArfcn: 1 arfcn: 981 numChannels: 16 array: 979 982 983 985 1012 1014 1017 1019 1020 787 790 791 793 796 882 884 pbcch: 0 nom: 2 rac: 6 spgc: 0 pat: 6 nco: 0 t3168: 1500 t3192: 500 drxmax: 0 ctrlAck: 0 bsCVmax: 8 alpha: 6 pcMeasCh: 1 
$GPGGA,025732.000,4806.8486,N,00139.3960,W,1,04,2.1,167.1,M,48.3,M,,0000*49
$GPGSA,M,3,01,32,14,27,,,,,,,,,3.8,2.1,3.2*37
$GPRMC,025732.000,A,4806.8486,N,00139.3960,W,2.64,181.99,060218,,,A*77
$GPGGA,025733.000,4806.8482,N,00139.3964,W,1,04,2.1,166.3,M,48.3,M,,0000*4B
$GPGSA,M,3,01,32,14,27,,,,,,,,,3.8,2.1,3.2*37
$GPGSV,3,1,11,01,53,282,16,32,32,085,23,14,27,111,24,27,27,141,12*7F
$GPGSV,3,2,11,10,23,049,05,37,27,150,,08,65,158,,11,63,291,*7D
$GPGSV,3,3,11,22,45,211,,28,31,302,,03,24,215,*40
$GPRMC,025733.000,A,4806.8482,N,00139.3964,W,1.92,183.89,060218,,,A*7F
$GPGGA,025734.000,4806.8479,N,00139.3968,W,1,04,2.1,165.6,M,48.3,M,,0000*42
$GPGSA,M,3,01,32,14,27,,,,,,,,,3.8,2.1,3.2*37
$GPRMC,025734.000,A,4806.8479,N,00139.3968,W,1.40,184.90,060218,,,A*70
$GPGGA,025735.000,4806.8476,N,00139.3967,W,1,04,2.1,164.9,M,48.3,M,,0000*4D
$GPGSA,M,3,01,32,14,27,,,,,,,,,3.8,2.1,3.2*37
$GPRMC,025735.000,A,4806.8476,N,00139.3967,W,0.59,184.90,060218,,,A*78
$GPGGA,025736.000,4806.8471,N,00139.3965,W,1,04,2.1,164.2,M,48.3,M,,0000*40
$GPGSA,M,3,01,32,14,27,,,,,,,,,3.8,2.1,3.2*37
$GPRMC,025736.000,A,4806.8471,N,00139.3965,W,1.12,184.90,060218,,,A*70
$GPGGA,025737.000,4806.8463,N,00139.3969,W,1,04,2.1,163.5,M,48.3,M,,0000*4E
$GPGSA,M,3,01,32,14,27,,,,,,,,,3.8,2.1,3.2*37
$GPRMC,025737.000,A,4806.8463,N,00139.3969,W,1.96,186.34,060218,,,A*7E
$GPGGA,025738.000,4806.8450,N,00139.3978,W,1,05,1.5,162.9,M,48.3,M,,0000*4A
$GPGSA,M,3,01,32,14,27,10,,,,,,,,3.3,1.5,2.9*30
$GPGSV,3,1,11,01,53,282,17,32,32,085,23,14,27,111,24,27,27,141,11*7D
$GPGSV,3,2,11,10,23,049,08,37,27,150,,08,65,158,,11,63,291,*70
$GPGSV,3,3,11,22,45,211,,28,31,302,,03,24,215,*40
$GPRMC,025738.000,A,4806.8450,N,00139.3978,W,3.37,193.17,060218,,,A*7D
$GPGGA,025739.000,4806.8441,N,00139.3985,W,1,05,1.5,162.3,M,48.3,M,,0000*43
$GPGSA,M,3,01,32,14,27,10,,,,,,,,3.3,1.5,2.9*30
$GPRMC,025739.000,A,4806.8441,N,00139.3985,W,3.10,190.06,060218,,,A*78
$GPGGA,025740.000,4806.8432,N,00139.3986,W,0,00,,162.1,M,48.3,M,,0000*66
$GPGSA,M,1,,,,,,,,,,,,,,,*12
$GPRMC,025740.000,V,4806.8432,N,00139.3986,W,,,060218,,,N*65
Survey end at #CCLK: "18/02/06,03:57:40+04"
Survey duration: 15 seconds, 1 bases detected over 1 freqs scanned.
$GPGGA,025741.000,4806.8424,N,00139.3986,W,0,00,,161.9,M,48.3,M,,0000*6B
$GPGSA,M,1,,,,,,,,,,,,,,,*12
$GPRMC,025741.000,V,4806.8424,N,00139.3986,W,,,060218,,,N*63
$GPGGA,025742.018,4806.8415,N,00139.3987,W,0,00,,161.6,M,48.3,M,,0000*6D
$GPGSA,M,1,,,,,,,,,,,,,,,*12
$GPRMC,025742.018,V,4806.8415,N,00139.3987,W,,,060218,,,N*6A
Survey start at #CCLK: "18/02/06,03:57:41+04"
at#csurv
Network survey started ...
Survey end at #CCLK: "18/02/06,03:57:41+04"
Survey duration: 0 seconds, 0 bases detected over 0 freqs scanned.
$GPGGA,025743.018,4806.8406,N,00139.3988,W,0,00,,161.4,M,48.3,M,,0000*63
$GPGSA,M,1,,,,,,,,,,,,,,,*12
$GPGSV,3,1,11,01,53,282,16,10,23,049,06,14,27,111,24,27,27,141,05*7E
$GPGSV,3,2,11,32,32,085,23,37,27,150,,08,65,158,,11,63,291,*79
$GPGSV,3,3,11,22,45,211,,28,31,302,,03,24,215,*40
$GPRMC,025743.018,V,4806.8406,N,00139.3988,W,,,060218,,,N*66
$GPGGA,025744.016,4806.8398,N,00139.3989,W,0,00,,161.2,M,48.3,M,,0000*6D
$GPGSA,M,1,,,,,,,,,,,,,,,*12
$GPRMC,025744.016,V,4806.8398,N,00139.3989,W,,,060218,,,N*6E
Survey start at #CCLK: "18/02/06,03:57:44+04"
at#csurv
Network survey started ...
Survey end at #CCLK: "18/02/06,03:57:44+04"
Survey duration: 0 seconds, 0 bases detected over 0 freqs scanned.
$GPGGA,025745.018,4806.8389,N,00139.3990,W,0,00,,161.0,M,48.3,M,,0000*68
$GPGSA,M,1,,,,,,,,,,,,,,,*12
$GPRMC,025745.018,V,4806.8389,N,00139.3990,W,,,060218,,,N*69
$GPGGA,025746.018,4806.8381,N,00139.3991,W,0,00,,160.7,M,48.3,M,,0000*64
$GPGSA,M,1,,,,,,,,,,,,,,,*12
$GPRMC,025746.018,V,4806.8381,N,00139.3991,W,,,060218,,,N*63
$GPGGA,025747.018,4806.8380,N,00139.4006,W,1,04,1.9,159.8,M,48.3,M,,0000*42
$GPGSA,M,3,01,32,14,10,,,,,,,,,3.6,1.9,3.0*34
Survey start at #CCLK: "18/02/06,03:57:46+04"
at#csurv
Network survey started ...
$GPRMC,025747.018,A,4806.8380,N,00139.4006,W,2.89,187.32,060218,,,A*77
Survey end at #CCLK: "18/02/06,03:57:46+04"
Survey duration: 0 seconds, 0 bases detected over 0 freqs scanned.
$GPGGA,025748.018,4806.8393,N,00139.4015,W,1,04,1.9,159.0,M,48.3,M,,0000*45
$GPGSA,M,3,01,32,14,10,,,,,,,,,3.6,1.9,3.0*34
$GPGSV,3,1,11,01,53,282,16,32,32,085,23,14,27,111,24,10,23,049,09*7C
$GPGSV,3,2,11,27,27,141,06,39,31,144,,08,65,158,,11,63,291,*7B
$GPGSV,3,3,11,22,45,211,,28,31,302,,03,24,215,*40
$GPRMC,025748.018,A,4806.8393,N,00139.4015,W,1.54,187.29,060218,,,A*71
$GPGGA,025749.000,4806.8415,N,00139.4005,W,1,04,1.9,158.5,M,48.3,M,,0000*41
$GPGSA,M,3,01,32,14,10,,,,,,,,,3.6,1.9,3.0*34
$GPRMC,025749.000,A,4806.8415,N,00139.4005,W,1.75,182.17,060218,,,A*7A
Survey start at #CCLK: "18/02/06,03:57:48+04"
at#csurv
Network survey started ...
$GPGGA,025750.000,4806.8436,N,00139.3995,W,1,04,1.9,157.7,M,48.3,M,,0000*42
$GPGSA,M,3,01,32,14,10,,,,,,,,,3.6,1.9,3.0*34
$GPRMC,025750.000,A,4806.8436,N,00139.3995,W,4.05,143.13,060218,,,A*7F
$GPGGA,025751.000,4806.8446,N,00139.3985,W,1,04,1.9,157.1,M,48.3,M,,0000*43
$GPGSA,M,3,01,32,14,10,,,,,,,,,3.6,1.9,3.0*34
$GPRMC,025751.000,A,4806.8446,N,00139.3985,W,3.20,127.40,060218,,,A*7C
$GPGGA,025752.000,4806.8462,N,00139.3972,W,1,04,1.9,156.6,M,48.3,M,,0000*48
$GPGSA,M,3,01,32,14,10,,,,,,,,,3.6,1.9,3.0*34
$GPRMC,025752.000,A,4806.8462,N,00139.3972,W,3.79,95.68,060218,,,A*4F
$GPGGA,025753.000,4806.8477,N,00139.3963,W,1,04,1.9,156.0,M,48.3,M,,0000*4B
$GPGSA,M,3,01,32,14,10,,,,,,,,,3.6,1.9,3.0*34
$GPGSV,3,1,11,01,53,282,15,32,32,085,23,14,27,111,24,10,23,049,10*77
$GPGSV,3,2,11,27,27,141,04,39,31,144,,08,65,158,,11,63,291,*79
$GPGSV,3,3,11,22,45,211,,28,31,302,,03,24,215,*40
$GPRMC,025753.000,A,4806.8477,N,00139.3963,W,3.90,77.98,060218,,,A*4E
$GPGGA,025754.000,4806.8495,N,00139.3962,W,1,04,1.9,155.5,M,48.3,M,,0000*47
$GPGSA,M,3,01,32,14,10,,,,,,,,,3.6,1.9,3.0*34
$GPRMC,025754.000,A,4806.8495,N,00139.3962,W,4.64,42.49,060218,,,A*42
arfcn: 981 bsic: 46 rxLev: -54 ber: 50.00 mcc: 208 mnc: 20 lac: 418 cellId: 21807 cellStatus: CELL_SUITABLE numArfcn: 1 arfcn: 981 numChannels: 16 array: 979 982 983 985 1012 1014 1017 1019 1020 787 790 791 793 796 882 884 pbcch: 0 nom: 2 rac: 6 spgc: 0 pat: 6 nco: 0 t3168: 1500 t3192: 500 drxmax: 0 ctrlAck: 0 bsCVmax: 8 alpha: 6 pcMeasCh: 1 
$GPGGA,025755.000,4806.8510,N,00139.3967,W,1,04,1.9,154.9,M,48.3,M,,0000*42
$GPGSA,M,3,01,32,14,10,,,,,,,,,3.6,1.9,3.0*34
$GPRMC,025755.000,A,4806.8510,N,00139.3967,W,4.69,33.56,060218,,,A*4F
$GPGGA,025756.000,4806.8525,N,00139.3972,W,1,04,1.9,154.3,M,48.3,M,,0000*49
$GPGSA,M,3,01,32,14,10,,,,,,,,,3.6,1.9,3.0*34
$GPRMC,025756.000,A,4806.8525,N,00139.3972,W,4.49,20.88,060218,,,A*4D
$GPGGA,025757.000,4806.8543,N,00139.3978,W,1,04,2.0,153.9,M,48.3,M,,0000*45
$GPGSA,M,3,01,32,14,10,,,,,,,,,3.6,2.0,3.0*3E
$GPRMC,025757.000,A,4806.8543,N,00139.3978,W,5.03,15.00,060218,,,A*4F
$GPGGA,025758.000,4806.8561,N,00139.3978,W,1,04,2.0,153.7,M,48.3,M,,0000*44
$GPGSA,M,3,01,32,14,10,,,,,,,,,3.6,2.0,3.0*3E
$GPGSV,3,1,11,01,53,282,15,32,32,085,23,14,27,111,24,10,23,049,12*75
$GPGSV,3,2,11,39,31,144,,08,65,158,,11,63,291,,22,45,211,*7A
$GPGSV,3,3,11,28,31,302,,27,27,141,,03,24,215,*47
arfcn: 985 bsic: 44 rxLev: -56 ber: 0.00 mcc: 208 mnc: 20 lac: 418 cellId: 21808 cellStatus: CELL_SUITABLE numArfcn: 1 arfcn: 985 numChannels: 25 array: 787 788 790 793 795 796 879 884 975 977 978 979 980 981 982 983 1011 1012 1014 1015 1017 1019 1020 1021 1022 pbcch: 0 nom: 2 rac: 6 spgc: 0 pat: 6 nco: 0 t3168: 1500 t3192: 500 drxmax: 0 ctrlAck: 0 bsCVmax: 8 alpha: 6 pcMeasCh: 1 
arfcn: 990 rxLev: -62
arfcn: 991 rxLev: -62
$GPRMC,025758.000,A,4806.8561,N,00139.3978,W,4.30,13.43,060218,,,A*40
arfcn: 992 rxLev: -62
arfcn: 994 rxLev: -62
arfcn: 996 rxLev: -62
$GPGGA,025759.000,4806.8576,N,00139.3974,W,1,04,2.0,153.3,M,48.3,M,,0000*4B
arfcn: 995 rxLev: -63
$GPGSA,M,3,01,32,14,10,,,,,,,,,3.6,2.0,3.0*3E
arfcn: 993 rxLev: -63
arfcn: 997 rxLev: -63
$GPRMC,025759.000,A,4806.8576,N,00139.3974,W,3.26,13.01,060218,,,A*4D
arfcn: 998 rxLev: -63
arfcn: 999 rxLev: -63
arfcn: 1000 rxLev: -63
arfcn: 1001 rxLev: -63
arfcn: 1002 rxLev: -63
arfcn: 1003 rxLev: -63
arfcn: 1004 rxLev: -63
arfcn: 1005 rxLev: -63
arfcn: 1006 rxLev: -63
$GPGGA,025800.000,4806.8589,N,00139.3967,W,1,04,2.0,153.2,M,48.3,M,,0000*4B
arfcn: 1007 rxLev: -63
$GPGSA,M,3,01,32,14,10,,,,,,,,,3.6,2.0,3.0*3E
arfcn: 1008 rxLev: -63
arfcn: 989 rxLev: -71
$GPRMC,025800.000,A,4806.8589,N,00139.3967,W,2.31,12.95,060218,,,A*47
arfcn: 12 rxLev: -71
arfcn: 982 rxLev: -71
arfcn: 980 rxLev: -71
arfcn: 1009 rxLev: -72
$GPGGA,025801.000,4806.8603,N,00139.3951,W,1,04,2.0,153.2,M,48.3,M,,0000*4E
$GPGSA,M,3,01,32,14,10,,,,,,,,,3.6,2.0,3.0*3E
$GPRMC,025801.000,A,4806.8603,N,00139.3951,W,3.22,17.32,060218,,,A*49
$GPGGA,025802.000,4806.8609,N,00139.3942,W,0,00,,152.7,M,48.3,M,,0000*68
$GPGSA,M,1,,,,,,,,,,,,,,,*12
$GPRMC,025802.000,V,4806.8609,N,00139.3942,W,,,060218,,,N*6E
arfcn: 80 bsic: 47 rxLev: -73 ber: 0.00 mcc: 208 mnc: 10 lac: 49415 cellId: 23568 cellStatus: CELL_FORBIDDEN numArfcn: 2 arfcn: 80 89 numChannels: 19 array: 76 77 78 80 82 83 84 85 113 114 115 116 117 118 119 120 122 123 124 pbcch: 0 nom: 2 rac: 31 spgc: 0 pat: 6 nco: 0 t3168: 1000 t3192: 500 drxmax: 4 ctrlAck: 1 bsCVmax: 9 alpha: 10 pcMeasCh: 0 
arfcn: 986 rxLev: -73
$GPGGA,025803.000,4806.8615,N,00139.3932,W,0,00,,152.3,M,48.3,M,,0000*67
$GPGSA,M,1,,,,,,,,,,,,,,,*12
$GPGSV,3,1,11,01,53,282,10,10,23,049,17,14,27,111,24,32,32,085,23*75
$GPGSV,3,2,11,39,31,144,,08,65,158,,11,63,291,,22,45,211,*7A
$GPGSV,3,3,11,28,31,302,,27,27,141,,03,24,215,*47
$GPRMC,025803.000,V,4806.8615,N,00139.3932,W,,,060218,,,N*65
$GPGGA,025804.017,4806.8622,N,00139.3922,W,0,00,,151.8,M,48.3,M,,0000*6B
$GPGSA,M,1,,,,,,,,,,,,,,,*12
$GPRMC,025804.017,V,4806.8622,N,00139.3922,W,,,060218,,,N*61
arfcn: 8 bsic: 48 rxLev: -74 ber: 0.00 mcc: 208 mnc: 01 lac: 10300 cellId: 6473 cellStatus: CELL_FORBIDDEN numArfcn: 13 arfcn: 8 17 18 19 20 21 22 23 24 25 47 48 49 numChannels: 18 array: 1 2 3 4 5 10 12 13 14 15 512 513 514 515 516 517 605 610 pbcch: 0 nom: 2 rac: 1 spgc: 0 pat: 6 nco: 0 t3168: 1000 t3192: 500 drxmax: 2 ctrlAck: 0 bsCVmax: 9 alpha: 5 pcMeasCh: 1 
arfcn: 984 rxLev: -75
$GPGGA,025805.017,4806.8628,N,00139.3912,W,0,00,,151.3,M,48.3,M,,0000*68
$GPGSA,M,1,,,,,,,,,,,,,,,*12
$GPRMC,025805.017,V,4806.8628,N,00139.3912,W,,,060218,,,N*69
$GPGGA,025806.017,4806.8634,N,00139.3902,W,0,00,,150.9,M,48.3,M,,0000*6C
$GPGSA,M,1,,,,,,,,,,,,,,,*12
$GPRMC,025806.017,V,4806.8634,N,00139.3902,W,,,060218,,,N*66
$GPGGA,025807.017,4806.8640,N,00139.3892,W,0,00,,150.4,M,48.3,M,,0000*6B
$GPGSA,M,1,,,,,,,,,,,,,,,*12
arfcn: 85 bsic: 0 rxLev: -76 ber: 0.00 mcc: 208 mnc: 10 lac: 49415 cellId: 44814 cellStatus: CELL_FORBIDDEN numArfcn: 2 arfcn: 85 119 numChannels: 20 array: 76 77 78 79 80 82 83 85 86 114 115 116 117 118 119 120 121 122 123 124 pbcch: 0 nom: 2 rac: 31 spgc: 0 pat: 6 nco: 0 t3168: 1000 t3192: 500 drxmax: 4 ctrlAck: 1 bsCVmax: 9 alpha: 10 pcMeasCh: 0 
$GPRMC,025807.017,V,4806.8640,N,00139.3892,W,,,060218,,,N*6C
$GPGGA,025808.017,4806.8646,N,00139.3882,W,0,00,,149.9,M,48.3,M,,0000*66
$GPGSA,M,1,,,,,,,,,,,,,,,*12
$GPGSV,3,1,11,01,53,282,09,10,23,049,17,11,63,291,20,14,27,111,24*7C
$GPGSV,3,2,11,32,32,085,23,39,31,144,,08,65,158,,22,45,211,*79
$GPGSV,3,3,11,28,31,302,,27,27,141,,03,24,215,*47
$GPRMC,025808.017,V,4806.8646,N,00139.3882,W,,,060218,,,N*64
$GPGGA,025809.017,4806.8652,N,00139.3872,W,0,00,,149.5,M,48.3,M,,0000*61
arfcn: 78 bsic: 2 rxLev: -78 ber: 0.00 mcc: 208 mnc: 10 lac: 49415 cellId: 45280 cellStatus: CELL_FORBIDDEN numArfcn: 2 arfcn: 78 116 numChannels: 20 array: 76 77 78 79 80 82 83 84 85 86 114 115 116 117 118 120 121 122 123 124 pbcch: 0 nom: 2 rac: 31 spgc: 0 pat: 6 nco: 0 t3168: 1000 t3192: 500 drxmax: 4 ctrlAck: 1 bsCVmax: 9 alpha: 10 pcMeasCh: 0 
$GPGSA,M,1,,,,,,,,,,,,,,,*12
$GPRMC,025809.017,V,4806.8652,N,00139.3872,W,,,060218,,,N*6F
$GPGGA,025810.017,4806.8658,N,00139.3862,W,0,00,,149.0,M,48.3,M,,0000*67
$GPGSA,M,1,,,,,,,,,,,,,,,*12
$GPRMC,025810.017,V,4806.8658,N,00139.3862,W,,,060218,,,N*6C
arfcn: 10 bsic: 45 rxLev: -78 ber: 2.06 mcc: 208 mnc: 01 lac: 10301 cellId: 6461 cellStatus: CELL_FORBIDDEN numArfcn: 13 arfcn: 10 17 18 19 20 21 22 23 24 25 47 48 49 numChannels: 17 array: 1 3 4 5 6 8 12 14 512 513 514 516 517 604 605 606 608 pbcch: 0 nom: 2 rac: 1 spgc: 0 pat: 6 nco: 0 t3168: 1000 t3192: 500 drxmax: 2 ctrlAck: 0 bsCVmax: 9 alpha: 5 pcMeasCh: 1 
arfcn: 835 rxLev: -79
arfcn: 800 rxLev: -80
$GPGGA,025811.017,4806.8664,N,00139.3852,W,0,00,,148.5,M,48.3,M,,0000*6E
arfcn: 821 rxLev: -80
$GPGSA,M,1,,,,,,,,,,,,,,,*12
arfcn: 819 rxLev: -81
$GPRMC,025811.017,V,4806.8664,N,00139.3852,W,,,060218,,,N*61
arfcn: 822 rxLev: -81
arfcn: 807 rxLev: -81
arfcn: 809 rxLev: -81
arfcn: 815 rxLev: -81
arfcn: 798 rxLev: -81
arfcn: 794 rxLev: -81
arfcn: 793 rxLev: -81
arfcn: 837 rxLev: -81
arfcn: 838 rxLev: -81
$GPGGA,025812.017,4806.8670,N,00139.3842,W,0,00,,148.1,M,48.3,M,,0000*6D
$GPGSA,M,1,,,,,,,,,,,,,,,*12
$GPRMC,025812.017,V,4806.8670,N,00139.3842,W,,,060218,,,N*66
$GPGGA,025813.017,4806.8676,N,00139.3832,W,0,00,,147.6,M,48.3,M,,0000*65
$GPGSA,M,1,,,,,,,,,,,,,,,*12
$GPGSV,3,1,11,01,53,282,09,10,23,049,19,11,63,291,19,14,27,111,24*78
$GPGSV,3,2,11,32,32,085,24,39,31,144,,08,65,158,,22,45,211,*7E
$GPGSV,3,3,11,28,31,302,,27,27,141,,03,24,215,*47
$GPRMC,025813.017,V,4806.8676,N,00139.3832,W,,,060218,,,N*66
$GPGGA,025814.017,4806.8682,N,00139.3823,W,0,00,,147.2,M,48.3,M,,0000*6D
$GPGSA,M,1,,,,,,,,,,,,,,,*12
$GPRMC,025814.017,V,4806.8682,N,00139.3823,W,,,060218,,,N*6A
$GPGGA,025815.017,4806.8688,N,00139.3813,W,0,00,,146.7,M,48.3,M,,0000*61
$GPGSA,M,1,,,,,,,,,,,,,,,*12
$GPRMC,025815.017,V,4806.8688,N,00139.3813,W,,,060218,,,N*62
arfcn: 983 bsic: 21 rxLev: -81 ber: 0.00 mcc: 208 mnc: 20 lac: 418 cellId: 21809 cellStatus: CELL_SUITABLE numArfcn: 1 arfcn: 983 numChannels: 24 array: 788 790 792 793 795 796 878 882 884 976 977 979 981 985 986 987 1012 1013 1014 1016 1017 1019 1020 1022 pbcch: 0 nom: 2 rac: 6 spgc: 0 pat: 6 nco: 0 t3168: 1500 t3192: 500 drxmax: 0 ctrlAck: 0 bsCVmax: 8 alpha: 6 pcMeasCh: 1 
arfcn: 796 rxLev: -81
arfcn: 814 rxLev: -81
arfcn: 817 rxLev: -81
arfcn: 810 rxLev: -81
$GPGGA,025816.017,,,,,0,00,,,M,0.0,M,,0000*58
arfcn: 811 rxLev: -81
$GPGSA,M,1,,,,,,,,,,,,,,,*12
arfcn: 812 rxLev: -81
$GPRMC,025816.017,V,,,,,,,060218,,,N*4E
arfcn: 813 rxLev: -81
arfcn: 825 rxLev: -81
arfcn: 820 rxLev: -81
arfcn: 824 rxLev: -82
arfcn: 823 rxLev: -82
arfcn: 797 rxLev: -82
arfcn: 801 rxLev: -82
arfcn: 799 rxLev: -82
arfcn: 826 rxLev: -82
arfcn: 829 rxLev: -82
$GPGGA,025817.017,,,,,0,00,,,M,0.0,M,,0000*59
arfcn: 831 rxLev: -82
$GPGSA,M,1,,,,,,,,,,,,,,,*12
arfcn: 832 rxLev: -82
$GPRMC,025817.017,V,,,,,,,060218,,,N*4F
arfcn: 808 rxLev: -82
arfcn: 805 rxLev: -82
arfcn: 834 rxLev: -82
arfcn: 842 rxLev: -82
arfcn: 844 rxLev: -82
$GPGGA,025818.017,,,,,0,00,,,M,0.0,M,,0000*56
$GPGSA,M,1,,,,,,,,,,,,,,,*12
$GPGSV,3,1,11,01,53,282,07,10,23,049,19,11,63,291,19,14,27,111,24*76
$GPGSV,3,2,11,32,32,085,24,33,33,198,,08,65,158,,22,45,211,*77
$GPGSV,3,3,11,28,31,302,,27,27,141,,03,24,215,*47
$GPRMC,025818.017,V,,,,,,,060218,,,N*40
$GPGGA,025819.012,,,,,0,00,,,M,0.0,M,,0000*52
arfcn: 512 bsic: 25 rxLev: -82 ber: 1.02 mcc: 208 mnc: 01 lac: 10300 cellId: 40155 cellStatus: CELL_FORBIDDEN numArfcn: 16 arfcn: 519 520 521 522 523 524 525 526 596 597 598 599 600 601 602 603 numChannels: 16 array: 2 3 5 8 10 11 12 15 16 517 518 604 605 606 609 610 pbcch: 0 nom: 2 rac: 1 spgc: 0 pat: 6 nco: 0 t3168: 1000 t3192: 500 drxmax: 2 ctrlAck: 0 bsCVmax: 9 alpha: 5 pcMeasCh: 1 
$GPGSA,M,1,,,,,,,,,,,,,,,*12
$GPRMC,025819.012,V,,,,,,,060218,,,N*44
$GPGGA,025820.017,,,,,0,00,,,M,0.0,M,,0000*5D
$GPGSA,M,1,,,,,,,,,,,,,,,*12
$GPRMC,025820.017,V,,,,,,,060218,,,N*4B
arfcn: 604 bsic: 20 rxLev: -83 ber: 0.00 mcc: 208 mnc: 01 lac: 10300 cellId: 39915 cellStatus: CELL_FORBIDDEN numArfcn: 16 arfcn: 519 520 521 522 523 524 525 526 596 597 598 599 600 601 602 603 numChannels: 13 array: 5 6 10 15 16 512 514 516 517 518 608 609 610 pbcch: 0 nom: 2 rac: 1 spgc: 0 pat: 6 nco: 0 t3168: 1000 t3192: 500 drxmax: 2 ctrlAck: 0 bsCVmax: 9 alpha: 5 pcMeasCh: 1 
$GPGGA,025821.012,,,,,0,00,,,M,0.0,M,,0000*59
$GPGSA,M,1,,,,,,,,,,,,,,,*12
$GPRMC,025821.012,V,,,,,,,060218,,,N*4F
$GPGGA,025822.017,,,,,0,00,,,M,0.0,M,,0000*5F
$GPGSA,M,1,,,,,,,,,,,,,,,*12
$GPRMC,025822.017,V,,,,,,,060218,,,N*49
arfcn: 5 bsic: 1 rxLev: -83 ber: 0.00 mcc: 208 mnc: 01 lac: 10300 cellId: 40079 cellStatus: CELL_FORBIDDEN numArfcn: 13 arfcn: 5 17 18 19 20 21 22 23 24 25 47 48 49 numChannels: 20 array: 1 2 3 4 5 8 9 10 11 13 14 15 16 512 513 518 604 606 608 610 pbcch: 0 nom: 2 rac: 1 spgc: 0 pat: 6 nco: 0 t3168: 1000 t3192: 500 drxmax: 2 ctrlAck: 0 bsCVmax: 9 alpha: 5 pcMeasCh: 1 
arfcn: 846 rxLev: -83
arfcn: 848 rxLev: -83
arfcn: 836 rxLev: -83
$GPGGA,025823.017,,,,,0,00,,,M,0.0,M,,0000*5E
$GPGSA,M,1,,,,,,,,,,,,,,,*12
arfcn: 840 rxLev: -83
arfcn: 841 rxLev: -83
$GPGSV,3,1,11,01,53,282,10,10,23,049,20,11,63,291,18,14,27,111,25*7A
arfcn: 856 rxLev: -83
arfcn: 858 rxLev: -83
$GPGSV,3,2,11,32,32,085,24,33,33,198,,08,65,158,,22,45,211,*77
arfcn: 804 rxLev: -83
arfcn: 802 rxLev: -83
$GPGSV,3,3,11,28,31,302,,27,27,141,,03,24,215,*47
arfcn: 803 rxLev: -83
$GPRMC,025823.017,V,,,,,,,060218,,,N*48
arfcn: 816 rxLev: -83
arfcn: 827 rxLev: -83
arfcn: 818 rxLev: -83
arfcn: 795 rxLev: -83
arfcn: 792 rxLev: -83
$GPGGA,025824.012,,,,,0,00,,,M,0.0,M,,0000*5C
$GPGSA,M,1,,,,,,,,,,,,,,,*12
arfcn: 828 rxLev: -83
$GPRMC,025824.012,V,,,,,,,060218,,,N*4A
arfcn: 833 rxLev: -83
arfcn: 830 rxLev: -83
arfcn: 860 rxLev: -83
arfcn: 857 rxLev: -83
arfcn: 850 rxLev: -83
arfcn: 852 rxLev: -83
arfcn: 849 rxLev: -83
arfcn: 843 rxLev: -83
arfcn: 873 rxLev: -83
arfcn: 875 rxLev: -84
$GPGGA,025825.017,,,,,0,00,,,M,0.0,M,,0000*58
$GPGSA,M,1,,,,,,,,,,,,,,,*12
arfcn: 839 rxLev: -84
arfcn: 853 rxLev: -84
$GPRMC,025825.017,V,,,,,,,060218,,,N*4E
arfcn: 854 rxLev: -84
arfcn: 861 rxLev: -84
arfcn: 859 rxLev: -84
arfcn: 806 rxLev: -84
arfcn: 791 rxLev: -84
arfcn: 862 rxLev: -84
arfcn: 863 rxLev: -84
arfcn: 855 rxLev: -84
arfcn: 851 rxLev: -84
$GPGGA,025826.017,,,,,0,00,,,M,0.0,M,,0000*5B
arfcn: 845 rxLev: -84
$GPGSA,M,1,,,,,,,,,,,,,,,*12
arfcn: 847 rxLev: -84
$GPRMC,025826.017,V,,,,,,,060218,,,N*4D
arfcn: 870 rxLev: -84
arfcn: 866 rxLev: -84
arfcn: 867 rxLev: -84
arfcn: 869 rxLev: -84
arfcn: 33 rxLev: -84
arfcn: 34 rxLev: -84
arfcn: 32 rxLev: -85
arfcn: 43 rxLev: -85
arfcn: 44 rxLev: -85
$GPGGA,025827.017,,,,,0,04,2.0,,M,0.0,M,,0000*72
$GPGSA,M,1,,,,,,,,,,,,,,,*12
$GPRMC,025827.017,V,,,,,,,060218,,,N*4C
$GPGGA,025828.017,,,,,0,04,2.0,,M,0.0,M,,0000*7D
$GPGSA,M,1,,,,,,,,,,,,,,,*12
$GPGSV,3,1,11,01,53,282,11,32,32,085,24,14,27,111,24,10,23,049,20*77
$GPGSV,3,2,11,11,63,291,17,33,33,198,,08,65,158,,22,45,211,*75
$GPGSV,3,3,11,28,31,302,,27,27,141,,03,24,215,*47
$GPRMC,025828.017,V,,,,,,,060218,,,N*43
arfcn: 117 bsic: 12 rxLev: -85 ber: 0.00 mcc: 208 mnc: 10 lac: 49415 cellId: 3568 cellStatus: CELL_FORBIDDEN numArfcn: 2 arfcn: 82 117 numChannels: 17 array: 76 77 78 79 80 83 84 85 87 113 114 116 117 120 122 123 124 pbcch: 0 nom: 2 rac: 31 spgc: 0 pat: 6 nco: 0 t3168: 1000 t3192: 500 drxmax: 4 ctrlAck: 1 bsCVmax: 9 alpha: 10 pcMeasCh: 0 
arfcn: 868 rxLev: -85
arfcn: 871 rxLev: -85
$GPGGA,025829.000,,,,,0,04,2.0,,M,0.0,M,,0000*7A
arfcn: 872 rxLev: -85
$GPGSA,M,1,,,,,,,,,,,,,,,*12
arfcn: 877 rxLev: -85
$GPRMC,025829.000,V,,,,,,,060218,,,N*44
arfcn: 880 rxLev: -85
arfcn: 864 rxLev: -85
arfcn: 865 rxLev: -85
arfcn: 879 rxLev: -85
arfcn: 876 rxLev: -85
arfcn: 874 rxLev: -85
arfcn: 42 rxLev: -85
arfcn: 35 rxLev: -85
arfcn: 36 rxLev: -85
arfcn: 30 rxLev: -85
$GPGGA,025830.000,,,,,0,04,2.0,,M,0.0,M,,0000*72
arfcn: 31 rxLev: -85
$GPGSA,M,1,,,,,,,,,,,,,,,*12
arfcn: 606 rxLev: -85
$GPRMC,025830.000,V,,,,,,,060218,,,N*4C
$GPGGA,025831.000,,,,,0,00,,,M,0.0,M,,0000*5B
$GPGSA,M,1,,,,,,,,,,,,,,,*12
$GPRMC,025831.000,V,,,,,,,060218,,,N*4D
$GPGGA,025832.000,,,,,0,00,,,M,0.0,M,,0000*58
$GPGSA,M,1,,,,,,,,,,,,,,,*12
arfcn: 514 bsic: 1 rxLev: -85 ber: 0.00 mcc: 208 mnc: 01 lac: 10300 cellId: 39259 cellStatus: CELL_FORBIDDEN numArfcn: 17 arfcn: 514 519 520 521 522 523 524 525 526 596 597 598 599 600 601 602 603 numChannels: 14 array: 1 6 8 10 12 14 512 513 514 517 604 605 606 608 pbcch: 0 nom: 2 rac: 1 spgc: 1 pat: 6 nco: 0 t3168: 1000 t3192: 500 drxmax: 4 ctrlAck: 1 bsCVmax: 9 alpha: 7 pcMeasCh: 0 
arfcn: 37 rxLev: -86
$GPRMC,025832.000,V,,,,,,,060218,,,N*4E
arfcn: 45 rxLev: -86
arfcn: 878 rxLev: -86
arfcn: 41 rxLev: -86
arfcn: 13 rxLev: -86
arfcn: 1 rxLev: -87
arfcn: 28 rxLev: -87
arfcn: 29 rxLev: -87
arfcn: 38 rxLev: -87
arfcn: 39 rxLev: -87
$GPGGA,025833.017,,,,,0,00,,,M,0.0,M,,0000*5F
$GPGSA,M,1,,,,,,,,,,,,,,,*12
$GPGSV,3,1,11,01,53,282,05,10,23,049,20,11,63,291,17,14,27,111,25*71
$GPGSV,3,2,11,32,32,085,24,33,33,198,,08,65,158,,22,45,211,*77
$GPGSV,3,3,11,28,31,302,,27,27,141,,03,24,215,*47
$GPRMC,025833.017,V,,,,,,,060218,,,N*49
$GPGGA,025834.017,,,,,0,00,,,M,0.0,M,,0000*58
$GPGSA,M,1,,,,,,,,,,,,,,,*12
$GPRMC,025834.017,V,,,,,,,060218,,,N*4E
$GPGGA,025835.017,,,,,0,00,,,M,0.0,M,,0000*59
$GPGSA,M,1,,,,,,,,,,,,,,,*12
$GPRMC,025835.017,V,,,,,,,060218,,,N*4F
$GPGGA,025836.017,,,,,0,00,,,M,0.0,M,,0000*5A
$GPGSA,M,1,,,,,,,,,,,,,,,*12
$GPRMC,025836.017,V,,,,,,,060218,,,N*4C
arfcn: 3 bsic: 0 rxLev: -87 ber: 1.05 mcc: 208 mnc: 01 lac: 10300 cellId: 2686 cellStatus: CELL_FORBIDDEN numArfcn: 13 arfcn: 3 17 18 19 20 21 22 23 24 25 47 48 49 numChannels: 13 array: 1 5 6 7 10 12 14 512 515 517 604 606 608 pbcch: 0 nom: 2 rac: 1 spgc: 0 pat: 6 nco: 0 t3168: 1000 t3192: 500 drxmax: 2 ctrlAck: 0 bsCVmax: 9 alpha: 5 pcMeasCh: 1 
arfcn: 40 rxLev: -87
$GPGGA,025837.017,,,,,0,00,,,M,0.0,M,,0000*5B
$GPGSA,M,1,,,,,,,,,,,,,,,*12
$GPRMC,025837.017,V,,,,,,,060218,,,N*4D
$GPGGA,025838.017,,,,,0,00,,,M,0.0,M,,0000*54
$GPGSA,M,1,,,,,,,,,,,,,,,*12
$GPGSV,3,1,11,01,53,282,04,10,23,049,20,11,63,291,17,14,27,111,25*70
$GPGSV,3,2,11,32,32,085,24,33,33,198,,08,65,158,,22,45,211,*77
$GPGSV,3,3,11,28,31,302,,27,27,141,,03,24,215,*47
$GPRMC,025838.017,V,,,,,,,060218,,,N*42
$GPGGA,025839.017,,,,,0,00,,,M,0.0,M,,0000*55
$GPGSA,M,1,,,,,,,,,,,,,,,*12
$GPRMC,025839.017,V,,,,,,,060218,,,N*43
$GPGGA,025840.017,,,,,0,00,,,M,0.0,M,,0000*5B
$GPGSA,M,1,,,,,,,,,,,,,,,*12
$GPRMC,025840.017,V,,,,,,,060218,,,N*4D
arfcn: 605 bsic: 33 rxLev: -87 ber: 0.00 mcc: 208 mnc: 01 lac: 10300 cellId: 27588 cellStatus: CELL_FORBIDDEN numArfcn: 22 arfcn: 525 526 527 528 529 530 531 532 533 534 535 587 588 589 590 591 592 593 594 595 596 597 numChannels: 18 array: 1 3 5 8 12 15 512 513 514 515 516 517 518 604 605 606 607 609 pbcch: 0 nom: 2 rac: 1 spgc: 0 pat: 6 nco: 0 t3168: 1000 t3192: 500 drxmax: 2 ctrlAck: 0 bsCVmax: 9 alpha: 5 pcMeasCh: 1 
arfcn: 881 rxLev: -87
arfcn: 11 rxLev: -88
arfcn: 95 rxLev: -88
arfcn: 93 rxLev: -88
$GPGGA,025841.017,,,,,0,00,,,M,0.0,M,,0000*5A
$GPGSA,M,1,,,,,,,,,,,,,,,*12
$GPRMC,025841.017,V,,,,,,,060218,,,N*4C
$GPGGA,025842.012,,,,,0,00,,,M,0.0,M,,0000*5C
$GPGSA,M,1,,,,,,,,,,,,,,,*12
$GPRMC,025842.012,V,,,,,,,060218,,,N*4A
arfcn: 122 bsic: 3 rxLev: -88 ber: 0.00 mcc: 208 mnc: 10 lac: 49415 cellId: 33517 cellStatus: CELL_FORBIDDEN numArfcn: 3 arfcn: 77 88 122 numChannels: 17 array: 77 78 79 80 82 84 85 86 114 115 117 118 119 120 122 123 124 pbcch: 0 nom: 2 rac: 31 spgc: 0 pat: 6 nco: 0 t3168: 1000 t3192: 500 drxmax: 4 ctrlAck: 1 bsCVmax: 9 alpha: 10 pcMeasCh: 0 
$GPGGA,025843.012,,,,,0,00,,,M,0.0,M,,0000*5D
$GPGSA,M,1,,,,,,,,,,,,,,,*12
$GPGSV,3,1,11,10,23,049,21,11,63,291,18,14,27,111,25,27,27,141,14*74
$GPGSV,3,2,11,32,32,085,24,33,33,198,,08,65,158,,01,53,282,*7B
$GPGSV,3,3,11,22,45,211,,28,31,302,,03,24,215,*40
$GPRMC,025843.012,V,,,,,,,060218,,,N*4B
$GPGGA,025844.012,,,,,0,00,,,M,0.0,M,,0000*5A
$GPGSA,M,1,,,,,,,,,,,,,,,*12
$GPRMC,025844.012,V,,,,,,,060218,,,N*4C
arfcn: 124 bsic: 2 rxLev: -88 ber: 4.06 mcc: 208 mnc: 10 lac: 49415 cellId: 43517 cellStatus: CELL_FORBIDDEN numArfcn: 2 arfcn: 112 124 numChannels: 14 array: 76 77 78 80 82 85 114 115 117 118 120 121 122 124 pbcch: 0 nom: 2 rac: 31 spgc: 0 pat: 6 nco: 0 t3168: 1000 t3192: 500 drxmax: 4 ctrlAck: 1 bsCVmax: 9 alpha: 10 pcMeasCh: 0 
arfcn: 27 rxLev: -88
arfcn: 92 rxLev: -89
arfcn: 94 rxLev: -89
$GPGGA,025845.012,,,,,0,04,5.0,,M,0.0,M,,0000*74
arfcn: 96 rxLev: -89
$GPGSA,M,1,,,,,,,,,,,,,,,*12
arfcn: 102 rxLev: -89
$GPRMC,025845.012,V,,,,,,,060218,,,N*4D
arfcn: 105 rxLev: -89
arfcn: 104 rxLev: -89
arfcn: 103 rxLev: -89
arfcn: 100 rxLev: -89
arfcn: 101 rxLev: -89
arfcn: 97 rxLev: -89
arfcn: 79 rxLev: -89
arfcn: 106 rxLev: -89
$GPGGA,025846.012,,,,,0,04,5.0,,M,0.0,M,,0000*77
$GPGSA,M,1,,,,,,,,,,,,,,,*12
$GPRMC,025846.012,V,,,,,,,060218,,,N*4E
$GPGGA,025847.000,,,,,0,04,5.0,,M,0.0,M,,0000*75
$GPGSA,M,1,,,,,,,,,,,,,,,*12
$GPRMC,025847.000,V,,,,,,,060218,,,N*4C
$GPGGA,025848.000,,,,,0,04,5.0,,M,0.0,M,,0000*7A
arfcn: 2 bsic: 54 rxLev: -89 ber: 0.06 mcc: 208 mnc: 01 lac: 10300 cellId: 42646 cellStatus: CELL_FORBIDDEN numArfcn: 13 arfcn: 2 17 18 19 20 21 22 23 24 25 47 48 49 numChannels: 22 array: 1 5 6 7 8 10 12 13 15 16 512 514 515 516 517 518 604 606 607 608 609 610 pbcch: 0 nom: 2 rac: 1 spgc: 0 pat: 6 nco: 0 t3168: 1000 t3192: 500 drxmax: 2 ctrlAck: 0 bsCVmax: 9 alpha: 5 pcMeasCh: 1 
$GPGSA,M,1,,,,,,,,,,,,,,,*12
$GPGSV,3,1,11,32,32,085,24,14,27,111,25,27,27,141,16,10,23,049,21*7B
$GPGSV,3,2,11,11,63,291,18,37,27,150,,08,65,158,,01,53,282,*73
$GPGSV,3,3,11,22,45,211,,28,31,302,,03,24,215,*40
$GPRMC,025848.000,V,,,,,,,060218,,,N*43
$GPGGA,025849.000,,,,,0,04,5.0,,M,0.0,M,,0000*7B
$GPGSA,M,1,,,,,,,,,,,,,,,*12
$GPRMC,025849.000,V,,,,,,,060218,,,N*42
arfcn: 608 bsic: 46 rxLev: -89 ber: 0.00 mcc: 208 mnc: 01 lac: 10300 cellId: 36733 cellStatus: CELL_FORBIDDEN numArfcn: 16 arfcn: 519 520 521 522 523 524 525 526 596 597 598 599 600 601 602 603 numChannels: 15 array: 1 3 6 7 10 12 14 512 513 514 515 517 604 605 606 pbcch: 0 nom: 2 rac: 1 spgc: 0 pat: 6 nco: 0 t3168: 1000 t3192: 500 drxmax: 2 ctrlAck: 0 bsCVmax: 9 alpha: 5 pcMeasCh: 1 
arfcn: 1014 rxLev: -90
$GPGGA,025850.000,4806.8732,N,00139.4494,W,1,04,5.0,156.5,M,48.3,M,,0000*4F
arfcn: 46 rxLev: -90
$GPGSA,M,3,32,14,27,10,,,,,,,,,5.9,5.0,3.1*35
arfcn: 107 rxLev: -90
$GPRMC,025850.000,A,4806.8732,N,00139.4494,W,1.03,281.52,060218,,,A*77
$GPGGA,025851.000,4806.8732,N,00139.4508,W,1,04,5.0,156.3,M,48.3,M,,0000*4C
$GPGSA,M,3,32,14,27,10,,,,,,,,,5.9,5.0,3.1*35
$GPRMC,025851.000,A,4806.8732,N,00139.4508,W,1.46,283.93,060218,,,A*7C
arfcn: 76 bsic: 5 rxLev: -90 ber: 0.03 mcc: 208 mnc: 10 lac: 49415 cellId: 44813 cellStatus: CELL_FORBIDDEN numArfcn: 2 arfcn: 76 121 numChannels: 16 array: 76 77 78 79 80 82 84 85 86 113 114 117 118 121 123 124 pbcch: 0 nom: 2 rac: 31 spgc: 0 pat: 6 nco: 0 t3168: 1000 t3192: 500 drxmax: 4 ctrlAck: 1 bsCVmax: 9 alpha: 10 pcMeasCh: 0 
arfcn: 91 rxLev: -90
arfcn: 99 rxLev: -90
arfcn: 98 rxLev: -90
$GPGGA,025852.000,4806.8734,N,00139.4508,W,1,04,5.0,156.7,M,48.3,M,,0000*4D
arfcn: 81 rxLev: -90
arfcn: 108 rxLev: -90
$GPGSA,M,3,32,14,27,10,,,,,,,,,5.9,5.0,3.1*35
$GPRMC,025852.000,A,4806.8734,N,00139.4508,W,1.42,288.67,060218,,,A*7D
$GPGGA,025853.000,4806.8736,N,00139.4501,W,1,04,5.0,156.8,M,48.3,M,,0000*48
$GPGSA,M,3,32,14,27,10,,,,,,,,,5.9,5.0,3.1*35
$GPGSV,3,1,11,32,32,085,24,14,27,111,25,27,27,141,16,10,23,049,21*7B
$GPGSV,3,2,11,11,63,291,17,37,27,150,,08,65,158,,01,53,282,*7C
$GPGSV,3,3,11,22,45,211,,28,31,302,,03,24,215,*40
$GPRMC,025853.000,A,4806.8736,N,00139.4501,W,1.42,300.83,060218,,,A*7C
$GPGGA,025854.000,4806.8736,N,00139.4507,W,1,04,5.0,156.9,M,48.3,M,,0000*48
$GPGSA,M,3,32,14,27,10,,,,,,,,,5.9,5.0,3.1*35
$GPRMC,025854.000,A,4806.8736,N,00139.4507,W,1.85,313.42,060218,,,A*79
$GPGGA,025855.000,4806.8737,N,00139.4513,W,1,04,5.0,156.8,M,48.3,M,,0000*4C
$GPGSA,M,3,32,14,27,10,,,,,,,,,5.9,5.0,3.1*35
$GPRMC,025855.000,A,4806.8737,N,00139.4513,W,2.76,325.08,060218,,,A*78
arfcn: 979 bsic: 19 rxLev: -90 ber: 0.05 mcc: 208 mnc: 20 lac: 418 cellId: 20718 cellStatus: CELL_SUITABLE numArfcn: 1 arfcn: 979 numChannels: 22 array: 788 789 790 792 793 795 878 882 884 977 981 983 984 985 986 987 1012 1013 1014 1017 1019 1020 pbcch: 0 nom: 2 rac: 6 spgc: 0 pat: 6 nco: 0 t3168: 1500 t3192: 500 drxmax: 0 ctrlAck: 0 bsCVmax: 8 alpha: 6 pcMeasCh: 1 
arfcn: 56 rxLev: -90
arfcn: 57 rxLev: -90
arfcn: 63 rxLev: -90
$GPGGA,025856.000,4806.8733,N,00139.4524,W,1,04,5.0,157.1,M,48.3,M,,0000*47
arfcn: 64 rxLev: -90
$GPGSA,M,3,32,14,27,10,,,,,,,,,5.9,5.0,3.1*35
arfcn: 67 rxLev: -90
arfcn: 26 rxLev: -90
$GPRMC,025856.000,A,4806.8733,N,00139.4524,W,1.69,338.41,060218,,,A*77
arfcn: 62 rxLev: -91
$GPGGA,025857.000,4806.8733,N,00139.4552,W,1,04,5.0,157.2,M,48.3,M,,0000*44
$GPGSA,M,3,32,14,27,10,,,,,,,,,5.9,5.0,3.1*35
$GPRMC,025857.000,A,4806.8733,N,00139.4552,W,0.61,338.41,060218,,,A*7E
$GPGGA,025858.000,4806.8732,N,00139.4567,W,1,04,5.0,157.3,M,48.3,M,,0000*4D
arfcn: 114 bsic: 6 rxLev: -91 ber: 0.04 mcc: 208 mnc: 10 lac: 49415 cellId: 44202 cellStatus: CELL_FORBIDDEN numArfcn: 2 arfcn: 80 114 numChannels: 20 array: 76 77 78 79 80 84 85 86 113 114 115 116 117 118 119 120 121 122 123 124 pbcch: 0 nom: 2 rac: 31 spgc: 0 pat: 6 nco: 0 t3168: 1000 t3192: 500 drxmax: 4 ctrlAck: 1 bsCVmax: 9 alpha: 10 pcMeasCh: 0 
$GPGSA,M,3,32,14,27,10,,,,,,,,,5.9,5.0,3.1*35
$GPGSV,3,1,11,32,32,085,25,14,27,111,25,27,27,141,16,10,23,049,21*7A
$GPGSV,3,2,11,01,53,282,15,11,63,291,16,37,27,150,,08,65,158,*79
$GPGSV,3,3,11,22,45,211,,28,31,302,,03,24,215,*40
$GPRMC,025858.000,A,4806.8732,N,00139.4567,W,0.25,338.41,060218,,,A*76
$GPGGA,025859.000,4806.8715,N,00139.4399,W,1,05,1.5,156.0,M,48.3,M,,0000*4C
$GPGSA,M,3,01,32,14,27,10,,,,,,,,3.3,1.5,2.9*30
$GPRMC,025859.000,A,4806.8715,N,00139.4399,W,1.53,354.95,060218,,,A*76
arfcn: 115 bsic: 43 rxLev: -91 ber: 0.00 mcc: 208 mnc: 10 lac: 49415 cellId: 55710 cellStatus: CELL_FORBIDDEN numArfcn: 2 arfcn: 87 115 numChannels: 22 array: 76 77 78 79 80 82 83 84 85 86 113 114 115 116 117 118 119 120 121 122 123 124 pbcch: 0 nom: 2 rac: 31 spgc: 0 pat: 6 nco: 0 t3168: 1000 t3192: 500 drxmax: 4 ctrlAck: 1 bsCVmax: 9 alpha: 10 pcMeasCh: 0 
arfcn: 65 rxLev: -91
arfcn: 66 rxLev: -91
$GPGGA,025900.000,4806.8700,N,00139.4264,W,1,05,1.5,155.3,M,48.3,M,,0000*46
arfcn: 55 rxLev: -91
arfcn: 9 rxLev: -91
$GPGSA,M,3,01,32,14,27,10,,,,,,,,3.3,1.5,2.9*30
$GPRMC,025900.000,A,4806.8700,N,00139.4264,W,0.94,354.95,060218,,,A*76
$GPGGA,025901.000,4806.8685,N,00139.4133,W,1,05,1.5,154.5,M,48.3,M,,0000*4D
$GPGSA,M,3,01,32,14,27,10,,,,,,,,3.3,1.5,2.9*30
$GPRMC,025901.000,A,4806.8685,N,00139.4133,W,0.46,354.95,060218,,,A*75
$GPGGA,025902.000,4806.8678,N,00139.4082,W,1,05,1.5,154.2,M,48.3,M,,0000*40
$GPGSA,M,3,01,32,14,27,10,,,,,,,,3.3,1.5,2.9*30
$GPRMC,025902.000,A,4806.8678,N,00139.4082,W,0.20,354.95,060218,,,A*7F
arfcn: 1017 bsic: 33 rxLev: -91 ber: 0.00 mcc: 208 mnc: 20 lac: 418 cellId: 20104 cellStatus: CELL_SUITABLE numArfcn: 3 arfcn: 986 987 1017 numChannels: 20 array: 788 790 885 975 976 978 979 980 981 982 986 987 1011 1012 1015 1017 1019 1020 1021 1022 pbcch: 0 nom: 2 rac: 7 spgc: 0 pat: 6 nco: 0 t3168: 1500 t3192: 500 drxmax: 4 ctrlAck: 1 bsCVmax: 8 alpha: 6 pcMeasCh: 1 
$GPGGA,025903.000,4806.8676,N,00139.4055,W,1,05,1.5,154.1,M,48.3,M,,0000*46
$GPGSA,M,3,01,32,14,27,10,,,,,,,,3.3,1.5,2.9*30
$GPGSV,3,1,11,01,53,282,16,32,32,085,24,14,27,111,25,27,27,141,17*7C
$GPGSV,3,2,11,10,23,049,21,08,65,158,11,11,63,291,16,37,27,150,*7C
$GPGSV,3,3,11,22,45,211,,28,31,302,,03,24,215,*40
$GPRMC,025903.000,A,4806.8676,N,00139.4055,W,1.23,354.48,060218,,,A*78
$GPGGA,025904.000,4806.8673,N,00139.4029,W,1,05,1.5,154.2,M,48.3,M,,0000*4C
$GPGSA,M,3,01,32,14,27,10,,,,,,,,3.3,1.5,2.9*30
$GPRMC,025904.000,A,4806.8673,N,00139.4029,W,0.76,354.48,060218,,,A*70
$GPGGA,025905.000,4806.8673,N,00139.4024,W,1,06,1.7,153.0,M,48.3,M,,0000*44
$GPGSA,M,3,08,01,32,14,27,10,,,,,,,3.9,1.7,3.5*3D
$GPRMC,025905.000,A,4806.8673,N,00139.4024,W,2.13,352.44,060218,,,A*77
$GPGGA,025906.000,4806.8671,N,00139.4011,W,1,06,1.7,152.3,M,48.3,M,,0000*41
$GPGSA,M,3,08,01,32,14,27,10,,,,,,,3.9,1.7,3.5*3D
$GPRMC,025906.000,A,4806.8671,N,00139.4011,W,0.70,352.44,060218,,,A*77
arfcn: 4 bsic: 54 rxLev: -92 ber: 2.05 mcc: 208 mnc: 01 lac: 10300 cellId: 43768 cellStatus: CELL_FORBIDDEN numArfcn: 13 arfcn: 4 17 18 19 20 21 22 23 24 25 47 48 49 numChannels: 20 array: 1 3 5 6 7 8 12 13 14 513 514 515 517 518 601 605 606 608 609 610 pbcch: 0 nom: 2 rac: 1 spgc: 0 pat: 6 nco: 0 t3168: 1000 t3192: 500 drxmax: 2 ctrlAck: 0 bsCVmax: 9 alpha: 5 pcMeasCh: 1 
arfcn: 68 rxLev: -92
arfcn: 58 rxLev: -92
arfcn: 59 rxLev: -92
arfcn: 109 rxLev: -92
arfcn: 86 rxLev: -92
$GPGGA,025907.000,4806.8670,N,00139.3995,W,1,06,1.7,151.4,M,48.3,M,,0000*47
arfcn: 60 rxLev: -92
$GPGSA,M,3,08,01,32,14,27,10,,,,,,,3.9,1.7,3.5*3D
arfcn: 61 rxLev: -92
arfcn: 54 rxLev: -92
$GPRMC,025907.000,A,4806.8670,N,00139.3995,W,1.79,9.51,060218,,,A*74
arfcn: 7 rxLev: -92
$GPGGA,025908.000,4806.8665,N,00139.3974,W,1,06,1.7,151.0,M,48.3,M,,0000*47
$GPGSA,M,3,08,01,32,14,27,10,,,,,,,3.9,1.7,3.5*3D
$GPGSV,3,1,11,08,65,158,15,01,53,282,16,32,32,085,25,14,27,111,25*7C
$GPGSV,3,2,11,27,27,141,17,10,23,049,21,11,63,291,17,37,27,150,*78
$GPGSV,3,3,11,22,45,211,,28,31,302,,03,24,215,*40
$GPRMC,025908.000,A,4806.8665,N,00139.3974,W,1.46,16.02,060218,,,A*44
$GPGGA,025909.000,4806.8664,N,00139.3959,W,1,06,1.7,150.2,M,48.3,M,,0000*4B
arfcn: 14 bsic: 35 rxLev: -92 ber: 0.04 mcc: 208 mnc: 01 lac: 10300 cellId: 39250 cellStatus: CELL_FORBIDDEN numArfcn: 13 arfcn: 14 17 18 19 20 21 22 23 24 25 47 48 49 numChannels: 14 array: 1 3 4 6 8 10 12 14 512 513 514 517 604 608 pbcch: 0 nom: 2 rac: 1 spgc: 1 pat: 6 nco: 0 t3168: 1000 t3192: 500 drxmax: 4 ctrlAck: 1 bsCVmax: 9 alpha: 7 pcMeasCh: 0 
arfcn: 53 rxLev: -93
arfcn: 69 rxLev: -93
$GPGSA,M,3,08,01,32,14,27,10,,,,,,,3.9,1.7,3.5*3D
arfcn: 70 rxLev: -93
$GPRMC,025909.000,A,4806.8664,N,00139.3959,W,0.31,16.02,060218,,,A*4A
$GPGGA,025910.000,4806.8659,N,00139.3948,W,1,06,1.7,149.2,M,48.3,M,,0000*45
$GPGSA,M,3,08,01,32,14,27,10,,,,,,,3.9,1.7,3.5*3D
$GPRMC,025910.000,A,4806.8659,N,00139.3948,W,1.11,16.02,060218,,,A*4F
$GPGGA,025911.000,4806.8653,N,00139.3941,W,1,06,1.7,149.0,M,48.3,M,,0000*45
$GPGSA,M,3,08,01,32,14,27,10,,,,,,,3.9,1.7,3.5*3D
$GPRMC,025911.000,A,4806.8653,N,00139.3941,W,2.18,342.35,060218,,,A*71
$GPGGA,025912.000,4806.8645,N,00139.3928,W,1,06,1.7,148.4,M,48.3,M,,0000*4B
$GPGSA,M,3,08,01,32,14,27,10,,,,,,,3.9,1.7,3.5*3D
$GPRMC,025912.000,A,4806.8645,N,00139.3928,W,1.13,342.35,060218,,,A*72
$GPGGA,025913.000,4806.8641,N,00139.3915,W,1,06,1.7,147.3,M,48.3,M,,0000*48
$GPGSA,M,3,08,01,32,14,27,10,,,,,,,3.9,1.7,3.5*3D
$GPGSV,3,1,11,08,65,158,16,01,53,282,17,32,32,085,25,14,27,111,25*7E
$GPGSV,3,2,11,27,27,141,17,10,23,049,21,11,63,291,17,37,27,150,*78
$GPGSV,3,3,11,22,45,211,,28,31,302,,03,24,215,*40
$GPRMC,025913.000,A,4806.8641,N,00139.3915,W,0.35,342.35,060218,,,A*7C
$GPGGA,025914.000,4806.8636,N,00139.3905,W,1,06,1.7,147.0,M,48.3,M,,0000*4D
$GPGSA,M,3,08,01,32,14,27,10,,,,,,,3.9,1.7,3.5*3D
$GPRMC,025914.000,A,4806.8636,N,00139.3905,W,0.65,342.35,060218,,,A*7F
arfcn: 1016 bsic: 41 rxLev: -93 ber: 0.00 mcc: 208 mnc: 20 lac: 418 cellId: 23623 cellStatus: CELL_SUITABLE numArfcn: 1 arfcn: 1016 numChannels: 28 array: 787 788 791 792 793 794 795 879 880 883 884 975 977 978 979 981 982 983 986 987 1011 1012 1017 1018 1019 1020 1021 1022 pbcch: 0 nom: 2 rac: 6 spgc: 0 pat: 6 nco: 0 t3168: 1500 t3192: 500 drxmax: 4 ctrlAck: 1 bsCVmax: 8 alpha: 6 pcMeasCh: 1 
$GPGGA,025915.000,4806.8631,N,00139.3903,W,1,06,1.7,145.6,M,48.3,M,,0000*49
$GPGSA,M,3,08,01,32,14,27,10,,,,,,,3.9,1.7,3.5*3D
$GPRMC,025915.000,A,4806.8631,N,00139.3903,W,0.40,342.35,060218,,,A*78
$GPGGA,025916.000,4806.8631,N,00139.3894,W,1,06,1.7,147.9,M,48.3,M,,0000*48
$GPGSA,M,3,08,01,32,14,27,10,,,,,,,3.9,1.7,3.5*3D
$GPRMC,025916.000,A,4806.8631,N,00139.3894,W,1.35,347.48,060218,,,A*78
arfcn: 513 bsic: 27 rxLev: -93 ber: 0.06 mcc: 208 mnc: 01 lac: 10300 cellId: 27587 cellStatus: CELL_FORBIDDEN numArfcn: 16 arfcn: 519 520 521 522 523 524 525 526 596 597 598 599 600 601 602 603 numChannels: 14 array: 1 4 8 12 512 513 515 516 517 518 605 606 607 609 pbcch: 0 nom: 2 rac: 1 spgc: 0 pat: 6 nco: 0 t3168: 1000 t3192: 500 drxmax: 2 ctrlAck: 0 bsCVmax: 9 alpha: 5 pcMeasCh: 1 
arfcn: 90 rxLev: -93
$GPGGA,025917.000,4806.8630,N,00139.3888,W,1,06,1.7,147.8,M,48.3,M,,0000*44
$GPGSA,M,3,08,01,32,14,27,10,,,,,,,3.9,1.7,3.5*3D
$GPRMC,025917.000,A,4806.8630,N,00139.3888,W,0.67,347.48,060218,,,A*73
$GPGGA,025918.000,4806.8628,N,00139.3889,W,1,06,1.7,147.4,M,48.3,M,,0000*4F
$GPGSA,M,3,08,01,32,14,27,10,,,,,,,3.9,1.7,3.5*3D
$GPGSV,3,1,11,08,65,158,17,01,53,282,17,32,32,085,25,14,27,111,25*7F
$GPGSV,3,2,11,27,27,141,17,10,23,049,21,11,63,291,16,39,31,144,*75
$GPGSV,3,3,11,22,45,211,,28,31,302,,03,24,215,*40
$GPRMC,025918.000,A,4806.8628,N,00139.3889,W,0.61,347.48,060218,,,A*72
$GPGGA,025919.000,4806.8629,N,00139.3887,W,1,06,1.7,146.8,M,48.3,M,,0000*4C
$GPGSA,M,3,08,01,32,14,27,10,,,,,,,3.9,1.7,3.5*3D
$GPRMC,025919.000,A,4806.8629,N,00139.3887,W,1.25,350.75,060218,,,A*75
arfcn: 123 bsic: 1 rxLev: -93 ber: 8.06 mcc: 208 mnc: 10 lac: 49415 cellId: 41634 cellStatus: CELL_FORBIDDEN numArfcn: 0 arfcn: numChannels: 0 array:
$GPGGA,025920.000,4806.8633,N,00139.3887,W,1,06,1.7,146.3,M,48.3,M,,0000*46
$GPGSA,M,3,08,01,32,14,27,10,,,,,,,3.9,1.7,3.5*3D
$GPRMC,025920.000,A,4806.8633,N,00139.3887,W,1.58,351.19,060218,,,A*75
$GPGGA,025921.000,4806.8636,N,00139.3889,W,1,06,1.7,146.0,M,48.3,M,,0000*4F
$GPGSA,M,3,08,01,32,14,27,10,,,,,,,3.9,1.7,3.5*3D
arfcn: 120 bsic: 59 rxLev: -94 ber: 9.02 mcc: FFF mnc: FF lac: 65535 cellId: 0 cellStatus: CELL_OTHER numArfcn: 0 arfcn: numChannels: 0 array:
$GPRMC,025921.000,A,4806.8636,N,00139.3889,W,1.32,353.13,060218,,,A*7B
arfcn: 84 rxLev: -94
arfcn: 6 rxLev: -94
arfcn: 77 rxLev: -94
arfcn: 110 rxLev: -94
arfcn: 978 rxLev: -94
arfcn: 47 rxLev: -95
arfcn: 71 rxLev: -95
$GPGGA,025922.000,4806.8641,N,00139.3886,W,1,06,1.7,145.7,M,48.3,M,,0000*47
arfcn: 72 rxLev: -96
$GPGSA,M,3,08,01,32,14,27,10,,,,,,,3.9,1.7,3.5*3D
$GPRMC,025922.000,A,4806.8641,N,00139.3886,W,1.78,359.11,060218,,,A*71
$GPGGA,025923.000,4806.8644,N,00139.3887,W,1,06,1.7,145.4,M,48.3,M,,0000*41
$GPGSA,M,3,08,01,32,14,27,10,,,,,,,3.9,1.7,3.5*3D
$GPGSV,3,1,11,08,65,158,17,01,53,282,15,32,32,085,25,14,27,111,25*7D
$GPGSV,3,2,11,27,27,141,17,10,23,049,21,11,63,291,14,39,31,144,*77
$GPGSV,3,3,11,22,45,211,,28,31,302,,03,24,215,*40
arfcn: 516 bsic: 38 rxLev: -96 ber: 0.02 mcc: 208 mnc: 01 lac: 10300 cellId: 27540 cellStatus: CELL_FORBIDDEN numArfcn: 16 arfcn: 519 520 521 522 523 524 525 526 596 597 598 599 600 601 602 603 numChannels: 19 array: 1 2 6 7 9 10 11 15 512 513 514 515 517 604 605 606 607 609 610 pbcch: 0 nom: 2 rac: 1 spgc: 0 pat: 6 nco: 0 t3168: 1000 t3192: 500 drxmax: 2 ctrlAck: 0 bsCVmax: 9 alpha: 5 pcMeasCh: 1 
$GPRMC,025923.000,A,4806.8644,N,00139.3887,W,0.70,359.11,060218,,,A*7D
$GPGGA,025924.000,4806.8644,N,00139.3890,W,1,06,1.7,145.0,M,48.3,M,,0000*44
$GPGSA,M,3,08,01,32,14,27,10,,,,,,,3.9,1.7,3.5*3D
$GPRMC,025924.000,A,4806.8644,N,00139.3890,W,0.83,359.11,060218,,,A*70
$GPGGA,025925.000,4806.8641,N,00139.3896,W,1,06,1.7,144.6,M,48.3,M,,0000*41
$GPGSA,M,3,08,01,32,14,27,10,,,,,,,3.9,1.7,3.5*3D
$GPRMC,025925.000,A,4806.8641,N,00139.3896,W,1.36,347.32,060218,,,A*73
$GPGGA,025926.000,4806.8638,N,00139.3901,W,1,06,1.7,144.2,M,48.3,M,,0000*47
$GPGSA,M,3,08,01,32,14,27,10,,,,,,,3.9,1.7,3.5*3D
$GPRMC,025926.000,A,4806.8638,N,00139.3901,W,1.52,335.69,060218,,,A*78
arfcn: 1021 bsic: 35 rxLev: -96 ber: 1.06 mcc: 208 mnc: 20 lac: 418 cellId: 20102 cellStatus: CELL_SUITABLE numArfcn: 3 arfcn: 975 982 1021 numChannels: 21 array: 788 790 880 885 975 976 977 978 980 981 982 986 987 1011 1012 1015 1017 1019 1020 1021 1022 pbcch: 0 nom: 2 rac: 7 spgc: 0 pat: 6 nco: 0 t3168: 1500 t3192: 500 drxmax: 4 ctrlAck: 1 bsCVmax: 8 alpha: 6 pcMeasCh: 1 
arfcn: 52 rxLev: -96
$GPGGA,025927.000,4806.8640,N,00139.3903,W,1,05,2.7,144.8,M,48.3,M,,0000*41
arfcn: 729 rxLev: -96
$GPGSA,M,3,08,32,14,27,10,,,,,,,,3.7,2.7,2.6*33
$GPRMC,025927.000,A,4806.8640,N,00139.3903,W,1.31,330.57,060218,,,A*79
$GPGGA,025928.000,4806.8642,N,00139.3903,W,1,05,2.7,145.3,M,48.3,M,,0000*46
$GPGSA,M,3,08,32,14,27,10,,,,,,,,3.7,2.7,2.6*33
$GPGSV,3,1,11,08,65,158,16,32,32,085,25,14,27,111,25,27,27,141,17*75
$GPGSV,3,2,11,10,23,049,21,01,53,282,07,11,63,291,13,39,31,144,*7A
$GPGSV,3,3,11,22,45,211,,28,31,302,,03,24,215,*40
$GPRMC,025928.000,A,4806.8642,N,00139.3903,W,0.82,330.57,060218,,,A*7D
$GPGGA,025929.000,4806.8644,N,00139.3900,W,1,05,2.7,145.8,M,48.3,M,,0000*49
$GPGSA,M,3,08,32,14,27,10,,,,,,,,3.7,2.7,2.6*33
$GPRMC,025929.000,A,4806.8644,N,00139.3900,W,1.53,331.77,060218,,,A*77
$GPGGA,025930.000,4806.8648,N,00139.3895,W,1,05,2.7,146.2,M,48.3,M,,0000*49
arfcn: 987 bsic: 40 rxLev: -97 ber: 4.02 mcc: 208 mnc: 20 lac: 418 cellId: 22381 cellStatus: CELL_SUITABLE numArfcn: 2 arfcn: 987 1018 numChannels: 25 array: 790 792 793 796 878 882 884 976 977 978 979 981 982 983 984 986 1011 1013 1014 1015 1016 1017 1019 1020 1022 pbcch: 0 nom: 2 rac: 6 spgc: 0 pat: 6 nco: 0 t3168: 1500 t3192: 500 drxmax: 0 ctrlAck: 0 bsCVmax: 8 alpha: 6 pcMeasCh: 1 
arfcn: 15 rxLev: -97
$GPGSA,M,3,08,32,14,27,10,,,,,,,,3.7,2.7,2.6*33
arfcn: 25 rxLev: -97
$GPRMC,025930.000,A,4806.8648,N,00139.3895,W,1.28,333.02,060218,,,A*72
$GPGGA,025931.000,4806.8652,N,00139.3883,W,1,05,2.7,146.5,M,48.3,M,,0000*43
$GPGSA,M,3,08,32,14,27,10,,,,,,,,3.7,2.7,2.6*33
$GPRMC,025931.000,A,4806.8652,N,00139.3883,W,2.10,341.79,060218,,,A*7E
$GPGGA,025932.000,4806.8656,N,00139.3870,W,1,05,2.7,146.9,M,48.3,M,,0000*44
$GPGSA,M,3,08,32,14,27,10,,,,,,,,3.7,2.7,2.6*33
$GPRMC,025932.000,A,4806.8656,N,00139.3870,W,2.45,9.06,060218,,,A*72
$GPGGA,025933.000,4806.8659,N,00139.3858,W,1,05,2.7,147.2,M,48.3,M,,0000*4A
$GPGSA,M,3,08,32,14,27,10,,,,,,,,3.7,2.7,2.6*33
$GPGSV,3,1,11,08,65,158,16,32,32,085,25,14,27,111,25,27,27,141,16*74
$GPGSV,3,2,11,10,23,049,21,01,53,282,04,11,63,291,14,39,31,144,*7E
$GPGSV,3,3,11,22,45,211,,28,31,302,,03,24,215,*40
arfcn: 1020 bsic: 39 rxLev: -97 ber: 0.02 mcc: 208 mnc: 20 lac: 418 cellId: 38980 cellStatus: CELL_SUITABLE numArfcn: 1 arfcn: 1020 numChannels: 26 array: 787 788 790 791 793 795 796 879 884 885 978 979 981 982 983 985 986 987 1011 1012 1013 1014 1015 1017 1019 1022 pbcch: 0 nom: 2 rac: 6 spgc: 0 pat: 6 nco: 0 t3168: 1500 t3192: 500 drxmax: 0 ctrlAck: 0 bsCVmax: 8 alpha: 6 pcMeasCh: 1 
arfcn: 1015 rxLev: -97
$GPRMC,025933.000,A,4806.8659,N,00139.3858,W,2.45,26.23,060218,,,A*4C
arfcn: 517 rxLev: -98
arfcn: 730 rxLev: -98
arfcn: 609 rxLev: -98
$GPGGA,025934.000,4806.8660,N,00139.3841,W,1,05,2.7,147.5,M,48.3,M,,0000*48
$GPGSA,M,3,08,32,14,27,10,,,,,,,,3.7,2.7,2.6*33
$GPRMC,025934.000,A,4806.8660,N,00139.3841,W,2.80,44.92,060218,,,A*4E
$GPGGA,025935.000,4806.8658,N,00139.3829,W,1,05,2.7,147.7,M,48.3,M,,0000*4E
$GPGSA,M,3,08,32,14,27,10,,,,,,,,3.7,2.7,2.6*33
$GPRMC,025935.000,A,4806.8658,N,00139.3829,W,2.57,54.55,060218,,,A*4A
$GPGGA,025936.000,4806.8657,N,00139.3820,W,1,05,2.7,147.9,M,48.3,M,,0000*45
$GPGSA,M,3,08,32,14,27,10,,,,,,,,3.7,2.7,2.6*33
$GPRMC,025936.000,A,4806.8657,N,00139.3820,W,2.21,58.30,060218,,,A*41
$GPGGA,025937.000,4806.8658,N,00139.3815,W,1,06,1.7,147.5,M,48.3,M,,0000*41
$GPGSA,M,3,08,01,32,14,27,10,,,,,,,3.9,1.7,3.5*3D
$GPRMC,025937.000,A,4806.8658,N,00139.3815,W,2.94,66.01,060218,,,A*48
$GPGGA,025938.000,4806.8659,N,00139.3819,W,1,06,1.7,147.1,M,48.3,M,,0000*47
$GPGSA,M,3,08,01,32,14,27,10,,,,,,,3.9,1.7,3.5*3D
arfcn: 1019 bsic: 48 rxLev: -98 ber: 2.02 mcc: 208 mnc: 20 lac: 418 cellId: 20015 cellStatus: CELL_OTHER numArfcn: 2 arfcn: 1010 1019 numChannels: 20 array: 787 789 794 882 976 979 981 982 983 985 986 987 1012 1013 1015 1016 1017 1020 1021 1022 pbcch: 0 nom: 2 rac: 6 spgc: 0 pat: 6 nco: 0 t3168: 1500 t3192: 500 drxmax: 0 ctrlAck: 0 bsCVmax: 8 alpha: 4 pcMeasCh: 1 
arfcn: 116 rxLev: -98
$GPGSV,3,1,11,08,65,158,14,01,53,282,15,32,32,085,24,14,27,111,26*7C
$GPGSV,3,2,11,27,27,141,16,10,23,049,21,11,63,291,16,39,31,144,*74
$GPGSV,3,3,11,22,45,211,,28,31,302,,03,24,215,*40
$GPRMC,025938.000,A,4806.8659,N,00139.3819,W,2.34,69.67,060218,,,A*4F
$GPGGA,025939.000,4806.8660,N,00139.3815,W,1,06,1.7,146.7,M,48.3,M,,0000*47
$GPGSA,M,3,08,01,32,14,27,10,,,,,,,3.9,1.7,3.5*3D
$GPRMC,025939.000,A,4806.8660,N,00139.3815,W,2.03,69.39,060218,,,A*47
$GPGGA,025940.000,4806.8659,N,00139.3813,W,1,06,1.7,146.4,M,48.3,M,,0000*46
$GPGSA,M,3,08,01,32,14,27,10,,,,,,,3.9,1.7,3.5*3D
$GPRMC,025940.000,A,4806.8659,N,00139.3813,W,2.07,71.01,060218,,,A*43
$GPGGA,025941.000,4806.8657,N,00139.3812,W,1,05,1.5,146.7,M,48.3,M,,0000*4A
$GPGSA,M,3,01,32,14,27,10,,,,,,,,3.2,1.5,2.9*31
$GPRMC,025941.000,A,4806.8657,N,00139.3812,W,1.54,71.50,060218,,,A*4C
arfcn: 118 bsic: 3 rxLev: -98 ber: 7.09 mcc: 208 mnc: 10 lac: 49415 cellId: 45270 cellStatus: CELL_FORBIDDEN numArfcn: 2 arfcn: 86 118 numChannels: 22 array: 76 77 78 79 80 81 82 83 84 85 86 114 115 116 117 118 119 120 121 122 123 124 pbcch: 0 nom: 2 rac: 31 spgc: 0 pat: 6 nco: 0 t3168: 1000 t3192: 500 drxmax: 4 ctrlAck: 1 bsCVmax: 9 alpha: 10 pcMeasCh: 0 
arfcn: 75 rxLev: -98
$GPGGA,025942.000,4806.8656,N,00139.3812,W,1,05,1.5,146.9,M,48.3,M,,0000*46
$GPGSA,M,3,01,32,14,27,10,,,,,,,,3.2,1.5,2.9*31
$GPRMC,025942.000,A,4806.8656,N,00139.3812,W,1.40,69.94,060218,,,A*4A
$GPGGA,025943.000,4806.8655,N,00139.3821,W,1,05,1.5,147.2,M,48.3,M,,0000*4E
$GPGSA,M,3,01,32,14,27,10,,,,,,,,3.2,1.5,2.9*31
$GPGSV,3,1,11,01,53,282,15,32,32,085,24,14,27,111,26,27,27,141,16*7D
$GPGSV,3,2,11,10,23,049,21,08,65,158,06,11,63,291,16,39,31,144,*76
$GPGSV,3,3,11,22,45,211,,28,31,302,,03,24,215,*40
$GPRMC,025943.000,A,4806.8655,N,00139.3821,W,0.94,69.94,060218,,,A*40
$GPGGA,025944.000,4806.8653,N,00139.3828,W,1,05,1.5,147.4,M,48.3,M,,0000*40
arfcn: 82 bsic: 63 rxLev: -98 ber: 0.01 mcc: 208 mnc: 10 lac: 49415 cellId: 53517 cellStatus: CELL_FORBIDDEN numArfcn: 2 arfcn: 82 84 numChannels: 17 array: 76 77 78 79 80 82 85 86 114 115 118 119 120 121 122 123 124 pbcch: 0 nom: 2 rac: 31 spgc: 0 pat: 6 nco: 0 t3168: 1000 t3192: 500 drxmax: 4 ctrlAck: 1 bsCVmax: 9 alpha: 10 pcMeasCh: 0 
arfcn: 515 rxLev: -99
$GPGSA,M,3,01,32,14,27,10,,,,,,,,3.2,1.5,2.9*31
arfcn: 660 rxLev: -99
$GPRMC,025944.000,A,4806.8653,N,00139.3828,W,0.54,69.94,060218,,,A*44
$GPGGA,025945.000,4806.8652,N,00139.3835,W,1,05,1.5,147.7,M,48.3,M,,0000*4F
$GPGSA,M,3,01,32,14,27,10,,,,,,,,3.2,1.5,2.9*31
$GPRMC,025945.000,A,4806.8652,N,00139.3835,W,0.66,69.94,060218,,,A*49
arfcn: 610 bsic: 1 rxLev: -99 ber: 1.08 mcc: FFF mnc: FF lac: 65535 cellId: 0 cellStatus: CELL_OTHER numArfcn: 0 arfcn: numChannels: 0 array:
arfcn: 617 rxLev: -99
arfcn: 73 rxLev: -99
arfcn: 121 rxLev: -99
arfcn: 731 rxLev: -99
$GPGGA,025946.000,4806.8650,N,00139.3839,W,1,05,1.5,147.9,M,48.3,M,,0000*4C
arfcn: 725 rxLev: -99
$GPGSA,M,3,01,32,14,27,10,,,,,,,,3.2,1.5,2.9*31
arfcn: 715 rxLev: -99
arfcn: 749 rxLev: -100
$GPRMC,025946.000,A,4806.8650,N,00139.3839,W,0.27,69.94,060218,,,A*41
arfcn: 111 rxLev: -100
arfcn: 607 rxLev: -100
arfcn: 663 rxLev: -100
arfcn: 669 rxLev: -100
arfcn: 662 rxLev: -100
arfcn: 664 rxLev: -100
arfcn: 661 rxLev: -100
$GPGGA,025947.000,4806.8645,N,00139.3845,W,1,05,1.5,148.1,M,48.3,M,,0000*45
arfcn: 631 rxLev: -100
arfcn: 603 rxLev: -100
$GPGSA,M,3,01,32,14,27,10,,,,,,,,3.2,1.5,2.9*31
arfcn: 977 rxLev: -100
$GPRMC,025947.000,A,4806.8645,N,00139.3845,W,1.38,88.57,060218,,,A*40
arfcn: 751 rxLev: -100
arfcn: 727 rxLev: -100
arfcn: 703 rxLev: -101
arfcn: 705 rxLev: -101
arfcn: 750 rxLev: -101
$GPGGA,025948.000,4806.8640,N,00139.3850,W,1,05,1.5,148.3,M,48.3,M,,0000*49
$GPGSA,M,3,01,32,14,27,10,,,,,,,,3.2,1.5,2.9*31
$GPGSV,3,1,11,01,55,283,16,32,32,084,24,14,28,110,26,27,25,141,16*74
$GPGSV,3,2,11,10,22,049,21,08,64,158,05,11,65,291,15,33,33,198,*79
$GPGSV,3,3,11,22,47,211,,28,31,300,,03,25,215,*41
$GPRMC,025948.000,A,4806.8640,N,00139.3850,W,1.27,95.12,060218,,,A*4D
$GPGGA,025949.000,4806.8633,N,00139.3854,W,1,05,1.5,148.4,M,48.3,M,,0000*4F
$GPGSA,M,3,01,32,14,27,10,,,,,,,,3.2,1.5,2.9*31
$GPRMC,025949.000,A,4806.8633,N,00139.3854,W,1.29,108.07,060218,,,A*73
arfcn: 788 bsic: 63 rxLev: -101 ber: 0.04 mcc: 208 mnc: 20 lac: 418 cellId: 20615 cellStatus: CELL_SUITABLE numArfcn: 1 arfcn: 788 numChannels: 24 array: 787 789 790 792 796 879 883 885 975 978 980 981 982 983 985 986 987 1011 1014 1015 1017 1018 1019 1021 pbcch: 0 nom: 2 rac: 7 spgc: 0 pat: 6 nco: 0 t3168: 1500 t3192: 500 drxmax: 0 ctrlAck: 0 bsCVmax: 8 alpha: 6 pcMeasCh: 1 
arfcn: 975 rxLev: -101
arfcn: 976 rxLev: -101
$GPGGA,025950.000,4806.8627,N,00139.3861,W,1,05,1.5,148.6,M,48.3,M,,0000*46
arfcn: 89 rxLev: -101
arfcn: 618 rxLev: -101
$GPGSA,M,3,01,32,14,27,10,,,,,,,,3.2,1.5,2.9*31
arfcn: 619 rxLev: -101
arfcn: 623 rxLev: -101
$GPRMC,025950.000,A,4806.8627,N,00139.3861,W,0.51,108.07,060218,,,A*76
arfcn: 625 rxLev: -101
$GPGGA,025951.000,4806.8625,N,00139.3867,W,1,05,1.5,148.7,M,48.3,M,,0000*42
$GPGSA,M,3,01,32,14,27,10,,,,,,,,3.2,1.5,2.9*31
$GPRMC,025951.000,A,4806.8625,N,00139.3867,W,0.46,108.07,060218,,,A*75
$GPGGA,025952.000,4806.8624,N,00139.3873,W,1,05,1.5,148.9,M,48.3,M,,0000*4B
$GPGSA,M,3,01,32,14,27,10,,,,,,,,3.2,1.5,2.9*31
$GPRMC,025952.000,A,4806.8624,N,00139.3873,W,0.45,108.07,060218,,,A*71
$GPGGA,025953.000,4806.8623,N,00139.3872,W,1,05,1.5,149.0,M,48.3,M,,0000*44
$GPGSA,M,3,01,32,14,27,10,,,,,,,,3.2,1.5,2.9*31
$GPGSV,3,1,11,01,55,283,16,32,32,084,24,14,28,110,26,27,25,141,16*74
$GPGSV,3,2,11,10,22,049,21,08,64,158,04,11,65,291,13,33,33,198,*7E
$GPGSV,3,3,11,22,47,211,,28,31,300,,03,25,215,*41
$GPRMC,025953.000,A,4806.8623,N,00139.3872,W,1.19,109.26,060218,,,A*7C
$GPGGA,025954.000,4806.8620,N,00139.3873,W,1,05,1.5,149.2,M,48.3,M,,0000*43
$GPGSA,M,3,01,32,14,27,10,,,,,,,,3.2,1.5,2.9*31
$GPRMC,025954.000,A,4806.8620,N,00139.3873,W,1.19,111.98,060218,,,A*75
$GPGGA,025955.000,4806.8618,N,00139.3874,W,1,05,1.5,149.4,M,48.3,M,,0000*48
$GPGSA,M,3,01,32,14,27,10,,,,,,,,3.2,1.5,2.9*31
arfcn: 1012 bsic: 19 rxLev: -101 ber: 2.02 mcc: 208 mnc: 20 lac: 418 cellId: 20011 cellStatus: CELL_OTHER numArfcn: 2 arfcn: 988 1012 numChannels: 24 array: 787 789 794 882 976 977 978 979 980 981 982 983 985 986 987 1011 1013 1014 1015 1016 1017 1019 1020 1021 pbcch: 0 nom: 2 rac: 6 spgc: 0 pat: 6 nco: 0 t3168: 1500 t3192: 500 drxmax: 0 ctrlAck: 0 bsCVmax: 8 alpha: 4 pcMeasCh: 1 
arfcn: 635 rxLev: -101
$GPRMC,025955.000,A,4806.8618,N,00139.3874,W,0.91,111.98,060218,,,A*79
arfcn: 639 rxLev: -101
arfcn: 650 rxLev: -101
arfcn: 666 rxLev: -101
arfcn: 667 rxLev: -101
arfcn: 678 rxLev: -101
arfcn: 682 rxLev: -101
arfcn: 693 rxLev: -101
arfcn: 688 rxLev: -101
$GPGGA,025956.000,4806.8617,N,00139.3876,W,1,05,1.5,149.5,M,48.3,M,,0000*47
arfcn: 679 rxLev: -101
arfcn: 668 rxLev: -101
$GPGSA,M,3,01,32,14,27,10,,,,,,,,3.2,1.5,2.9*31
arfcn: 670 rxLev: -101
arfcn: 672 rxLev: -101
$GPRMC,025956.000,A,4806.8617,N,00139.3876,W,1.19,127.37,060218,,,A*76
arfcn: 674 rxLev: -101
arfcn: 676 rxLev: -101
arfcn: 677 rxLev: -101
arfcn: 651 rxLev: -101
arfcn: 652 rxLev: -101
arfcn: 649 rxLev: -101
arfcn: 659 rxLev: -101
arfcn: 654 rxLev: -101
$GPGGA,025957.000,4806.8616,N,00139.3878,W,1,05,1.5,149.7,M,48.3,M,,0000*4B
arfcn: 638 rxLev: -101
arfcn: 645 rxLev: -101
$GPGSA,M,3,01,32,14,27,10,,,,,,,,3.2,1.5,2.9*31
arfcn: 624 rxLev: -101
arfcn: 627 rxLev: -101
$GPRMC,025957.000,A,4806.8616,N,00139.3878,W,0.45,127.37,060218,,,A*70
arfcn: 628 rxLev: -101
arfcn: 620 rxLev: -101
arfcn: 621 rxLev: -101
arfcn: 759 rxLev: -101
arfcn: 744 rxLev: -101
arfcn: 706 rxLev: -101
arfcn: 717 rxLev: -101
$GPGGA,025958.000,4806.8618,N,00139.3882,W,1,05,1.5,149.8,M,48.3,M,,0000*40
arfcn: 726 rxLev: -101
$GPGSA,M,3,01,32,14,27,10,,,,,,,,3.2,1.5,2.9*31
arfcn: 728 rxLev: -101
arfcn: 732 rxLev: -101
$GPGSV,3,1,11,01,55,283,17,32,32,084,23,14,28,110,26,27,25,141,15*71
arfcn: 724 rxLev: -101
arfcn: 719 rxLev: -102
$GPGSV,3,2,11,10,22,049,21,08,64,158,04,11,65,291,15,33,33,198,*78
arfcn: 733 rxLev: -102
arfcn: 695 rxLev: -102
$GPGSV,3,3,11,22,47,211,,28,31,300,,03,25,215,*41
arfcn: 696 rxLev: -102
arfcn: 697 rxLev: -102
$GPRMC,025958.000,A,4806.8618,N,00139.3882,W,1.65,162.91,060218,,,A*7A
arfcn: 701 rxLev: -102
arfcn: 743 rxLev: -102
arfcn: 747 rxLev: -102
$GPGGA,025959.000,4806.8621,N,00139.3887,W,1,05,1.5,149.9,M,48.3,M,,0000*4F
arfcn: 735 rxLev: -102
$GPGSA,M,3,01,32,14,27,10,,,,,,,,3.2,1.5,2.9*31
arfcn: 741 rxLev: -102
arfcn: 629 rxLev: -102
$GPRMC,025959.000,A,4806.8621,N,00139.3887,W,0.84,162.91,060218,,,A*7A
arfcn: 626 rxLev: -102
arfcn: 644 rxLev: -102
arfcn: 641 rxLev: -102
arfcn: 630 rxLev: -102
arfcn: 655 rxLev: -102
arfcn: 656 rxLev: -102
arfcn: 658 rxLev: -102
arfcn: 648 rxLev: -102
$GPGGA,030000.000,4806.8624,N,00139.3891,W,1,05,1.5,150.1,M,48.3,M,,0000*4C
arfcn: 647 rxLev: -102
$GPGSA,M,3,01,32,14,27,10,,,,,,,,3.2,1.5,2.9*31
arfcn: 673 rxLev: -102
arfcn: 671 rxLev: -102
$GPRMC,030000.000,A,4806.8624,N,00139.3891,W,1.37,191.46,060218,,,A*76
arfcn: 665 rxLev: -102
arfcn: 680 rxLev: -102
arfcn: 681 rxLev: -102
arfcn: 683 rxLev: -102
arfcn: 689 rxLev: -102
arfcn: 83 rxLev: -102
arfcn: 686 rxLev: -102
arfcn: 687 rxLev: -102
$GPGGA,030001.000,4806.8627,N,00139.3895,W,1,05,1.5,150.2,M,48.3,M,,0000*49
arfcn: 685 rxLev: -102
arfcn: 675 rxLev: -102
$GPGSA,M,3,01,32,14,27,10,,,,,,,,3.2,1.5,2.9*31
arfcn: 646 rxLev: -102
arfcn: 632 rxLev: -102
$GPRMC,030001.000,A,4806.8627,N,00139.3895,W,1.32,208.01,060218,,,A*75
arfcn: 633 rxLev: -102
arfcn: 640 rxLev: -102
arfcn: 642 rxLev: -102
arfcn: 643 rxLev: -102
arfcn: 622 rxLev: -102
arfcn: 746 rxLev: -102
arfcn: 742 rxLev: -102
$GPGGA,030002.000,4806.8632,N,00139.3900,W,1,05,1.5,150.3,M,48.3,M,,0000*42
arfcn: 745 rxLev: -102
arfcn: 698 rxLev: -102
$GPGSA,M,3,01,32,14,27,10,,,,,,,,3.2,1.5,2.9*31
