$GPGSA,M,3,09,07,06,30,05,23,16,,,,,,2.5,1.2,2.2*32
$GPGSV,3,1,12,09,58,061,26,07,57,140,17,06,45,205,17,30,39,172,11*72
$GPGSV,3,2,12,05,29,298,17,23,23,067,19,16,10,043,22,02,49,267,07*73
$GPGSV,3,3,12,44,00,000,,04,36,299,,29,08,325,,26,02,017,*7E
Survey start at #CCLK: "18/02/06,10:21:25+04"
at#csurv
Network survey started ...
$GPRMC,092124.000,A,4806.8602,N,00139.4359,W,0.30,262.01,060218,,,A*7F
$GPGGA,092125.000,4806.8603,N,00139.4361,W,1,07,1.2,19.4,M,48.3,M,,0000*78
$GPGSA,M,3,09,07,06,30,05,23,16,,,,,,2.5,1.2,2.2*32
$GPRMC,092125.000,A,4806.8603,N,00139.4361,W,0.69,262.01,060218,,,A*78
$GPGGA,092126.000,4806.8603,N,00139.4364,W,1,07,1.2,19.6,M,48.3,M,,0000*7C
$GPGSA,M,3,09,07,06,30,05,23,16,,,,,,2.5,1.2,2.2*32
$GPRMC,092126.000,A,4806.8603,N,00139.4364,W,0.83,262.01,060218,,,A*7A
$GPGGA,092127.000,4806.8601,N,00139.4365,W,1,07,1.2,19.7,M,48.3,M,,0000*7F
$GPGSA,M,3,09,07,06,30,05,23,16,,,,,,2.5,1.2,2.2*32
$GPRMC,092127.000,A,4806.8601,N,00139.4365,W,1.06,262.01,060218,,,A*74
$GPGGA,092128.000,4806.8600,N,00139.4366,W,1,07,1.2,19.7,M,48.3,M,,0000*72
$GPGSA,M,3,09,07,06,30,05,23,16,,,,,,2.5,1.2,2.2*32
$GPRMC,092128.000,A,4806.8600,N,00139.4366,W,1.06,262.01,060218,,,A*79
$GPGGA,092129.000,4806.8601,N,00139.4367,W,1,07,1.2,19.7,M,48.3,M,,0000*73
$GPGSA,M,3,09,07,06,30,05,23,16,,,,,,2.5,1.2,2.2*32
$GPGSV,3,1,12,09,58,061,26,07,57,140,16,06,45,205,16,30,39,172,10*73
$GPGSV,3,2,12,05,29,298,17,23,23,067,19,16,10,043,22,02,49,267,07*73
$GPGSV,3,3,12,33,33,198,,04,36,299,,29,08,325,,26,02,017,*7E
$GPRMC,092129.000,A,4806.8601,N,00139.4367,W,0.44,262.01,060218,,,A*7F
$GPGGA,092130.000,4806.8601,N,00139.4365,W,1,07,1.2,19.7,M,48.3,M,,0000*79
$GPGSA,M,3,09,07,06,30,05,23,16,,,,,,2.5,1.2,2.2*32
$GPRMC,092130.000,A,4806.8601,N,00139.4365,W,0.12,262.01,060218,,,A*76
$GPGGA,092131.000,4806.8599,N,00139.4367,W,1,08,1.1,19.7,M,48.3,M,,0000*74
$GPGSA,M,3,09,07,02,06,30,05,23,16,,,,,2.4,1.1,2.1*31
$GPRMC,092131.000,A,4806.8599,N,00139.4367,W,0.51,262.01,060218,,,A*70
$GPGGA,092132.000,4806.8599,N,00139.4372,W,1,08,1.1,19.8,M,48.3,M,,0000*7C
$GPGSA,M,3,09,07,02,06,30,05,23,16,,,,,2.4,1.1,2.1*31
$GPRMC,092132.000,A,4806.8599,N,00139.4372,W,0.69,262.01,060218,,,A*7C
$GPGGA,092133.000,4806.8597,N,00139.4375,W,1,08,1.1,19.9,M,48.3,M,,0000*75
$GPGSA,M,3,09,07,02,06,30,05,23,16,,,,,2.4,1.1,2.1*31
$GPRMC,092133.000,A,4806.8597,N,00139.4375,W,0.85,262.01,060218,,,A*76
arfcn: 981 bsic: 46 rxLev: -45 ber: 0.00 mcc: 208 mnc: 20 lac: 418 cellId: 21807 cellStatus: CELL_SUITABLE numArfcn: 1 arfcn: 981 numChannels: 16 array: 787 790 791 793 796 882 884 979 982 983 985 1012 1014 1017 1019 1020 pbcch: 0 nom: 2 rac: 6 spgc: 0 pat: 6 nco: 0 t3168: 1500 t3192: 500 drxmax: 0 ctrlAck: 0 bsCVmax: 8 alpha: 6 pcMeasCh: 1 
arfcn: 985 bsic: 44 rxLev: -50 ber: 0.00 mcc: 208 mnc: 20 lac: 418 cellId: 21808 cellStatus: CELL_SUITABLE numArfcn: 1 arfcn: 985 numChannels: 25 array: 975 977 978 979 980 981 982 983 1011 1012 1014 1015 1017 1019 1020 1021 1022 787 788 790 793 795 796 879 884 pbcch: 0 nom: 2 rac: 6 spgc: 0 pat: 6 nco: 0 t3168: 1500 t3192: 500 drxmax: 0 ctrlAck: 0 bsCVmax: 8 alpha: 6 pcMeasCh: 1 
arfcn: 993 rxLev: -58
arfcn: 994 rxLev: -58
arfcn: 997 rxLev: -58
arfcn: 996 rxLev: -59
arfcn: 995 rxLev: -59
arfcn: 992 rxLev: -59
arfcn: 991 rxLev: -59
$GPGGA,092134.000,4806.8596,N,00139.4380,W,1,08,1.1,20.1,M,48.3,M,,0000*7B
arfcn: 990 rxLev: -59
arfcn: 998 rxLev: -59
$GPGSA,M,3,09,07,02,06,30,05,23,16,,,,,2.4,1.1,2.1*31
arfcn: 1000 rxLev: -59
arfcn: 1001 rxLev: -60
$GPGSV,3,1,12,09,58,061,26,07,57,140,14,02,49,267,10,06,45,205,15*73
arfcn: 999 rxLev: -60
$GPGSV,3,2,12,30,39,172,13,05,29,298,17,23,23,067,19,16,10,043,22*77
arfcn: 1005 rxLev: -60
arfcn: 1007 rxLev: -60
$GPGSV,3,3,12,33,33,198,,04,36,299,,29,08,325,,26,02,017,*7E
arfcn: 1006 rxLev: -60
arfcn: 1002 rxLev: -60
$GPRMC,092134.000,A,4806.8596,N,00139.4380,W,1.12,262.01,060218,,,A*75
arfcn: 1003 rxLev: -60
arfcn: 1004 rxLev: -61
arfcn: 1008 rxLev: -61
$GPGGA,092135.000,4806.8588,N,00139.4380,W,1,08,1.1,20.1,M,48.3,M,,0000*75
arfcn: 982 rxLev: -63
$GPGSA,M,3,09,07,02,06,30,05,23,16,,,,,2.4,1.1,2.1*31
arfcn: 980 rxLev: -64
$GPRMC,092135.000,A,4806.8588,N,00139.4380,W,1.58,241.81,060218,,,A*7C
$GPGGA,092136.000,4806.8588,N,00139.4382,W,1,08,1.1,20.1,M,48.3,M,,0000*74
$GPGSA,M,3,09,07,02,06,30,05,23,16,,,,,2.4,1.1,2.1*31
$GPRMC,092136.000,A,4806.8588,N,00139.4382,W,0.89,241.81,060218,,,A*70
$GPGGA,092137.000,4806.8591,N,00139.4386,W,1,07,1.1,20.1,M,48.3,M,,0000*76
$GPGSA,M,3,09,02,06,30,05,23,16,,,,,,2.5,1.1,2.2*34
$GPRMC,092137.000,A,4806.8591,N,00139.4386,W,0.61,241.81,060218,,,A*7B
arfcn: 12 bsic: 0 rxLev: -64 ber: 0.00 mcc: 208 mnc: 01 lac: 10300 cellId: 6467 cellStatus: CELL_FORBIDDEN numArfcn: 13 arfcn: 12 17 18 19 20 21 22 23 24 25 47 48 49 numChannels: 15 array: 1 2 3 8 9 10 14 512 513 514 515 518 605 606 608 pbcch: 0 nom: 2 rac: 1 spgc: 0 pat: 6 nco: 0 t3168: 1000 t3192: 500 drxmax: 2 ctrlAck: 0 bsCVmax: 9 alpha: 5 pcMeasCh: 1 
arfcn: 986 rxLev: -68
$GPGGA,092138.000,4806.8587,N,00139.4384,W,1,07,1.1,20.1,M,48.3,M,,0000*7C
arfcn: 989 rxLev: -68
$GPGSA,M,3,09,02,06,30,05,23,16,,,,,,2.5,1.1,2.2*34
arfcn: 1009 rxLev: -68
arfcn: 984 rxLev: -69
$GPRMC,092138.000,A,4806.8587,N,00139.4384,W,0.81,241.81,060218,,,A*7F
$GPGGA,092139.000,4806.8589,N,00139.4384,W,1,07,1.1,20.2,M,48.3,M,,0000*70
$GPGSA,M,3,09,02,06,30,05,23,16,,,,,,2.5,1.1,2.2*34
$GPGSV,3,1,12,09,58,061,27,02,49,267,10,06,44,205,11,30,39,172,14*7A
$GPGSV,3,2,12,05,30,298,17,23,23,067,18,16,10,043,22,33,33,198,*71
$GPGSV,3,3,12,07,57,140,,04,36,299,,29,08,325,,26,02,017,*7E
$GPRMC,092139.000,A,4806.8589,N,00139.4384,W,0.41,241.81,060218,,,A*7C
$GPGGA,092140.000,4806.8590,N,00139.4381,W,1,07,1.1,20.4,M,48.3,M,,0000*75
$GPGSA,M,3,09,02,06,30,05,23,16,,,,,,2.5,1.1,2.2*34
$GPRMC,092140.000,A,4806.8590,N,00139.4381,W,0.55,241.81,060218,,,A*7A
arfcn: 983 bsic: 21 rxLev: -74 ber: 0.00 mcc: 208 mnc: 20 lac: 418 cellId: 21809 cellStatus: CELL_SUITABLE numArfcn: 1 arfcn: 983 numChannels: 24 array: 788 790 792 793 795 796 878 882 884 976 977 979 981 985 986 987 1012 1013 1014 1016 1017 1019 1020 1022 pbcch: 0 nom: 2 rac: 6 spgc: 0 pat: 6 nco: 0 t3168: 1500 t3192: 500 drxmax: 0 ctrlAck: 0 bsCVmax: 8 alpha: 6 pcMeasCh: 1 
$GPGGA,092141.000,4806.8592,N,00139.4379,W,1,07,1.1,20.3,M,48.3,M,,0000*76
$GPGSA,M,3,09,02,06,30,05,23,16,,,,,,2.5,1.1,2.2*34
$GPRMC,092141.000,A,4806.8592,N,00139.4379,W,0.28,241.81,060218,,,A*74
$GPGGA,092142.000,4806.8593,N,00139.4377,W,1,07,1.1,20.3,M,48.3,M,,0000*7A
$GPGSA,M,3,09,02,06,30,05,23,16,,,,,,2.5,1.1,2.2*34
$GPRMC,092142.000,A,4806.8593,N,00139.4377,W,0.02,241.81,060218,,,A*70
arfcn: 80 bsic: 47 rxLev: -74 ber: 0.00 mcc: 208 mnc: 10 lac: 49415 cellId: 23568 cellStatus: CELL_FORBIDDEN numArfcn: 2 arfcn: 80 89 numChannels: 19 array: 76 77 78 80 82 83 84 85 113 114 115 116 117 118 119 120 122 123 124 pbcch: 0 nom: 2 rac: 31 spgc: 0 pat: 6 nco: 0 t3168: 1000 t3192: 500 drxmax: 4 ctrlAck: 1 bsCVmax: 9 alpha: 10 pcMeasCh: 0 
arfcn: 880 rxLev: -78
$GPGGA,092143.000,4806.8595,N,00139.4377,W,1,07,1.1,20.1,M,48.3,M,,0000*7F
arfcn: 862 rxLev: -78
$GPGSA,M,3,09,02,06,30,05,23,16,,,,,,2.5,1.1,2.2*34
arfcn: 817 rxLev: -78
arfcn: 792 rxLev: -79
$GPRMC,092143.000,A,4806.8595,N,00139.4377,W,0.35,241.81,060218,,,A*73
arfcn: 793 rxLev: -79
arfcn: 861 rxLev: -79
arfcn: 856 rxLev: -79
arfcn: 866 rxLev: -79
arfcn: 831 rxLev: -79
arfcn: 843 rxLev: -79
arfcn: 850 rxLev: -79
$GPGGA,092144.000,4806.8599,N,00139.4377,W,1,07,1.1,20.0,M,48.3,M,,0000*75
arfcn: 853 rxLev: -79
$GPGSA,M,3,09,02,06,30,05,23,16,,,,,,2.5,1.1,2.2*34
arfcn: 854 rxLev: -79
arfcn: 848 rxLev: -79
$GPGSV,3,1,12,09,58,061,28,02,49,267,12,06,44,205,10,30,39,172,14*76
arfcn: 845 rxLev: -79
arfcn: 841 rxLev: -79
$GPGSV,3,2,12,05,30,298,16,23,23,067,17,16,10,043,21,33,33,198,*7C
arfcn: 823 rxLev: -79
arfcn: 826 rxLev: -79
$GPGSV,3,3,12,07,57,140,,04,36,299,,29,08,325,,26,02,017,*7E
arfcn: 855 rxLev: -79
arfcn: 857 rxLev: -79
$GPRMC,092144.000,A,4806.8599,N,00139.4377,W,0.58,241.81,060218,,,A*73
arfcn: 858 rxLev: -79
arfcn: 860 rxLev: -79
$GPGGA,092145.000,4806.8600,N,00139.4376,W,1,06,1.5,19.9,M,48.3,M,,0000*70
arfcn: 874 rxLev: -79
arfcn: 794 rxLev: -79
$GPGSA,M,3,09,02,06,05,23,16,,,,,,,2.8,1.5,2.4*38
arfcn: 822 rxLev: -79
$GPRMC,092145.000,A,4806.8600,N,00139.4376,W,0.47,241.81,060218,,,A*7E
arfcn: 44 rxLev: -79
arfcn: 41 rxLev: -80
arfcn: 42 rxLev: -80
arfcn: 43 rxLev: -80
arfcn: 38 rxLev: -80
$GPGGA,092146.000,4806.8603,N,00139.4377,W,1,07,1.1,19.8,M,48.3,M,,0000*75
$GPGSA,M,3,09,02,06,30,05,23,16,,,,,,2.5,1.1,2.2*34
$GPRMC,092146.000,A,4806.8603,N,00139.4377,W,0.82,241.81,060218,,,A*76
$GPGGA,092147.000,4806.8606,N,00139.4380,W,1,08,1.1,19.8,M,48.3,M,,0000*76
$GPGSA,M,3,09,07,02,06,30,05,23,16,,,,,2.4,1.1,2.1*31
$GPRMC,092147.000,A,4806.8606,N,00139.4380,W,1.10,241.81,060218,,,A*70
$GPGGA,092148.000,4806.8608,N,00139.4383,W,1,08,1.1,19.8,M,48.3,M,,0000*74
$GPGSA,M,3,09,07,02,06,30,05,23,16,,,,,2.4,1.1,2.1*31
$GPRMC,092148.000,A,4806.8608,N,00139.4383,W,1.06,241.81,060218,,,A*75
arfcn: 10 bsic: 1 rxLev: -80 ber: 4.04 mcc: 208 mnc: 01 lac: 10300 cellId: 39884 cellStatus: CELL_FORBIDDEN numArfcn: 13 arfcn: 10 17 18 19 20 21 22 23 24 25 47 48 49 numChannels: 16 array: 5 6 7 11 15 16 512 514 516 517 518 604 605 608 609 610 pbcch: 0 nom: 2 rac: 1 spgc: 0 pat: 6 nco: 0 t3168: 1000 t3192: 500 drxmax: 2 ctrlAck: 0 bsCVmax: 9 alpha: 5 pcMeasCh: 1 
arfcn: 29 rxLev: -80
arfcn: 821 rxLev: -80
$GPGGA,092149.000,4806.8608,N,00139.4385,W,1,07,1.4,19.8,M,48.3,M,,0000*79
arfcn: 819 rxLev: -80
$GPGSA,M,3,09,07,02,06,05,23,16,,,,,,2.7,1.4,2.3*36
arfcn: 815 rxLev: -80
arfcn: 811 rxLev: -80
$GPGSV,3,1,12,09,58,061,28,07,57,140,17,02,49,267,11,06,44,205,11*7A
arfcn: 812 rxLev: -80
arfcn: 813 rxLev: -80
$GPGSV,3,2,12,05,30,298,16,23,23,067,17,16,10,043,21,30,39,172,14*74
arfcn: 873 rxLev: -80
arfcn: 878 rxLev: -80
$GPGSV,3,3,12,33,33,198,,04,36,299,,29,08,325,,26,02,017,*7E
arfcn: 879 rxLev: -80
arfcn: 859 rxLev: -80
$GPRMC,092149.000,A,4806.8608,N,00139.4385,W,1.08,241.81,060218,,,A*7C
arfcn: 863 rxLev: -80
arfcn: 864 rxLev: -80
$GPGGA,092150.000,4806.8610,N,00139.4387,W,1,07,1.4,19.8,M,48.3,M,,0000*7A
arfcn: 827 rxLev: -80
arfcn: 829 rxLev: -80
$GPGSA,M,3,09,07,02,06,05,23,16,,,,,,2.7,1.4,2.3*36
arfcn: 830 rxLev: -80
$GPRMC,092150.000,A,4806.8610,N,00139.4387,W,0.93,241.81,060218,,,A*7C
arfcn: 832 rxLev: -80
arfcn: 835 rxLev: -80
arfcn: 842 rxLev: -80
arfcn: 849 rxLev: -80
arfcn: 851 rxLev: -80
arfcn: 852 rxLev: -80
arfcn: 839 rxLev: -80
$GPGGA,092151.000,4806.8611,N,00139.4387,W,1,07,1.4,19.9,M,48.3,M,,0000*7B
arfcn: 837 rxLev: -80
arfcn: 833 rxLev: -80
$GPGSA,M,3,09,07,02,06,05,23,16,,,,,,2.7,1.4,2.3*36
arfcn: 825 rxLev: -80
arfcn: 875 rxLev: -80
$GPRMC,092151.000,A,4806.8611,N,00139.4387,W,0.65,241.81,060218,,,A*75
arfcn: 876 rxLev: -80
arfcn: 872 rxLev: -80
arfcn: 814 rxLev: -80
arfcn: 809 rxLev: -80
arfcn: 816 rxLev: -80
arfcn: 796 rxLev: -80
arfcn: 30 rxLev: -80
arfcn: 31 rxLev: -80
$GPGGA,092152.000,4806.8613,N,00139.4387,W,1,08,1.1,20.0,M,48.3,M,,0000*73
arfcn: 13 rxLev: -80
$GPGSA,M,3,09,07,02,06,30,05,23,16,,,,,2.4,1.1,2.1*31
arfcn: 37 rxLev: -80
arfcn: 40 rxLev: -80
$GPRMC,092152.000,A,4806.8613,N,00139.4387,W,0.59,241.81,060218,,,A*7B
$GPGGA,092153.000,4806.8615,N,00139.4386,W,1,08,1.1,20.0,M,48.3,M,,0000*75
$GPGSA,M,3,09,07,02,06,30,05,23,16,,,,,2.4,1.1,2.1*31
$GPRMC,092153.000,A,4806.8615,N,00139.4386,W,0.42,241.81,060218,,,A*77
$GPGGA,092154.000,4806.8618,N,00139.4385,W,1,08,1.1,20.2,M,48.3,M,,0000*7E
arfcn: 78 bsic: 2 rxLev: -80 ber: 0.01 mcc: 208 mnc: 10 lac: 49415 cellId: 45280 cellStatus: CELL_FORBIDDEN numArfcn: 2 arfcn: 78 116 numChannels: 20 array: 76 77 78 79 80 82 83 84 85 86 114 115 116 117 118 120 121 122 123 124 pbcch: 0 nom: 2 rac: 31 spgc: 0 pat: 6 nco: 0 t3168: 1000 t3192: 500 drxmax: 4 ctrlAck: 1 bsCVmax: 9 alpha: 10 pcMeasCh: 0 
$GPGSA,M,3,09,07,02,06,30,05,23,16,,,,,2.4,1.1,2.1*31
$GPGSV,3,1,12,09,58,061,28,07,57,140,17,02,49,267,09,06,44,205,09*7A
$GPGSV,3,2,12,30,39,172,11,05,30,298,16,23,23,067,15,16,10,043,20*72
$GPGSV,3,3,12,33,33,198,,04,36,299,,29,08,325,,26,02,017,*7E
$GPRMC,092154.000,A,4806.8618,N,00139.4385,W,0.23,241.81,060218,,,A*79
$GPGGA,092155.000,4806.8619,N,00139.4381,W,1,08,1.1,20.4,M,48.3,M,,0000*7C
$GPGSA,M,3,09,07,02,06,30,05,23,16,,,,,2.4,1.1,2.1*31
$GPRMC,092155.000,A,4806.8619,N,00139.4381,W,0.68,241.81,060218,,,A*72
$GPGGA,092156.000,4806.8623,N,00139.4381,W,1,08,1.1,20.5,M,48.3,M,,0000*77
$GPGSA,M,3,09,07,02,06,30,05,23,16,,,,,2.4,1.1,2.1*31
$GPRMC,092156.000,A,4806.8623,N,00139.4381,W,0.23,241.81,060218,,,A*77
arfcn: 3 bsic: 0 rxLev: -81 ber: 0.00 mcc: 208 mnc: 01 lac: 10300 cellId: 2686 cellStatus: CELL_FORBIDDEN numArfcn: 13 arfcn: 3 17 18 19 20 21 22 23 24 25 47 48 49 numChannels: 13 array: 1 5 6 7 10 12 14 512 515 517 604 606 608 pbcch: 0 nom: 2 rac: 1 spgc: 0 pat: 6 nco: 0 t3168: 1000 t3192: 500 drxmax: 2 ctrlAck: 0 bsCVmax: 9 alpha: 5 pcMeasCh: 1 
arfcn: 28 rxLev: -81
arfcn: 804 rxLev: -81
arfcn: 806 rxLev: -81
arfcn: 818 rxLev: -81
arfcn: 820 rxLev: -81
$GPGGA,092157.000,4806.8624,N,00139.4382,W,1,08,1.1,20.8,M,48.3,M,,0000*7F
arfcn: 810 rxLev: -81
$GPGSA,M,3,09,07,02,06,30,05,23,16,,,,,2.4,1.1,2.1*31
arfcn: 807 rxLev: -81
arfcn: 808 rxLev: -81
$GPRMC,092157.000,A,4806.8624,N,00139.4382,W,0.51,241.81,060218,,,A*77
arfcn: 867 rxLev: -81
arfcn: 868 rxLev: -81
arfcn: 870 rxLev: -81
arfcn: 824 rxLev: -81
arfcn: 828 rxLev: -81
arfcn: 834 rxLev: -81
arfcn: 838 rxLev: -81
arfcn: 840 rxLev: -81
$GPGGA,092158.000,4806.8625,N,00139.4384,W,1,08,1.1,20.9,M,48.3,M,,0000*76
arfcn: 844 rxLev: -81
arfcn: 877 rxLev: -81
$GPGSA,M,3,09,07,02,06,30,05,23,16,,,,,2.4,1.1,2.1*31
arfcn: 805 rxLev: -81
$GPRMC,092158.000,A,4806.8625,N,00139.4384,W,0.87,241.81,060218,,,A*74
arfcn: 803 rxLev: -81
arfcn: 800 rxLev: -81
arfcn: 801 rxLev: -81
arfcn: 45 rxLev: -81
arfcn: 36 rxLev: -81
arfcn: 39 rxLev: -81
arfcn: 32 rxLev: -81
arfcn: 33 rxLev: -81
$GPGGA,092159.000,4806.8622,N,00139.4385,W,1,07,1.2,21.0,M,48.3,M,,0000*75
arfcn: 34 rxLev: -82
arfcn: 35 rxLev: -82
$GPGSA,M,3,09,07,06,30,05,23,16,,,,,,2.5,1.2,2.2*32
arfcn: 11 rxLev: -82
$GPGSV,3,1,12,09,58,061,28,07,57,140,17,06,44,205,09,30,39,172,09*7B
arfcn: 802 rxLev: -82
arfcn: 799 rxLev: -82
$GPGSV,3,2,12,05,30,298,16,23,23,067,17,16,10,043,20,02,49,267,08*79
arfcn: 795 rxLev: -82
arfcn: 798 rxLev: -82
$GPGSV,3,3,12,37,27,150,,04,36,299,,29,08,325,,26,02,017,*7B
arfcn: 869 rxLev: -82
arfcn: 865 rxLev: -82
$GPRMC,092159.000,A,4806.8622,N,00139.4385,W,1.39,224.59,060218,,,A*71
arfcn: 836 rxLev: -82
arfcn: 846 rxLev: -82
arfcn: 847 rxLev: -82
$GPGGA,092200.000,4806.8620,N,00139.4386,W,1,05,2.2,21.1,M,48.3,M,,0000*7B
arfcn: 871 rxLev: -82
$GPGSA,M,3,09,07,05,23,16,,,,,,,,3.7,2.2,3.0*34
arfcn: 797 rxLev: -82
$GPRMC,092200.000,A,4806.8620,N,00139.4386,W,1.29,217.65,060218,,,A*71
$GPGGA,092201.000,4806.8616,N,00139.4384,W,1,07,1.2,21.2,M,48.3,M,,0000*7F
$GPGSA,M,3,09,07,02,30,05,23,16,,,,,,2.5,1.2,2.1*35
$GPRMC,092201.000,A,4806.8616,N,00139.4384,W,1.95,198.89,060218,,,A*76
$GPGGA,092202.000,4806.8612,N,00139.4383,W,1,07,1.2,21.3,M,48.3,M,,0000*7E
$GPGSA,M,3,09,07,02,30,05,23,16,,,,,,2.5,1.2,2.1*35
$GPRMC,092202.000,A,4806.8612,N,00139.4383,W,1.93,192.41,060218,,,A*7E
$GPGGA,092203.000,4806.8609,N,00139.4383,W,1,07,1.2,21.4,M,48.3,M,,0000*72
$GPGSA,M,3,09,07,02,30,05,23,16,,,,,,2.5,1.2,2.1*35
$GPRMC,092203.000,A,4806.8609,N,00139.4383,W,1.81,190.21,060218,,,A*72
$GPGGA,092204.000,4806.8607,N,00139.4378,W,1,08,1.1,21.5,M,48.3,M,,0000*72
arfcn: 605 bsic: 33 rxLev: -82 ber: 0.09 mcc: 208 mnc: 01 lac: 10300 cellId: 27588 cellStatus: CELL_FORBIDDEN numArfcn: 22 arfcn: 525 526 527 528 529 530 531 532 533 534 535 587 588 589 590 591 592 593 594 595 596 597 numChannels: 18 array: 1 3 5 8 12 15 512 513 514 515 516 517 518 604 605 606 607 609 pbcch: 0 nom: 2 rac: 1 spgc: 0 pat: 6 nco: 0 t3168: 1000 t3192: 500 drxmax: 2 ctrlAck: 0 bsCVmax: 9 alpha: 5 pcMeasCh: 1 
$GPGSA,M,3,09,07,02,06,30,05,23,16,,,,,2.4,1.1,2.1*31
$GPGSV,3,1,12,09,58,061,29,07,57,140,16,02,49,267,12,06,44,205,13*7B
$GPGSV,3,2,12,30,39,172,10,05,30,298,15,23,23,067,18,16,10,043,20*7D
$GPGSV,3,3,12,37,27,150,,04,36,299,,29,08,325,,26,02,017,*7B
$GPRMC,092204.000,A,4806.8607,N,00139.4378,W,1.48,187.40,060218,,,A*7B
$GPGGA,092205.000,4806.8607,N,00139.4372,W,1,08,1.1,21.5,M,48.3,M,,0000*79
$GPGSA,M,3,09,07,02,06,30,05,23,16,,,,,2.4,1.1,2.1*31
$GPRMC,092205.000,A,4806.8607,N,00139.4372,W,1.22,184.45,060218,,,A*7A
$GPGGA,092206.000,4806.8608,N,00139.4367,W,1,08,1.1,21.5,M,48.3,M,,0000*71
$GPGSA,M,3,09,07,02,06,30,05,23,16,,,,,2.4,1.1,2.1*31
$GPRMC,092206.000,A,4806.8608,N,00139.4367,W,1.09,184.45,060218,,,A*7B
$GPGGA,092207.000,4806.8606,N,00139.4364,W,1,08,1.1,21.5,M,48.3,M,,0000*7D
arfcn: 515 bsic: 34 rxLev: -83 ber: 0.00 mcc: 208 mnc: 01 lac: 10300 cellId: 27586 cellStatus: CELL_FORBIDDEN numArfcn: 16 arfcn: 519 520 521 522 523 524 525 526 596 597 598 599 600 601 602 603 numChannels: 9 array: 1 8 12 512 513 516 605 606 607 pbcch: 0 nom: 2 rac: 1 spgc: 0 pat: 6 nco: 0 t3168: 1000 t3192: 500 drxmax: 2 ctrlAck: 0 bsCVmax: 9 alpha: 5 pcMeasCh: 1 
$GPGSA,M,3,09,07,02,06,30,05,23,16,,,,,2.4,1.1,2.1*31
$GPRMC,092207.000,A,4806.8606,N,00139.4364,W,1.15,184.45,060218,,,A*7A
$GPGGA,092208.000,4806.8607,N,00139.4362,W,1,08,1.1,21.5,M,48.3,M,,0000*75
$GPGSA,M,3,09,07,02,06,30,05,23,16,,,,,2.4,1.1,2.1*31
$GPRMC,092208.000,A,4806.8607,N,00139.4362,W,1.13,184.45,060218,,,A*74
arfcn: 512 bsic: 25 rxLev: -83 ber: 0.03 mcc: 208 mnc: 01 lac: 10300 cellId: 40155 cellStatus: CELL_FORBIDDEN numArfcn: 16 arfcn: 519 520 521 522 523 524 525 526 596 597 598 599 600 601 602 603 numChannels: 16 array: 2 3 5 8 10 11 12 15 16 517 518 604 605 606 609 610 pbcch: 0 nom: 2 rac: 1 spgc: 0 pat: 6 nco: 0 t3168: 1000 t3192: 500 drxmax: 2 ctrlAck: 0 bsCVmax: 9 alpha: 5 pcMeasCh: 1 
$GPGGA,092209.000,4806.8606,N,00139.4363,W,1,08,1.1,21.4,M,48.3,M,,0000*75
$GPGSA,M,3,09,07,02,06,30,05,23,16,,,,,2.4,1.1,2.1*31
$GPGSV,3,1,12,09,58,061,29,07,57,140,14,02,49,267,11,06,44,205,12*7B
$GPGSV,3,2,12,30,39,172,11,05,30,298,15,23,22,067,18,16,10,043,20*7D
$GPGSV,3,3,12,37,27,150,,04,36,299,,29,08,325,,26,02,017,*7B
$GPRMC,092209.000,A,4806.8606,N,00139.4363,W,1.14,184.45,060218,,,A*72
$GPGGA,092210.000,4806.8608,N,00139.4364,W,1,06,1.2,21.4,M,48.3,M,,0000*79
$GPGSA,M,3,09,06,30,05,23,16,,,,,,,2.6,1.2,2.4*30
$GPRMC,092210.000,A,4806.8608,N,00139.4364,W,0.53,184.45,060218,,,A*71
$GPGGA,092211.000,4806.8609,N,00139.4365,W,1,05,1.3,21.0,M,48.3,M,,0000*7E
$GPGSA,M,3,09,30,05,23,16,,,,,,,,2.3,1.3,1.9*3C
$GPRMC,092211.000,A,4806.8609,N,00139.4365,W,0.25,184.45,060218,,,A*71
$GPGGA,092212.000,4806.8610,N,00139.4365,W,1,05,1.3,20.6,M,48.3,M,,0000*72
$GPGSA,M,3,09,30,05,23,16,,,,,,,,2.3,1.3,1.9*3C
$GPRMC,092212.000,A,4806.8610,N,00139.4365,W,0.04,184.45,060218,,,A*79
arfcn: 14 bsic: 35 rxLev: -83 ber: 0.00 mcc: 208 mnc: 01 lac: 10300 cellId: 39250 cellStatus: CELL_FORBIDDEN numArfcn: 13 arfcn: 14 17 18 19 20 21 22 23 24 25 47 48 49 numChannels: 14 array: 1 3 4 6 8 10 12 14 512 513 514 517 604 608 pbcch: 0 nom: 2 rac: 1 spgc: 1 pat: 6 nco: 0 t3168: 1000 t3192: 500 drxmax: 4 ctrlAck: 1 bsCVmax: 9 alpha: 7 pcMeasCh: 0 
arfcn: 27 rxLev: -83
arfcn: 56 rxLev: -83
arfcn: 57 rxLev: -83
$GPGGA,092213.000,4806.8611,N,00139.4364,W,1,05,1.3,20.3,M,48.3,M,,0000*76
$GPGSA,M,3,09,30,05,23,16,,,,,,,,2.3,1.3,1.9*3C
$GPRMC,092213.000,A,4806.8611,N,00139.4364,W,0.12,184.45,060218,,,A*7F
$GPGGA,092214.000,4806.8611,N,00139.4363,W,1,05,1.3,20.0,M,48.3,M,,0000*75
arfcn: 85 bsic: 0 rxLev: -83 ber: 0.00 mcc: 208 mnc: 10 lac: 49415 cellId: 44814 cellStatus: CELL_FORBIDDEN numArfcn: 2 arfcn: 85 119 numChannels: 20 array: 76 77 78 79 80 82 83 85 86 114 115 116 117 118 119 120 121 122 123 124 pbcch: 0 nom: 2 rac: 31 spgc: 0 pat: 6 nco: 0 t3168: 1000 t3192: 500 drxmax: 4 ctrlAck: 1 bsCVmax: 9 alpha: 10 pcMeasCh: 0 
arfcn: 881 rxLev: -83
$GPGSA,M,3,09,30,05,23,16,,,,,,,,2.3,1.3,1.9*3C
$GPGSV,3,1,12,09,58,061,29,30,39,172,09,05,30,298,15,23,22,067,17*73
$GPGSV,3,2,12,16,10,043,21,07,57,139,04,37,27,150,,02,49,267,*7A
$GPGSV,3,3,12,06,44,205,,04,36,299,,29,08,325,,26,02,017,*7F
$GPRMC,092214.000,A,4806.8611,N,00139.4363,W,0.13,184.45,060218,,,A*7E
$GPGGA,092215.000,4806.8610,N,00139.4361,W,1,05,1.3,19.7,M,48.3,M,,0000*7A
$GPGSA,M,3,09,30,05,23,16,,,,,,,,2.3,1.3,1.9*3C
$GPRMC,092215.000,A,4806.8610,N,00139.4361,W,0.42,184.45,060218,,,A*78
$GPGGA,092216.000,4806.8609,N,00139.4359,W,1,05,1.3,19.5,M,48.3,M,,0000*78
$GPGSA,M,3,09,30,05,23,16,,,,,,,,2.3,1.3,1.9*3C
$GPRMC,092216.000,A,4806.8609,N,00139.4359,W,0.45,184.45,060218,,,A*7F
$GPGGA,092217.000,4806.8610,N,00139.4361,W,1,05,1.3,19.3,M,48.3,M,,0000*7C
$GPGSA,M,3,09,30,05,23,16,,,,,,,,2.3,1.3,1.9*3C
$GPRMC,092217.000,A,4806.8610,N,00139.4361,W,0.38,184.45,060218,,,A*77
arfcn: 122 bsic: 3 rxLev: -84 ber: 0.00 mcc: 208 mnc: 10 lac: 49415 cellId: 33517 cellStatus: CELL_FORBIDDEN numArfcn: 3 arfcn: 77 88 122 numChannels: 17 array: 77 78 79 80 82 84 85 86 114 115 117 118 119 120 122 123 124 pbcch: 0 nom: 2 rac: 31 spgc: 0 pat: 6 nco: 0 t3168: 1000 t3192: 500 drxmax: 4 ctrlAck: 1 bsCVmax: 9 alpha: 10 pcMeasCh: 0 
arfcn: 58 rxLev: -84
arfcn: 55 rxLev: -84
$GPGGA,092218.000,4806.8608,N,00139.4363,W,1,05,1.3,19.1,M,48.3,M,,0000*7A
arfcn: 46 rxLev: -84
$GPGSA,M,3,09,30,05,23,16,,,,,,,,2.3,1.3,1.9*3C
$GPRMC,092218.000,A,4806.8608,N,00139.4363,W,0.98,184.45,060218,,,A*79
$GPGGA,092219.000,4806.8607,N,00139.4365,W,1,04,5.9,18.9,M,48.3,M,,0000*74
$GPGSA,M,3,09,05,23,16,,,,,,,,,7.2,5.9,4.2*3B
$GPGSV,3,1,12,09,58,061,28,05,30,298,11,23,22,067,17,16,10,043,21*70
$GPGSV,3,2,12,07,57,139,04,30,39,172,08,37,27,150,,02,49,267,*7D
$GPGSV,3,3,12,06,44,205,,04,36,299,,29,08,325,,26,02,017,*7F
$GPRMC,092219.000,A,4806.8607,N,00139.4365,W,1.04,184.45,060218,,,A*75
$GPGGA,092220.000,4806.8606,N,00139.4367,W,1,04,5.9,18.7,M,48.3,M,,0000*73
$GPGSA,M,3,09,05,23,16,,,,,,,,,7.2,5.9,4.2*3B
$GPRMC,092220.000,A,4806.8606,N,00139.4367,W,1.12,184.45,060218,,,A*7B
$GPGGA,092221.000,4806.8607,N,00139.4368,W,1,04,5.9,18.5,M,48.3,M,,0000*7E
$GPGSA,M,3,09,05,23,16,,,,,,,,,7.2,5.9,4.2*3B
$GPRMC,092221.000,A,4806.8607,N,00139.4368,W,1.07,184.45,060218,,,A*70
arfcn: 1 bsic: 44 rxLev: -84 ber: 1.03 mcc: 208 mnc: 01 lac: 10300 cellId: 6468 cellStatus: CELL_FORBIDDEN numArfcn: 13 arfcn: 1 17 18 19 20 21 22 23 24 25 47 48 49 numChannels: 24 array: 2 4 5 6 7 8 9 10 11 12 15 512 513 514 515 516 517 518 605 606 607 608 609 610 pbcch: 0 nom: 2 rac: 1 spgc: 0 pat: 6 nco: 0 t3168: 1000 t3192: 500 drxmax: 2 ctrlAck: 0 bsCVmax: 9 alpha: 5 pcMeasCh: 1 
arfcn: 59 rxLev: -85
arfcn: 62 rxLev: -85
arfcn: 63 rxLev: -85
arfcn: 64 rxLev: -85
arfcn: 67 rxLev: -85
arfcn: 68 rxLev: -85
arfcn: 70 rxLev: -85
arfcn: 26 rxLev: -85
arfcn: 791 rxLev: -85
$GPGGA,092222.000,4806.8609,N,00139.4368,W,1,04,5.9,18.4,M,48.3,M,,0000*72
$GPGSA,M,3,09,05,23,16,,,,,,,,,7.2,5.9,4.2*3B
$GPRMC,092222.000,A,4806.8609,N,00139.4368,W,0.73,184.45,060218,,,A*7F
$GPGGA,092223.000,4806.8610,N,00139.4367,W,1,04,5.9,18.2,M,48.3,M,,0000*72
$GPGSA,M,3,09,05,23,16,,,,,,,,,7.2,5.9,4.2*3B
$GPRMC,092223.000,A,4806.8610,N,00139.4367,W,0.62,184.45,060218,,,A*79
$GPGGA,092224.000,4806.8611,N,00139.4368,W,1,04,5.9,18.1,M,48.3,M,,0000*78
$GPGSA,M,3,09,05,23,16,,,,,,,,,7.2,5.9,4.2*3B
$GPGSV,3,1,12,09,58,061,27,05,30,298,10,23,22,067,16,16,10,043,21*7F
$GPGSV,3,2,12,07,57,139,04,30,39,172,04,37,27,150,,02,49,267,*71
$GPGSV,3,3,12,06,44,205,,04,36,299,,29,08,325,,26,02,017,*7F
$GPRMC,092224.000,A,4806.8611,N,00139.4368,W,0.68,184.45,060218,,,A*7A
$GPGGA,092225.000,4806.8614,N,00139.4367,W,1,04,5.9,18.0,M,48.3,M,,0000*72
arfcn: 8 bsic: 48 rxLev: -86 ber: 0.00 mcc: 208 mnc: 01 lac: 10300 cellId: 6473 cellStatus: CELL_FORBIDDEN numArfcn: 13 arfcn: 8 17 18 19 20 21 22 23 24 25 47 48 49 numChannels: 18 array: 1 2 3 4 5 10 12 13 14 15 512 513 514 515 516 517 605 610 pbcch: 0 nom: 2 rac: 1 spgc: 0 pat: 6 nco: 0 t3168: 1000 t3192: 500 drxmax: 2 ctrlAck: 0 bsCVmax: 9 alpha: 5 pcMeasCh: 1 
arfcn: 60 rxLev: -86
$GPGSA,M,3,09,05,23,16,,,,,,,,,7.2,5.9,4.2*3B
arfcn: 54 rxLev: -86
arfcn: 69 rxLev: -86
$GPRMC,092225.000,A,4806.8614,N,00139.4367,W,0.80,184.45,060218,,,A*77
$GPGGA,092226.000,4806.8615,N,00139.4365,W,1,05,1.3,18.0,M,48.3,M,,0000*7D
$GPGSA,M,3,09,30,05,23,16,,,,,,,,2.3,1.3,1.9*3C
$GPRMC,092226.000,A,4806.8615,N,00139.4365,W,0.50,184.45,060218,,,A*7A
$GPGGA,092227.000,4806.8616,N,00139.4364,W,1,05,1.3,18.1,M,48.3,M,,0000*7F
$GPGSA,M,3,09,30,05,23,16,,,,,,,,2.3,1.3,1.9*3C
$GPRMC,092227.000,A,4806.8616,N,00139.4364,W,0.29,184.45,060218,,,A*77
$GPGGA,092228.000,4806.8625,N,00139.4361,W,1,05,1.3,18.1,M,48.3,M,,0000*75
$GPGSA,M,3,09,30,05,23,16,,,,,,,,2.3,1.3,1.9*3C
$GPRMC,092228.000,A,4806.8625,N,00139.4361,W,1.10,184.45,060218,,,A*76
arfcn: 979 bsic: 19 rxLev: -86 ber: 1.02 mcc: 208 mnc: 20 lac: 418 cellId: 20718 cellStatus: CELL_SUITABLE numArfcn: 1 arfcn: 979 numChannels: 22 array: 788 789 790 792 793 795 878 882 884 977 981 983 984 985 986 987 1012 1013 1014 1017 1019 1020 pbcch: 0 nom: 2 rac: 6 spgc: 0 pat: 6 nco: 0 t3168: 1500 t3192: 500 drxmax: 0 ctrlAck: 0 bsCVmax: 8 alpha: 6 pcMeasCh: 1 
$GPGGA,092229.000,4806.8628,N,00139.4356,W,1,05,1.3,18.1,M,48.3,M,,0000*7D
$GPGSA,M,3,09,30,05,23,16,,,,,,,,2.3,1.3,1.9*3C
$GPGSV,3,1,12,09,58,061,26,30,39,172,13,05,30,298,11,23,22,067,17*73
$GPGSV,3,2,12,16,10,043,21,39,31,144,,07,57,139,,02,49,267,*72
$GPGSV,3,3,12,06,44,205,,04,36,299,,29,08,325,,26,02,017,*7F
$GPRMC,092229.000,A,4806.8628,N,00139.4356,W,1.29,118.35,060218,,,A*76
$GPGGA,092230.000,4806.8633,N,00139.4349,W,1,05,1.3,18.2,M,48.3,M,,0000*72
$GPGSA,M,3,09,30,05,23,16,,,,,,,,2.3,1.3,1.9*3C
$GPRMC,092230.000,A,4806.8633,N,00139.4349,W,1.70,85.49,060218,,,A*48
$GPGGA,092231.000,4806.8638,N,00139.4338,W,1,05,1.3,18.3,M,48.3,M,,0000*7F
$GPGSA,M,3,09,30,05,23,16,,,,,,,,2.3,1.3,1.9*3C
$GPRMC,092231.000,A,4806.8638,N,00139.4338,W,2.56,69.46,060218,,,A*4E
$GPGGA,092232.000,4806.8640,N,00139.4326,W,1,05,1.3,18.3,M,48.3,M,,0000*7C
$GPGSA,M,3,09,30,05,23,16,,,,,,,,2.3,1.3,1.9*3C
$GPRMC,092232.000,A,4806.8640,N,00139.4326,W,2.56,70.41,060218,,,A*42
arfcn: 1020 bsic: 39 rxLev: -86 ber: 0.00 mcc: 208 mnc: 20 lac: 418 cellId: 38980 cellStatus: CELL_SUITABLE numArfcn: 1 arfcn: 1020 numChannels: 26 array: 787 788 790 791 793 795 796 879 884 885 978 979 981 982 983 985 986 987 1011 1012 1013 1014 1015 1017 1019 1022 pbcch: 0 nom: 2 rac: 6 spgc: 0 pat: 6 nco: 0 t3168: 1500 t3192: 500 drxmax: 0 ctrlAck: 0 bsCVmax: 8 alpha: 6 pcMeasCh: 1 
arfcn: 71 rxLev: -86
$GPGGA,092233.000,4806.8643,N,00139.4314,W,1,05,1.3,18.3,M,48.3,M,,0000*7F
$GPGSA,M,3,09,30,05,23,16,,,,,,,,2.3,1.3,1.9*3C
$GPRMC,092233.000,A,4806.8643,N,00139.4314,W,2.51,71.11,060218,,,A*42
$GPGGA,092234.000,4806.8646,N,00139.4302,W,1,05,1.3,18.3,M,48.3,M,,0000*7A
$GPGSA,M,3,09,30,05,23,16,,,,,,,,2.3,1.3,1.9*3C
$GPGSV,3,1,12,09,58,061,25,30,39,172,14,05,30,298,10,23,22,067,17*76
$GPGSV,3,2,12,16,10,043,21,39,31,144,,07,57,139,,02,49,267,*72
$GPGSV,3,3,12,06,44,205,,04,36,299,,29,08,325,,26,02,017,*7F
$GPRMC,092234.000,A,4806.8646,N,00139.4302,W,2.40,70.36,060218,,,A*43
arfcn: 76 bsic: 5 rxLev: -86 ber: 0.00 mcc: 208 mnc: 10 lac: 49415 cellId: 44813 cellStatus: CELL_FORBIDDEN numArfcn: 2 arfcn: 76 121 numChannels: 16 array: 76 77 78 79 80 82 84 85 86 113 114 117 118 121 123 124 pbcch: 0 nom: 2 rac: 31 spgc: 0 pat: 6 nco: 0 t3168: 1000 t3192: 500 drxmax: 4 ctrlAck: 1 bsCVmax: 9 alpha: 10 pcMeasCh: 0 
arfcn: 61 rxLev: -86
$GPGGA,092235.000,4806.8651,N,00139.4293,W,1,05,1.3,18.3,M,48.3,M,,0000*74
$GPGSA,M,3,09,30,05,23,16,,,,,,,,2.3,1.3,1.9*3C
$GPRMC,092235.000,A,4806.8651,N,00139.4293,W,2.25,67.79,060218,,,A*43
$GPGGA,092236.000,4806.8655,N,00139.4286,W,1,05,1.3,18.3,M,48.3,M,,0000*77
$GPGSA,M,3,09,30,05,23,16,,,,,,,,2.3,1.3,1.9*3C
$GPRMC,092236.000,A,4806.8655,N,00139.4286,W,1.81,66.44,060218,,,A*42
arfcn: 5 bsic: 1 rxLev: -86 ber: 0.00 mcc: 208 mnc: 01 lac: 10300 cellId: 40079 cellStatus: CELL_FORBIDDEN numArfcn: 13 arfcn: 5 17 18 19 20 21 22 23 24 25 47 48 49 numChannels: 20 array: 1 2 3 4 5 8 9 10 11 13 14 15 16 512 513 518 604 606 608 610 pbcch: 0 nom: 2 rac: 1 spgc: 0 pat: 6 nco: 0 t3168: 1000 t3192: 500 drxmax: 2 ctrlAck: 0 bsCVmax: 9 alpha: 5 pcMeasCh: 1 
$GPGGA,092237.000,4806.8659,N,00139.4282,W,1,05,1.3,18.3,M,48.3,M,,0000*7E
$GPGSA,M,3,09,30,05,23,16,,,,,,,,2.3,1.3,1.9*3C
$GPRMC,092237.000,A,4806.8659,N,00139.4282,W,1.18,65.72,060218,,,A*4D
$GPGGA,092238.000,4806.8661,N,00139.4284,W,1,05,1.3,18.4,M,48.3,M,,0000*7B
$GPGSA,M,3,09,30,05,23,16,,,,,,,,2.3,1.3,1.9*3C
$GPRMC,092238.000,A,4806.8661,N,00139.4284,W,0.61,65.72,060218,,,A*40
arfcn: 4 bsic: 54 rxLev: -87 ber: 1.01 mcc: 208 mnc: 01 lac: 10300 cellId: 43768 cellStatus: CELL_FORBIDDEN numArfcn: 13 arfcn: 4 17 18 19 20 21 22 23 24 25 47 48 49 numChannels: 20 array: 1 3 5 6 7 8 12 13 14 513 514 515 517 518 601 605 606 608 609 610 pbcch: 0 nom: 2 rac: 1 spgc: 0 pat: 6 nco: 0 t3168: 1000 t3192: 500 drxmax: 2 ctrlAck: 0 bsCVmax: 9 alpha: 5 pcMeasCh: 1 
$GPGGA,092239.000,4806.8666,N,00139.4287,W,1,05,1.3,18.4,M,48.3,M,,0000*7E
$GPGSA,M,3,09,30,05,23,16,,,,,,,,2.3,1.3,1.9*3C
$GPGSV,3,1,12,09,58,061,24,30,39,172,14,05,30,298,11,23,22,067,18*79
$GPGSV,3,2,12,16,10,043,21,39,31,144,,07,57,139,,02,49,267,*72
$GPGSV,3,3,12,06,44,205,,04,36,299,,29,08,325,,26,02,017,*7F
$GPRMC,092239.000,A,4806.8666,N,00139.4287,W,1.01,65.72,060218,,,A*42
$GPGGA,092240.000,4806.8673,N,00139.4288,W,1,05,1.3,18.4,M,48.3,M,,0000*7B
$GPGSA,M,3,09,30,05,23,16,,,,,,,,2.3,1.3,1.9*3C
$GPRMC,092240.000,A,4806.8673,N,00139.4288,W,1.47,48.94,060218,,,A*42
$GPGGA,092241.000,4806.8678,N,00139.4287,W,1,05,1.3,18.5,M,48.3,M,,0000*7F
$GPGSA,M,3,09,30,05,23,16,,,,,,,,2.3,1.3,1.9*3C
$GPRMC,092241.000,A,4806.8678,N,00139.4287,W,1.34,39.34,060218,,,A*4F
arfcn: 2 bsic: 54 rxLev: -87 ber: 5.04 mcc: 208 mnc: 01 lac: 10300 cellId: 42646 cellStatus: CELL_FORBIDDEN numArfcn: 13 arfcn: 2 17 18 19 20 21 22 23 24 25 47 48 49 numChannels: 22 array: 1 5 6 7 8 10 12 13 15 16 512 514 515 516 517 518 604 606 607 608 609 610 pbcch: 0 nom: 2 rac: 1 spgc: 0 pat: 6 nco: 0 t3168: 1000 t3192: 500 drxmax: 2 ctrlAck: 0 bsCVmax: 9 alpha: 5 pcMeasCh: 1 
arfcn: 66 rxLev: -87
arfcn: 65 rxLev: -87
$GPGGA,092242.000,4806.8677,N,00139.4286,W,1,05,1.3,18.5,M,48.3,M,,0000*72
$GPGSA,M,3,09,30,05,23,16,,,,,,,,2.3,1.3,1.9*3C
$GPRMC,092242.000,A,4806.8677,N,00139.4286,W,0.56,39.34,060218,,,A*47
$GPGGA,092243.000,4806.8677,N,00139.4286,W,1,05,1.3,18.5,M,48.3,M,,0000*73
$GPGSA,M,3,09,30,05,23,16,,,,,,,,2.3,1.3,1.9*3C
$GPRMC,092243.000,A,4806.8677,N,00139.4286,W,0.15,39.34,060218,,,A*41
arfcn: 114 bsic: 6 rxLev: -88 ber: 0.00 mcc: 208 mnc: 10 lac: 49415 cellId: 44202 cellStatus: CELL_FORBIDDEN numArfcn: 2 arfcn: 80 114 numChannels: 20 array: 76 77 78 79 80 84 85 86 113 114 115 116 117 118 119 120 121 122 123 124 pbcch: 0 nom: 2 rac: 31 spgc: 0 pat: 6 nco: 0 t3168: 1000 t3192: 500 drxmax: 4 ctrlAck: 1 bsCVmax: 9 alpha: 10 pcMeasCh: 0 
$GPGGA,092244.000,4806.8679,N,00139.4286,W,1,05,1.3,18.6,M,48.3,M,,0000*79
$GPGSA,M,3,09,30,05,23,16,,,,,,,,2.3,1.3,1.9*3C
$GPGSV,3,1,12,09,58,061,24,30,39,172,12,05,30,298,12,23,22,067,19*7D
$GPGSV,3,2,12,16,10,043,20,07,57,139,14,39,31,144,,02,49,267,*76
$GPGSV,3,3,12,06,44,205,,04,36,299,,29,08,325,,26,02,017,*7F
$GPRMC,092244.000,A,4806.8679,N,00139.4286,W,0.34,39.34,060218,,,A*4B
$GPGGA,092245.000,4806.8681,N,00139.4287,W,1,05,1.3,18.6,M,48.3,M,,0000*7E
$GPGSA,M,3,09,30,05,23,16,,,,,,,,2.3,1.3,1.9*3C
arfcn: 124 bsic: 2 rxLev: -88 ber: 0.05 mcc: 208 mnc: 10 lac: 49415 cellId: 43517 cellStatus: CELL_FORBIDDEN numArfcn: 2 arfcn: 112 124 numChannels: 14 array: 76 77 78 80 82 85 114 115 117 118 120 121 122 124 pbcch: 0 nom: 2 rac: 31 spgc: 0 pat: 6 nco: 0 t3168: 1000 t3192: 500 drxmax: 4 ctrlAck: 1 bsCVmax: 9 alpha: 10 pcMeasCh: 0 
arfcn: 72 rxLev: -88
$GPRMC,092245.000,A,4806.8681,N,00139.4287,W,0.29,39.34,060218,,,A*40
$GPGGA,092246.000,4806.8680,N,00139.4289,W,1,05,4.0,18.7,M,48.3,M,,0000*75
$GPGSA,M,3,09,07,30,23,16,,,,,,,,4.6,4.0,2.3*32
$GPRMC,092246.000,A,4806.8680,N,00139.4289,W,0.22,39.34,060218,,,A*47
$GPGGA,092247.000,4806.8682,N,00139.4291,W,1,05,4.0,18.7,M,48.3,M,,0000*7F
$GPGSA,M,3,09,07,30,23,16,,,,,,,,4.6,4.0,2.3*32
$GPRMC,092247.000,A,4806.8682,N,00139.4291,W,0.28,39.34,060218,,,A*47
$GPGGA,092248.000,4806.8683,N,00139.4294,W,1,05,4.0,18.8,M,48.3,M,,0000*7B
$GPGSA,M,3,09,07,30,23,16,,,,,,,,4.6,4.0,2.3*32
$GPRMC,092248.000,A,4806.8683,N,00139.4294,W,0.14,39.34,060218,,,A*43
$GPGGA,092249.000,4806.8683,N,00139.4295,W,1,05,4.0,18.8,M,48.3,M,,0000*7B
$GPGSA,M,3,09,07,30,23,16,,,,,,,,4.6,4.0,2.3*32
$GPGSV,3,1,12,09,58,061,24,07,57,139,15,30,39,172,11,23,22,067,19*72
$GPGSV,3,2,12,16,10,043,20,05,30,298,11,39,31,144,,02,49,267,*78
arfcn: 1016 bsic: 41 rxLev: -88 ber: 0.00 mcc: 208 mnc: 20 lac: 418 cellId: 23623 cellStatus: CELL_SUITABLE numArfcn: 1 arfcn: 1016 numChannels: 28 array: 787 788 791 792 793 794 795 879 880 883 884 975 977 978 979 981 982 983 986 987 1011 1012 1017 1018 1019 1020 1021 1022 pbcch: 0 nom: 2 rac: 6 spgc: 0 pat: 6 nco: 0 t3168: 1500 t3192: 500 drxmax: 4 ctrlAck: 1 bsCVmax: 8 alpha: 6 pcMeasCh: 1 
$GPGSV,3,3,12,06,44,205,,04,36,299,,29,08,325,,26,02,017,*7F
$GPRMC,092249.000,A,4806.8683,N,00139.4295,W,0.37,39.34,060218,,,A*42
$GPGGA,092250.000,4806.8681,N,00139.4291,W,1,05,4.0,18.8,M,48.3,M,,0000*75
$GPGSA,M,3,09,07,30,23,16,,,,,,,,4.6,4.0,2.3*32
$GPRMC,092250.000,A,4806.8681,N,00139.4291,W,1.13,39.34,060218,,,A*4B
$GPGGA,092251.000,4806.8679,N,00139.4292,W,1,05,4.0,18.9,M,48.3,M,,0000*71
$GPGSA,M,3,09,07,30,23,16,,,,,,,,4.6,4.0,2.3*32
$GPRMC,092251.000,A,4806.8679,N,00139.4292,W,1.44,57.28,060218,,,A*49
$GPGGA,092252.000,4806.8676,N,00139.4290,W,1,05,4.0,18.9,M,48.3,M,,0000*7F
$GPGSA,M,3,09,07,30,23,16,,,,,,,,4.6,4.0,2.3*32
arfcn: 514 bsic: 1 rxLev: -88 ber: 0.01 mcc: 208 mnc: 01 lac: 10300 cellId: 39259 cellStatus: CELL_FORBIDDEN numArfcn: 17 arfcn: 514 519 520 521 522 523 524 525 526 596 597 598 599 600 601 602 603 numChannels: 14 array: 1 6 8 10 12 14 512 513 514 517 604 605 606 608 pbcch: 0 nom: 2 rac: 1 spgc: 1 pat: 6 nco: 0 t3168: 1000 t3192: 500 drxmax: 4 ctrlAck: 1 bsCVmax: 9 alpha: 7 pcMeasCh: 0 
$GPRMC,092252.000,A,4806.8676,N,00139.4290,W,1.54,72.64,060218,,,A*49
$GPGGA,092253.000,4806.8672,N,00139.4293,W,1,05,4.0,18.9,M,48.3,M,,0000*79
$GPGSA,M,3,09,07,30,23,16,,,,,,,,4.6,4.0,2.3*32
$GPRMC,092253.000,A,4806.8672,N,00139.4293,W,1.86,90.29,060218,,,A*45
$GPGGA,092254.000,4806.8671,N,00139.4302,W,1,05,4.0,19.0,M,48.3,M,,0000*7C
arfcn: 604 bsic: 20 rxLev: -88 ber: 0.00 mcc: 208 mnc: 01 lac: 10300 cellId: 39915 cellStatus: CELL_FORBIDDEN numArfcn: 16 arfcn: 519 520 521 522 523 524 525 526 596 597 598 599 600 601 602 603 numChannels: 13 array: 5 6 10 15 16 512 514 516 517 518 608 609 610 pbcch: 0 nom: 2 rac: 1 spgc: 0 pat: 6 nco: 0 t3168: 1000 t3192: 500 drxmax: 2 ctrlAck: 0 bsCVmax: 9 alpha: 5 pcMeasCh: 1 
arfcn: 1014 rxLev: -89
$GPGSA,M,3,09,07,30,23,16,,,,,,,,4.6,4.0,2.3*32
arfcn: 120 rxLev: -89
arfcn: 53 rxLev: -89
$GPGSV,3,1,12,09,58,061,24,07,57,139,16,30,39,172,09,23,22,067,19*78
arfcn: 107 rxLev: -89
$GPGSV,3,2,12,16,10,043,20,05,30,298,10,39,31,144,,02,49,267,*79
arfcn: 105 rxLev: -90
arfcn: 96 rxLev: -90
$GPGSV,3,3,12,06,44,205,,04,36,299,,29,08,325,,26,02,017,*7F
arfcn: 97 rxLev: -90
arfcn: 101 rxLev: -90
$GPRMC,092254.000,A,4806.8671,N,00139.4302,W,1.56,101.72,060218,,,A*72
arfcn: 102 rxLev: -90
arfcn: 92 rxLev: -90
arfcn: 95 rxLev: -90
$GPGGA,092255.000,4806.8670,N,00139.4306,W,1,05,4.0,19.0,M,48.3,M,,0000*78
arfcn: 94 rxLev: -90
$GPGSA,M,3,09,07,30,23,16,,,,,,,,4.6,4.0,2.3*32
arfcn: 93 rxLev: -90
arfcn: 91 rxLev: -90
$GPRMC,092255.000,A,4806.8670,N,00139.4306,W,1.42,109.47,060218,,,A*7D
arfcn: 79 rxLev: -90
arfcn: 100 rxLev: -90
arfcn: 99 rxLev: -90
arfcn: 104 rxLev: -90
arfcn: 106 rxLev: -90
arfcn: 108 rxLev: -90
$GPGGA,092256.000,4806.8669,N,00139.4307,W,1,05,4.0,19.0,M,48.3,M,,0000*72
$GPGSA,M,3,09,07,30,23,16,,,,,,,,4.6,4.0,2.3*32
$GPRMC,092256.000,A,4806.8669,N,00139.4307,W,1.10,109.47,060218,,,A*70
$GPGGA,092257.000,4806.8671,N,00139.4313,W,1,05,4.0,19.1,M,48.3,M,,0000*7E
$GPGSA,M,3,09,07,30,23,16,,,,,,,,4.6,4.0,2.3*32
arfcn: 117 bsic: 12 rxLev: -90 ber: 0.00 mcc: 208 mnc: 10 lac: 49415 cellId: 3568 cellStatus: CELL_FORBIDDEN numArfcn: 2 arfcn: 82 117 numChannels: 17 array: 76 77 78 79 80 83 84 85 87 113 114 116 117 120 122 123 124 pbcch: 0 nom: 2 rac: 31 spgc: 0 pat: 6 nco: 0 t3168: 1000 t3192: 500 drxmax: 4 ctrlAck: 1 bsCVmax: 9 alpha: 10 pcMeasCh: 0 
arfcn: 52 rxLev: -90
arfcn: 47 rxLev: -91
$GPRMC,092257.000,A,4806.8671,N,00139.4313,W,0.47,109.47,060218,,,A*7E
arfcn: 25 rxLev: -91
arfcn: 109 rxLev: -91
arfcn: 103 rxLev: -91
arfcn: 774 rxLev: -91
arfcn: 721 rxLev: -91
arfcn: 720 rxLev: -91
arfcn: 716 rxLev: -91
arfcn: 722 rxLev: -91
arfcn: 724 rxLev: -91
$GPGGA,092258.000,4806.8672,N,00139.4322,W,1,05,4.0,19.1,M,48.3,M,,0000*70
$GPGSA,M,3,09,07,30,23,16,,,,,,,,4.6,4.0,2.3*32
arfcn: 725 rxLev: -91
arfcn: 726 rxLev: -91
$GPRMC,092258.000,A,4806.8672,N,00139.4322,W,0.82,109.47,060218,,,A*79
arfcn: 775 rxLev: -91
arfcn: 98 rxLev: -91
$GPGGA,092259.000,4806.8674,N,00139.4336,W,1,05,4.0,19.2,M,48.3,M,,0000*71
$GPGSA,M,3,09,07,30,23,16,,,,,,,,4.6,4.0,2.3*32
$GPGSV,3,1,12,09,58,061,24,07,57,139,16,30,39,172,10,23,22,067,19*70
$GPGSV,3,2,12,16,10,043,21,05,30,298,10,42,00,000,,02,49,267,*77
$GPGSV,3,3,12,06,44,205,,04,36,299,,29,08,325,,26,02,017,*7F
$GPRMC,092259.000,A,4806.8674,N,00139.4336,W,1.16,109.47,060218,,,A*77
$GPGGA,092300.000,4806.8674,N,00139.4339,W,1,05,4.0,19.1,M,48.3,M,,0000*70
$GPGSA,M,3,09,07,30,23,16,,,,,,,,4.6,4.0,2.3*32
$GPRMC,092300.000,A,4806.8674,N,00139.4339,W,1.09,109.47,060218,,,A*7B
$GPGGA,092301.000,4806.8673,N,00139.4339,W,1,05,4.0,19.1,M,48.3,M,,0000*76
$GPGSA,M,3,09,07,30,23,16,,,,,,,,4.6,4.0,2.3*32
$GPRMC,092301.000,A,4806.8673,N,00139.4339,W,0.86,109.47,060218,,,A*7B
arfcn: 513 bsic: 27 rxLev: -91 ber: 3.04 mcc: 208 mnc: 01 lac: 10300 cellId: 27587 cellStatus: CELL_FORBIDDEN numArfcn: 16 arfcn: 519 520 521 522 523 524 525 526 596 597 598 599 600 601 602 603 numChannels: 14 array: 1 4 8 12 512 513 515 516 517 518 605 606 607 609 pbcch: 0 nom: 2 rac: 1 spgc: 0 pat: 6 nco: 0 t3168: 1000 t3192: 500 drxmax: 2 ctrlAck: 0 bsCVmax: 9 alpha: 5 pcMeasCh: 1 
arfcn: 606 rxLev: -91
$GPGGA,092302.000,4806.8668,N,00139.4341,W,1,05,4.0,19.1,M,48.3,M,,0000*70
$GPGSA,M,3,09,07,30,23,16,,,,,,,,4.6,4.0,2.3*32
$GPRMC,092302.000,A,4806.8668,N,00139.4341,W,1.20,124.55,060218,,,A*7C
$GPGGA,092303.000,4806.8668,N,00139.4334,W,1,05,4.0,19.1,M,48.3,M,,0000*73
$GPGSA,M,3,09,07,30,23,16,,,,,,,,4.6,4.0,2.3*32
$GPRMC,092303.000,A,4806.8668,N,00139.4334,W,0.26,124.55,060218,,,A*78
$GPGGA,092304.000,4806.8666,N,00139.4323,W,1,05,4.0,19.1,M,48.3,M,,0000*7C
$GPGSA,M,3,09,07,30,23,16,,,,,,,,4.6,4.0,2.3*32
$GPGSV,3,1,12,09,58,061,25,07,57,139,16,30,39,172,11,23,22,067,20*7A
$GPGSV,3,2,12,16,10,043,21,05,30,298,11,42,00,000,,02,49,267,*76
$GPGSV,3,3,12,06,44,205,,04,36,299,,29,08,325,,26,02,017,*7F
$GPRMC,092304.000,A,4806.8666,N,00139.4323,W,0.29,124.55,060218,,,A*78
$GPGGA,092305.000,4806.8667,N,00139.4322,W,1,05,4.0,19.0,M,48.3,M,,0000*7C
$GPGSA,M,3,09,07,30,23,16,,,,,,,,4.6,4.0,2.3*32
$GPRMC,092305.000,A,4806.8667,N,00139.4322,W,0.42,124.55,060218,,,A*74
arfcn: 1019 bsic: 48 rxLev: -92 ber: 3.01 mcc: 208 mnc: 20 lac: 418 cellId: 20015 cellStatus: CELL_SUITABLE numArfcn: 2 arfcn: 1010 1019 numChannels: 20 array: 787 789 794 882 976 979 981 982 983 985 986 987 1012 1013 1015 1016 1017 1020 1021 1022 pbcch: 0 nom: 2 rac: 6 spgc: 0 pat: 6 nco: 0 t3168: 1500 t3192: 500 drxmax: 0 ctrlAck: 0 bsCVmax: 8 alpha: 4 pcMeasCh: 1 
$GPGGA,092306.000,4806.8665,N,00139.4312,W,1,05,4.0,19.0,M,48.3,M,,0000*7E
$GPGSA,M,3,09,07,30,23,16,,,,,,,,4.6,4.0,2.3*32
$GPRMC,092306.000,A,4806.8665,N,00139.4312,W,0.53,124.55,060218,,,A*76
Survey end at  [aborted]
Survey duration: 101 seconds, 30 bases detected over 224 freqs scanned.
