$GPGSA,M,1,,,,,,,,,,,,,,,*12
$GPGSV,3,1,11,20,14,039,23,16,70,189,,27,68,304,,18,43,093,*7F
$GPGSV,3,2,11,26,41,164,,21,38,058,,10,36,140,,08,29,286,*71
$GPGSV,3,3,11,07,16,315,,30,04,335,,15,02,053,*4C
$GPRMC,235237.993,V,,,,,,,050218,,,N*42
Survey start at #CCLK: "18/02/06,00:52:38+04"
at#csurv
Network survey started ...
Survey end at #CCLK: "18/02/06,00:52:38+04"
Survey duration: 0 seconds, 0 bases detected over 0 freqs scanned.
$GPGGA,235238.993,,,,,0,00,,,M,0.0,M,,0000*58
$GPGSA,M,1,,,,,,,,,,,,,,,*12
$GPRMC,235238.993,V,,,,,,,050218,,,N*4D
$GPGGA,235239.993,,,,,0,00,,,M,0.0,M,,0000*59
$GPGSA,M,1,,,,,,,,,,,,,,,*12
$GPRMC,235239.993,V,,,,,,,050218,,,N*4C
Survey start at #CCLK: "18/02/06,00:52:40+04"
at#csurv
Network survey started ...
$GPGGA,235240.993,,,,,0,00,,,M,0.0,M,,0000*57
$GPGSA,M,1,,,,,,,,,,,,,,,*12
$GPRMC,235240.993,V,,,,,,,050218,,,N*42
$GPGGA,235241.993,,,,,0,00,,,M,0.0,M,,0000*56
$GPGSA,M,1,,,,,,,,,,,,,,,*12
$GPRMC,235241.993,V,,,,,,,050218,,,N*43
$GPGGA,235242.993,,,,,0,00,,,M,0.0,M,,0000*55
$GPGSA,M,1,,,,,,,,,,,,,,,*12
$GPGSV,3,1,11,20,14,039,23,21,38,058,21,27,68,304,18,16,70,189,*74
$GPGSV,3,2,11,18,43,093,,26,41,164,,10,36,140,,08,29,286,*70
$GPGSV,3,3,11,07,16,315,,30,04,335,,15,02,053,*4C
$GPRMC,235242.993,V,,,,,,,050218,,,N*40
$GPGGA,235243.094,,,,,0,04,2.5,,M,0.0,M,,0000*77
$GPGSA,M,1,,,,,,,,,,,,,,,*12
$GPRMC,235243.094,V,,,,,,,050218,,,N*4F
$GPGGA,235243.994,,,,,0,04,2.5,,M,0.0,M,,0000*7E
$GPGSA,M,1,,,,,,,,,,,,,,,*12
$GPRMC,235243.994,V,,,,,,,050218,,,N*46
$GPGGA,235244.499,,,,,0,04,2.5,,M,0.0,M,,0000*79
$GPGSA,M,1,,,,,,,,,,,,,,,*12
$GPRMC,235244.499,V,,,,,,,050218,,,N*41
$GPGGA,235245.000,,,,,0,04,2.5,,M,0.0,M,,0000*7C
$GPGSA,M,1,,,,,,,,,,,,,,,*12
$GPRMC,235245.000,V,,,,,,,050218,,,N*44
$GPGGA,235246.000,,,,,0,04,2.5,,M,0.0,M,,0000*7F
$GPGSA,M,1,,,,,,,,,,,,,,,*12
$GPGSV,3,1,12,27,68,305,17,21,38,058,20,10,36,139,16,20,13,039,23*77
$GPGSV,3,2,12,16,70,189,14,33,33,198,,18,43,093,,26,41,164,*78
$GPGSV,3,3,12,08,29,286,,07,16,315,,30,04,335,,15,02,053,*70
$GPRMC,235246.000,V,,,,,,,050218,,,N*47
arfcn: 981 bsic: 46 rxLev: -49 ber: 0.00 mcc: 208 mnc: 20 lac: 418 cellId: 21807 cellStatus: CELL_SUITABLE numArfcn: 1 arfcn: 981 numChannels: 16 array: 979 982 983 985 1012 1014 1017 1019 1020 787 790 791 793 796 882 884 pbcch: 0 nom: 2 rac: 6 spgc: 0 pat: 6 nco: 0 t3168: 1500 t3192: 500 drxmax: 0 ctrlAck: 0 bsCVmax: 8 alpha: 6 pcMeasCh: 1 
$GPGGA,235247.000,4806.8561,N,00139.4035,W,1,04,2.5,29.6,M,48.3,M,,0000*73
$GPGSA,M,3,27,21,10,20,,,,,,,,,4.6,2.5,3.9*34
$GPRMC,235247.000,A,4806.8561,N,00139.4035,W,4.19,187.82,050218,,,A*76
$GPGGA,235248.000,4806.8603,N,00139.3997,W,1,05,2.0,49.7,M,48.3,M,,0000*7E
$GPGSA,M,3,16,27,21,10,20,,,,,,,,3.1,2.0,2.4*3A
$GPRMC,235248.000,A,4806.8603,N,00139.3997,W,3.61,181.87,050218,,,A*73
$GPGGA,235249.000,4806.8628,N,00139.3984,W,1,05,2.0,57.9,M,48.3,M,,0000*75
$GPGSA,M,3,16,27,21,10,20,,,,,,,,3.1,2.0,2.4*3A
$GPRMC,235249.000,A,4806.8628,N,00139.3984,W,3.09,173.89,050218,,,A*74
$GPGGA,235250.000,4806.8647,N,00139.3968,W,1,05,2.0,63.6,M,48.3,M,,0000*7E
$GPGSA,M,3,16,27,21,10,20,,,,,,,,3.1,2.0,2.4*3A
$GPRMC,235250.000,A,4806.8647,N,00139.3968,W,3.09,167.58,050218,,,A*7E
$GPGGA,235251.000,4806.8664,N,00139.3953,W,1,05,2.0,66.5,M,48.3,M,,0000*70
$GPGSA,M,3,16,27,21,10,20,,,,,,,,3.1,2.0,2.4*3A
$GPGSV,3,1,12,16,70,189,13,27,68,305,17,21,38,058,20,10,36,139,16*7E
$GPGSV,3,2,12,20,13,039,24,33,33,198,,18,43,093,,26,41,164,*71
$GPGSV,3,3,12,08,29,286,,07,16,315,,30,04,335,,15,02,053,*70
$GPRMC,235251.000,A,4806.8664,N,00139.3953,W,2.95,162.30,050218,,,A*79
$GPGGA,235252.000,4806.8677,N,00139.3946,W,1,05,2.0,67.6,M,48.3,M,,0000*77
$GPGSA,M,3,16,27,21,10,20,,,,,,,,3.1,2.0,2.4*3A
$GPRMC,235252.000,A,4806.8677,N,00139.3946,W,2.48,153.75,050218,,,A*7F
Survey end at #CCLK: "18/02/06,00:52:52+04"
Survey duration: 12 seconds, 1 bases detected over 1 freqs scanned.
$GPGGA,235253.000,4806.8690,N,00139.3952,W,1,05,2.0,68.7,M,48.3,M,,0000*74
$GPGSA,M,3,16,27,21,10,20,,,,,,,,3.1,2.0,2.4*3A
$GPRMC,235253.000,A,4806.8690,N,00139.3952,W,1.78,145.73,050218,,,A*73
$GPGGA,235254.000,4806.8695,N,00139.3952,W,1,05,2.0,70.1,M,48.3,M,,0000*79
$GPGSA,M,3,16,27,21,10,20,,,,,,,,3.1,2.0,2.4*3A
$GPRMC,235254.000,A,4806.8695,N,00139.3952,W,1.85,140.66,050218,,,A*72
Survey start at #CCLK: "18/02/06,00:52:54+04"
at#csurv
Network survey started ...
Survey end at #CCLK: "18/02/06,00:52:54+04"
Survey duration: 0 seconds, 0 bases detected over 0 freqs scanned.
$GPGGA,235255.000,4806.8700,N,00139.3952,W,1,05,2.0,71.2,M,48.3,M,,0000*77
$GPGSA,M,3,16,27,21,10,20,,,,,,,,3.1,2.0,2.4*3A
$GPRMC,235255.000,A,4806.8700,N,00139.3952,W,2.04,138.72,050218,,,A*7E
$GPGGA,235256.000,4806.8705,N,00139.3953,W,1,05,2.0,72.2,M,48.3,M,,0000*73
$GPGSA,M,3,16,27,21,10,20,,,,,,,,3.1,2.0,2.4*3A
$GPGSV,3,1,12,16,70,189,13,27,68,305,17,21,38,058,20,10,36,139,16*7E
$GPGSV,3,2,12,20,13,039,24,33,33,198,,18,43,093,,26,41,164,*71
$GPGSV,3,3,12,08,29,286,,07,16,315,,30,04,335,,15,02,053,*70
Survey start at #CCLK: "18/02/06,00:52:56+04"
at#csurv
Network survey started ...
Survey end at #CCLK: "18/02/06,00:52:56+04"
Survey duration: 0 seconds, 0 bases detected over 0 freqs scanned.
$GPRMC,235256.000,A,4806.8705,N,00139.3953,W,1.85,137.17,050218,,,A*7F
$GPGGA,235257.000,4806.8713,N,00139.3960,W,1,05,2.0,73.6,M,48.3,M,,0000*70
$GPGSA,M,3,16,27,21,10,20,,,,,,,,3.1,2.0,2.4*3A
$GPRMC,235257.000,A,4806.8713,N,00139.3960,W,1.21,135.71,050218,,,A*75
$GPGGA,235258.000,4806.8719,N,00139.3958,W,1,05,2.0,75.0,M,48.3,M,,0000*7E
$GPGSA,M,3,16,27,21,10,20,,,,,,,,3.1,2.0,2.4*3A
$GPRMC,235258.000,A,4806.8719,N,00139.3958,W,1.48,132.18,050218,,,A*7C
Survey start at #CCLK: "18/02/06,00:52:58+04"
$GPGGA,235259.000,4806.8726,N,00139.3957,W,1,05,2.0,76.0,M,48.3,M,,0000*7F
at#csurv
Network survey started ...
$GPGSA,M,3,16,27,21,10,20,,,,,,,,3.1,2.0,2.4*3A
$GPRMC,235259.000,A,4806.8726,N,00139.3957,W,1.86,123.36,050218,,,A*70
$GPGGA,235300.000,4806.8734,N,00139.3965,W,1,05,2.0,75.6,M,48.3,M,,0000*75
$GPGSA,M,3,16,27,21,10,20,,,,,,,,3.1,2.0,2.4*3A
$GPRMC,235300.000,A,4806.8734,N,00139.3965,W,1.52,118.65,050218,,,A*78
$GPGGA,235301.000,4806.8740,N,00139.3970,W,1,05,2.0,75.6,M,48.3,M,,0000*73
$GPGSA,M,3,16,27,21,10,20,,,,,,,,3.1,2.0,2.4*3A
$GPGSV,3,1,12,16,70,189,12,27,68,305,17,21,38,058,20,10,36,139,17*7E
$GPGSV,3,2,12,20,13,039,24,15,02,053,11,33,33,198,,18,43,093,*73
$GPGSV,3,3,12,26,41,164,,08,29,286,,07,16,315,,30,04,335,*72
$GPRMC,235301.000,A,4806.8740,N,00139.3970,W,1.30,115.83,050218,,,A*7F
$GPGGA,235302.000,4806.8745,N,00139.3966,W,1,05,2.0,76.9,M,48.3,M,,0000*7E
$GPGSA,M,3,16,27,21,10,20,,,,,,,,3.1,2.0,2.4*3A
$GPRMC,235302.000,A,4806.8745,N,00139.3966,W,1.56,113.85,050218,,,A*7E
$GPGGA,235303.000,4806.8750,N,00139.3971,W,1,05,2.0,77.2,M,48.3,M,,0000*77
$GPGSA,M,3,16,27,21,10,20,,,,,,,,3.1,2.0,2.4*3A
$GPRMC,235303.000,A,4806.8750,N,00139.3971,W,1.12,113.85,050218,,,A*7D
$GPGGA,235304.000,4806.8752,N,00139.3972,W,1,05,2.0,77.7,M,48.3,M,,0000*74
$GPGSA,M,3,16,27,21,10,20,,,,,,,,3.1,2.0,2.4*3A
$GPRMC,235304.000,A,4806.8752,N,00139.3972,W,1.19,113.18,050218,,,A*74
$GPGGA,235305.000,4806.8759,N,00139.3967,W,1,05,2.0,79.1,M,48.3,M,,0000*72
$GPGSA,M,3,16,27,21,10,20,,,,,,,,3.1,2.0,2.4*3A
$GPRMC,235305.000,A,4806.8759,N,00139.3967,W,1.06,113.18,050218,,,A*74
arfcn: 981 bsic: 46 rxLev: -49 ber: 0.00 mcc: 208 mnc: 20 lac: 418 cellId: 21807 cellStatus: CELL_SUITABLE numArfcn: 1 arfcn: 981 numChannels: 16 array: 979 982 983 985 1012 1014 1017 1019 1020 787 790 791 793 796 882 884 pbcch: 0 nom: 2 rac: 6 spgc: 0 pat: 6 nco: 0 t3168: 1500 t3192: 500 drxmax: 0 ctrlAck: 0 bsCVmax: 8 alpha: 6 pcMeasCh: 1 
$GPGGA,235306.000,4806.8769,N,00139.3975,W,1,05,2.0,79.0,M,48.3,M,,0000*70
$GPGSA,M,3,16,27,21,10,20,,,,,,,,3.1,2.0,2.4*3A
$GPGSV,3,1,12,16,70,189,12,27,68,305,17,21,38,058,19,10,36,139,17*74
$GPGSV,3,2,12,20,13,039,23,15,02,053,12,26,41,164,13,33,33,198,*73
$GPGSV,3,3,12,18,43,093,,08,29,286,,07,16,315,,30,04,335,*74
$GPRMC,235306.000,A,4806.8769,N,00139.3975,W,0.98,113.18,050218,,,A*71
$GPGGA,235307.000,4806.8775,N,00139.3983,W,1,06,2.2,78.3,M,48.3,M,,0000*76
$GPGSA,M,3,16,27,26,21,10,20,,,,,,,4.0,2.2,3.4*3B
$GPRMC,235307.000,A,4806.8775,N,00139.3983,W,1.14,113.18,050218,,,A*71
$GPGGA,235308.000,4806.8778,N,00139.3992,W,1,06,2.2,77.3,M,48.3,M,,0000*7B
$GPGSA,M,3,16,27,26,21,10,20,,,,,,,4.0,2.2,3.4*3B
$GPRMC,235308.000,A,4806.8778,N,00139.3992,W,0.99,113.18,050218,,,A*77
$GPGGA,235309.000,4806.8784,N,00139.3999,W,1,05,2.0,77.4,M,48.3,M,,0000*74
$GPGSA,M,3,16,27,21,10,20,,,,,,,,3.1,2.0,2.4*3A
$GPRMC,235309.000,A,4806.8784,N,00139.3999,W,1.45,87.06,050218,,,A*4D
$GPGGA,235310.000,4806.8790,N,00139.3994,W,1,05,1.9,78.5,M,48.3,M,,0000*70
$GPGSA,M,3,27,26,21,10,20,,,,,,,,3.0,1.9,2.4*32
$GPRMC,235310.000,A,4806.8790,N,00139.3994,W,1.18,73.94,050218,,,A*45
$GPGGA,235311.000,4806.8793,N,00139.3997,W,1,05,1.9,78.8,M,48.3,M,,0000*7C
$GPGSA,M,3,27,26,21,10,20,,,,,,,,3.0,1.9,2.4*32
$GPGSV,3,1,12,27,68,305,17,26,41,164,16,21,38,058,19,10,36,139,18*7D
$GPGSV,3,2,12,20,13,039,23,15,02,053,11,16,70,189,04,33,33,198,*74
$GPGSV,3,3,12,18,43,093,,08,29,286,,07,16,315,,30,04,335,*74
$GPRMC,235311.000,A,4806.8793,N,00139.3997,W,1.20,54.09,050218,,,A*4E
Survey end at #CCLK: "18/02/06,00:53:11+04"
Survey duration: 12 seconds, 1 bases detected over 1 freqs scanned.
$GPGGA,235312.000,4806.8796,N,00139.3998,W,1,05,1.9,79.7,M,48.3,M,,0000*7B
$GPGSA,M,3,27,26,21,10,20,,,,,,,,3.0,1.9,2.4*32
$GPRMC,235312.000,A,4806.8796,N,00139.3998,W,0.99,54.09,050218,,,A*44
$GPGGA,235313.000,4806.8800,N,00139.3993,W,1,05,1.9,81.2,M,48.3,M,,0000*73
$GPGSA,M,3,27,26,21,10,20,,,,,,,,3.0,1.9,2.4*32
$GPRMC,235313.000,A,4806.8800,N,00139.3993,W,0.86,54.09,050218,,,A*40
Survey start at #CCLK: "18/02/06,00:53:13+04"
at#csurv
Network survey started ...
Survey end at #CCLK: "18/02/06,00:53:13+04"
Survey duration: 0 seconds, 0 bases detected over 0 freqs scanned.
$GPGGA,235314.000,4806.8804,N,00139.3997,W,1,05,1.9,81.8,M,48.3,M,,0000*7E
$GPGSA,M,3,27,26,21,10,20,,,,,,,,3.0,1.9,2.4*32
$GPRMC,235314.000,A,4806.8804,N,00139.3997,W,0.66,54.09,050218,,,A*49
$GPGGA,235315.000,4806.8806,N,00139.4001,W,1,06,2.2,81.7,M,48.3,M,,0000*78
$GPGSA,M,3,16,27,26,21,10,20,,,,,,,4.0,2.2,3.4*3B
$GPRMC,235315.000,A,4806.8806,N,00139.4001,W,0.33,54.09,050218,,,A*4B
Survey start at #CCLK: "18/02/06,00:53:15+04"
at#csurv
Network survey started ...
Survey end at #CCLK: "18/02/06,00:53:15+04"
Survey duration: 0 seconds, 0 bases detected over 0 freqs scanned.
$GPGGA,235316.000,4806.8804,N,00139.4004,W,1,06,2.2,81.8,M,48.3,M,,0000*73
$GPGSA,M,3,16,27,26,21,10,20,,,,,,,4.0,2.2,3.4*3B
$GPGSV,3,1,12,16,70,189,10,27,68,305,18,26,41,164,17,21,38,058,18*75
$GPGSV,3,2,12,10,36,139,18,20,13,039,23,15,02,053,11,37,27,150,*73
$GPGSV,3,3,12,18,43,093,,08,29,286,,07,16,315,,30,04,335,*74
$GPRMC,235316.000,A,4806.8804,N,00139.4004,W,0.36,54.09,050218,,,A*4A
$GPGGA,235317.000,4806.8801,N,00139.4008,W,1,06,2.2,82.0,M,48.3,M,,0000*70
$GPGSA,M,3,16,27,26,21,10,20,,,,,,,4.0,2.2,3.4*3B
$GPRMC,235317.000,A,4806.8801,N,00139.4008,W,0.71,54.09,050218,,,A*41
$GPGGA,235318.000,4806.8802,N,00139.4018,W,1,06,2.2,82.0,M,48.3,M,,0000*7D
$GPGSA,M,3,16,27,26,21,10,20,,,,,,,4.0,2.2,3.4*3B
$GPRMC,235318.000,A,4806.8802,N,00139.4018,W,0.97,54.09,050218,,,A*44
Survey start at #CCLK: "18/02/06,00:53:18+04"
at#csurv
Network survey started ...
$GPGGA,235319.000,4806.8803,N,00139.4018,W,1,06,2.2,82.1,M,48.3,M,,0000*7C
$GPGSA,M,3,16,27,26,21,10,20,,,,,,,4.0,2.2,3.4*3B
$GPRMC,235319.000,A,4806.8803,N,00139.4018,W,0.30,54.09,050218,,,A*49
$GPGGA,235320.000,4806.8805,N,00139.4017,W,1,06,2.2,82.1,M,48.3,M,,0000*7F
$GPGSA,M,3,16,27,26,21,10,20,,,,,,,4.0,2.2,3.4*3B
$GPRMC,235320.000,A,4806.8805,N,00139.4017,W,0.60,54.09,050218,,,A*4F
$GPGGA,235321.000,4806.8805,N,00139.4016,W,1,06,2.2,82.3,M,48.3,M,,0000*7D
$GPGSA,M,3,16,27,26,21,10,20,,,,,,,4.0,2.2,3.4*3B
$GPGSV,3,1,12,16,70,189,11,27,68,305,18,26,41,164,17,21,38,058,18*74
$GPGSV,3,2,12,10,36,139,18,20,13,039,23,15,02,053,11,37,27,150,*73
$GPGSV,3,3,12,18,43,093,,08,29,286,,07,16,315,,30,04,335,*74
$GPRMC,235321.000,A,4806.8805,N,00139.4016,W,0.73,54.09,050218,,,A*4D
$GPGGA,235322.000,4806.8807,N,00139.4017,W,1,06,2.2,82.4,M,48.3,M,,0000*7A
$GPGSA,M,3,16,27,26,21,10,20,,,,,,,4.0,2.2,3.4*3B
$GPRMC,235322.000,A,4806.8807,N,00139.4017,W,0.54,54.09,050218,,,A*48
$GPGGA,235323.000,4806.8810,N,00139.4023,W,1,06,2.2,82.5,M,48.3,M,,0000*7B
$GPGSA,M,3,16,27,26,21,10,20,,,,,,,4.0,2.2,3.4*3B
$GPRMC,235323.000,A,4806.8810,N,00139.4023,W,0.72,54.09,050218,,,A*4C
$GPGGA,235324.000,4806.8815,N,00139.4032,W,1,06,2.2,82.6,M,48.3,M,,0000*7A
$GPGSA,M,3,16,27,26,21,10,20,,,,,,,4.0,2.2,3.4*3B
$GPRMC,235324.000,A,4806.8815,N,00139.4032,W,1.22,27.41,050218,,,A*42
arfcn: 981 bsic: 46 rxLev: -49 ber: 50.00 mcc: 208 mnc: 20 lac: 418 cellId: 21807 cellStatus: CELL_SUITABLE numArfcn: 1 arfcn: 981 numChannels: 16 array: 979 982 983 985 1012 1014 1017 1019 1020 787 790 791 793 796 882 884 pbcch: 0 nom: 2 rac: 6 spgc: 0 pat: 6 nco: 0 t3168: 1500 t3192: 500 drxmax: 0 ctrlAck: 0 bsCVmax: 8 alpha: 6 pcMeasCh: 1 
$GPGGA,235325.000,4806.8817,N,00139.4041,W,1,06,2.2,82.6,M,48.3,M,,0000*7D
$GPGSA,M,3,16,27,26,21,10,20,,,,,,,4.0,2.2,3.4*3B
$GPRMC,235325.000,A,4806.8817,N,00139.4041,W,1.34,0.43,050218,,,A*75
$GPGGA,235326.000,4806.8820,N,00139.4044,W,1,06,2.2,82.6,M,48.3,M,,0000*7F
$GPGSA,M,3,16,27,26,21,10,20,,,,,,,4.0,2.2,3.4*3B
$GPGSV,3,1,12,16,70,189,11,27,68,305,17,26,41,164,16,21,38,058,19*7B
$GPGSV,3,2,12,10,36,139,18,20,13,039,23,15,02,053,11,37,27,150,*73
$GPGSV,3,3,12,18,43,093,,08,29,286,,07,16,315,,30,04,335,*74
$GPRMC,235326.000,A,4806.8820,N,00139.4044,W,1.05,0.43,050218,,,A*75
$GPGGA,235327.000,4806.8821,N,00139.4049,W,1,06,2.2,82.7,M,48.3,M,,0000*73
$GPGSA,M,3,16,27,26,21,10,20,,,,,,,4.0,2.2,3.3*3C
$GPRMC,235327.000,A,4806.8821,N,00139.4049,W,1.07,0.43,050218,,,A*7A
arfcn: 985 bsic: 44 rxLev: -53 ber: 0.00 mcc: 208 mnc: 20 lac: 418 cellId: 21808 cellStatus: CELL_SUITABLE numArfcn: 1 arfcn: 985 numChannels: 25 array: 787 788 790 793 795 796 879 884 975 977 978 979 980 981 982 983 1011 1012 1014 1015 1017 1019 1020 1021 1022 pbcch: 0 nom: 2 rac: 6 spgc: 0 pat: 6 nco: 0 t3168: 1500 t3192: 500 drxmax: 0 ctrlAck: 0 bsCVmax: 8 alpha: 6 pcMeasCh: 1 
arfcn: 991 rxLev: -63
arfcn: 992 rxLev: -63
$GPGGA,235328.000,4806.8824,N,00139.4056,W,1,06,2.2,82.8,M,48.3,M,,0000*78
arfcn: 993 rxLev: -63
$GPGSA,M,3,16,27,26,21,10,20,,,,,,,4.0,2.2,3.3*3C
arfcn: 997 rxLev: -63
arfcn: 998 rxLev: -63
$GPRMC,235328.000,A,4806.8824,N,00139.4056,W,1.15,0.43,050218,,,A*7D
arfcn: 999 rxLev: -64
arfcn: 996 rxLev: -64
arfcn: 995 rxLev: -64
arfcn: 990 rxLev: -64
arfcn: 1000 rxLev: -64
arfcn: 1001 rxLev: -64
$GPGGA,235329.000,4806.8827,N,00139.4071,W,1,06,2.2,82.8,M,48.3,M,,0000*7F
$GPGSA,M,3,16,27,26,21,10,20,,,,,,,4.0,2.2,3.3*3C
$GPRMC,235329.000,A,4806.8827,N,00139.4071,W,1.83,338.61,050218,,,A*7D
$GPGGA,235330.000,4806.8827,N,00139.4083,W,1,06,2.2,82.9,M,48.3,M,,0000*7B
$GPGSA,M,3,16,27,26,21,10,20,,,,,,,4.0,2.2,3.3*3C
$GPRMC,235330.000,A,4806.8827,N,00139.4083,W,2.00,316.51,050218,,,A*7F
arfcn: 12 bsic: 0 rxLev: -64 ber: 0.00 mcc: 208 mnc: 01 lac: 10300 cellId: 6467 cellStatus: CELL_FORBIDDEN numArfcn: 13 arfcn: 12 17 18 19 20 21 22 23 24 25 47 48 49 numChannels: 15 array: 1 2 3 8 9 10 14 512 513 514 515 518 605 606 608 pbcch: 0 nom: 2 rac: 1 spgc: 0 pat: 6 nco: 0 t3168: 1000 t3192: 500 drxmax: 2 ctrlAck: 0 bsCVmax: 9 alpha: 5 pcMeasCh: 1 
arfcn: 1007 rxLev: -64
$GPGGA,235331.000,4806.8825,N,00139.4091,W,1,06,2.2,83.0,M,48.3,M,,0000*73
arfcn: 994 rxLev: -64
$GPGSA,M,3,16,27,26,21,10,20,,,,,,,4.0,2.2,3.3*3C
arfcn: 1006 rxLev: -65
arfcn: 1004 rxLev: -65
$GPGSV,3,1,12,16,70,189,12,27,68,305,16,26,41,164,16,21,38,058,19*79
arfcn: 1005 rxLev: -65
arfcn: 1002 rxLev: -65
$GPGSV,3,2,12,10,36,139,17,20,13,039,23,15,02,053,12,37,27,150,*7F
arfcn: 1003 rxLev: -65
arfcn: 1008 rxLev: -65
$GPGSV,3,3,12,18,43,093,,08,29,286,,07,16,315,,30,04,335,*74
arfcn: 982 rxLev: -66
$GPRMC,235331.000,A,4806.8825,N,00139.4091,W,2.11,301.90,050218,,,A*74
arfcn: 980 rxLev: -66
arfcn: 986 rxLev: -70
arfcn: 984 rxLev: -71
$GPGGA,235332.000,4806.8824,N,00139.4099,W,1,06,2.2,83.1,M,48.3,M,,0000*78
arfcn: 989 rxLev: -71
$GPGSA,M,3,16,27,26,21,10,20,,,,,,,4.0,2.2,3.3*3C
arfcn: 1009 rxLev: -74
$GPRMC,235332.000,A,4806.8824,N,00139.4099,W,1.89,294.61,050218,,,A*7F
$GPGGA,235333.000,4806.8822,N,00139.4109,W,1,06,2.2,83.1,M,48.3,M,,0000*77
$GPGSA,M,3,16,27,26,21,10,20,,,,,,,4.0,2.2,3.3*3C
$GPRMC,235333.000,A,4806.8822,N,00139.4109,W,2.01,287.71,050218,,,A*70
$GPGGA,235334.000,4806.8818,N,00139.4123,W,1,06,2.2,82.9,M,48.3,M,,0000*78
$GPGSA,M,3,16,27,26,21,10,20,,,,,,,4.0,2.2,3.3*3C
$GPRMC,235334.000,A,4806.8818,N,00139.4123,W,2.38,279.02,050218,,,A*79
arfcn: 605 bsic: 33 rxLev: -75 ber: 0.00 mcc: 208 mnc: 01 lac: 10300 cellId: 27588 cellStatus: CELL_FORBIDDEN numArfcn: 22 arfcn: 525 526 527 528 529 530 531 532 533 534 535 587 588 589 590 591 592 593 594 595 596 597 numChannels: 18 array: 1 3 5 8 12 15 512 513 514 515 516 517 518 604 605 606 607 609 pbcch: 0 nom: 2 rac: 1 spgc: 0 pat: 6 nco: 0 t3168: 1000 t3192: 500 drxmax: 2 ctrlAck: 0 bsCVmax: 9 alpha: 5 pcMeasCh: 1 
$GPGGA,235335.000,4806.8816,N,00139.4138,W,1,06,2.2,82.7,M,48.3,M,,0000*73
$GPGSA,M,3,16,27,26,21,10,20,,,,,,,4.0,2.2,3.3*3C
$GPRMC,235335.000,A,4806.8816,N,00139.4138,W,2.66,268.75,050218,,,A*77
$GPGGA,235336.000,4806.8811,N,00139.4155,W,1,06,2.2,82.6,M,48.3,M,,0000*7D
$GPGSA,M,3,16,27,26,21,10,20,,,,,,,4.0,2.2,3.3*3C
$GPGSV,3,1,12,16,70,189,12,27,68,305,16,26,41,164,15,21,38,058,20*70
$GPGSV,3,2,12,10,36,139,16,20,13,039,23,15,02,053,12,37,27,150,*7E
$GPGSV,3,3,12,18,43,093,,08,29,286,,07,16,315,,30,04,335,*74
$GPRMC,235336.000,A,4806.8811,N,00139.4155,W,3.31,259.34,050218,,,A*7C
$GPGGA,235337.000,4806.8805,N,00139.4169,W,1,06,2.2,82.4,M,48.3,M,,0000*74
arfcn: 515 bsic: 34 rxLev: -77 ber: 0.00 mcc: 208 mnc: 01 lac: 10300 cellId: 27586 cellStatus: CELL_FORBIDDEN numArfcn: 16 arfcn: 519 520 521 522 523 524 525 526 596 597 598 599 600 601 602 603 numChannels: 9 array: 1 8 12 512 513 516 605 606 607 pbcch: 0 nom: 2 rac: 1 spgc: 0 pat: 6 nco: 0 t3168: 1000 t3192: 500 drxmax: 2 ctrlAck: 0 bsCVmax: 9 alpha: 5 pcMeasCh: 1 
$GPGSA,M,3,16,27,26,21,10,20,,,,,,,4.0,2.2,3.3*3C
$GPRMC,235337.000,A,4806.8805,N,00139.4169,W,3.54,251.37,050218,,,A*7F
$GPGGA,235338.000,4806.8802,N,00139.4188,W,1,06,2.2,82.2,M,48.3,M,,0000*75
$GPGSA,M,3,16,27,26,21,10,20,,,,,,,4.0,2.2,3.3*3C
$GPRMC,235338.000,A,4806.8802,N,00139.4188,W,3.67,248.05,050218,,,A*71
$GPGGA,235339.000,4806.8798,N,00139.4202,W,1,06,2.2,82.1,M,48.3,M,,0000*7A
$GPGSA,M,3,16,27,26,21,10,20,,,,,,,4.0,2.2,3.3*3C
$GPRMC,235339.000,A,4806.8798,N,00139.4202,W,3.60,246.34,050218,,,A*76
$GPGGA,235340.000,4806.8794,N,00139.4209,W,1,06,2.2,82.0,M,48.3,M,,0000*72
$GPGSA,M,3,16,27,26,21,10,20,,,,,,,4.0,2.2,3.3*3C
$GPRMC,235340.000,A,4806.8794,N,00139.4209,W,3.06,245.41,050218,,,A*7E
$GPGGA,235341.000,4806.8791,N,00139.4219,W,1,06,2.2,82.0,M,48.3,M,,0000*77
$GPGSA,M,3,16,27,26,21,10,20,,,,,,,4.0,2.2,3.3*3C
$GPGSV,3,1,12,16,70,189,12,27,68,305,16,26,41,164,14,21,38,058,20*71
$GPGSV,3,2,12,10,36,139,15,20,13,039,23,15,02,053,04,37,27,150,*7A
$GPGSV,3,3,12,18,43,093,,08,29,286,,07,16,315,,30,04,335,*74
$GPRMC,235341.000,A,4806.8791,N,00139.4219,W,2.92,245.06,050218,,,A*74
$GPGGA,235342.000,4806.8791,N,00139.4233,W,1,06,2.2,82.0,M,48.3,M,,0000*7C
$GPGSA,M,3,16,27,26,21,10,20,,,,,,,4.0,2.2,3.3*3C
$GPRMC,235342.000,A,4806.8791,N,00139.4233,W,3.13,245.50,050218,,,A*74
$GPGGA,235343.000,4806.8795,N,00139.4248,W,1,06,2.2,82.1,M,48.3,M,,0000*74
$GPGSA,M,3,16,27,26,21,10,20,,,,,,,4.0,2.2,3.3*3C
$GPRMC,235343.000,A,4806.8795,N,00139.4248,W,3.09,249.77,050218,,,A*7F
$GPGGA,235344.000,4806.8801,N,00139.4262,W,1,06,2.2,82.0,M,48.3,M,,0000*78
$GPGSA,M,3,16,27,26,21,10,20,,,,,,,4.0,2.2,3.3*3C
$GPRMC,235344.000,A,4806.8801,N,00139.4262,W,3.12,256.42,050218,,,A*70
$GPGGA,235345.000,4806.8802,N,00139.4269,W,1,06,2.2,81.9,M,48.3,M,,0000*7B
$GPGSA,M,3,16,27,26,21,10,20,,,,,,,4.0,2.2,3.3*3C
$GPRMC,235345.000,A,4806.8802,N,00139.4269,W,2.88,260.38,050218,,,A*73
$GPGGA,235346.000,4806.8811,N,00139.4285,W,1,06,2.2,81.9,M,48.3,M,,0000*78
$GPGSA,M,3,16,27,26,21,10,20,,,,,,,4.0,2.2,3.3*3C
$GPGSV,3,1,12,16,70,189,13,27,68,305,17,26,41,164,13,21,38,058,21*77
$GPGSV,3,2,12,10,36,139,14,20,13,039,23,15,02,053,04,39,31,144,*77
$GPGSV,3,3,12,18,43,093,,08,29,286,,07,16,315,,30,04,335,*74
$GPRMC,235346.000,A,4806.8811,N,00139.4285,W,3.09,267.82,050218,,,A*7E
$GPGGA,235347.000,4806.8815,N,00139.4292,W,1,05,2.0,82.1,M,48.3,M,,0000*71
$GPGSA,M,3,16,27,21,10,20,,,,,,,,3.1,2.0,2.4*3A
$GPRMC,235347.000,A,4806.8815,N,00139.4292,W,2.84,273.48,050218,,,A*7A
arfcn: 983 bsic: 21 rxLev: -77 ber: 0.00 mcc: 208 mnc: 20 lac: 418 cellId: 21809 cellStatus: CELL_SUITABLE numArfcn: 1 arfcn: 983 numChannels: 24 array: 788 790 792 793 795 796 878 882 884 976 977 979 981 985 986 987 1012 1013 1014 1016 1017 1019 1020 1022 pbcch: 0 nom: 2 rac: 6 spgc: 0 pat: 6 nco: 0 t3168: 1500 t3192: 500 drxmax: 0 ctrlAck: 0 bsCVmax: 8 alpha: 6 pcMeasCh: 1 
$GPGGA,235348.000,4806.8818,N,00139.4303,W,1,05,2.0,82.3,M,48.3,M,,0000*78
$GPGSA,M,3,16,27,21,10,20,,,,,,,,3.1,2.0,2.4*3A
$GPRMC,235348.000,A,4806.8818,N,00139.4303,W,2.94,277.66,050218,,,A*78
$GPGGA,235349.000,4806.8818,N,00139.4307,W,1,05,2.0,82.6,M,48.3,M,,0000*78
$GPGSA,M,3,16,27,21,10,20,,,,,,,,3.1,2.0,2.4*3A
$GPRMC,235349.000,A,4806.8818,N,00139.4307,W,2.70,279.38,050218,,,A*72
arfcn: 85 bsic: 0 rxLev: -78 ber: 0.00 mcc: 208 mnc: 10 lac: 49415 cellId: 44814 cellStatus: CELL_FORBIDDEN numArfcn: 2 arfcn: 85 119 numChannels: 20 array: 76 77 78 79 80 82 83 85 86 114 115 116 117 118 119 120 121 122 123 124 pbcch: 0 nom: 2 rac: 31 spgc: 0 pat: 6 nco: 0 t3168: 1000 t3192: 500 drxmax: 4 ctrlAck: 1 bsCVmax: 9 alpha: 10 pcMeasCh: 0 
$GPGGA,235350.000,4806.8820,N,00139.4317,W,1,05,2.0,82.8,M,48.3,M,,0000*74
$GPGSA,M,3,16,27,21,10,20,,,,,,,,3.1,2.0,2.4*3A
$GPRMC,235350.000,A,4806.8820,N,00139.4317,W,2.69,281.50,050218,,,A*71
$GPGGA,235351.000,4806.8820,N,00139.4329,W,1,05,2.0,83.1,M,48.3,M,,0000*70
$GPGSA,M,3,16,27,21,10,20,,,,,,,,3.1,2.0,2.4*3A
$GPGSV,3,1,12,16,70,189,13,27,68,305,16,21,38,058,21,10,36,139,12*7A
$GPGSV,3,2,12,20,13,039,23,15,02,053,12,26,41,164,04,39,31,144,*7C
$GPGSV,3,3,12,18,43,093,,08,29,286,,07,16,315,,30,04,335,*74
$GPRMC,235351.000,A,4806.8820,N,00139.4329,W,2.88,282.44,050218,,,A*74
$GPGGA,235352.000,4806.8825,N,00139.4349,W,1,05,2.0,83.2,M,48.3,M,,0000*73
$GPGSA,M,3,16,27,21,10,20,,,,,,,,3.1,2.0,2.4*3A
arfcn: 10 bsic: 45 rxLev: -79 ber: 2.05 mcc: 208 mnc: 01 lac: 10301 cellId: 6461 cellStatus: CELL_FORBIDDEN numArfcn: 13 arfcn: 10 17 18 19 20 21 22 23 24 25 47 48 49 numChannels: 17 array: 1 3 4 5 6 8 12 14 512 513 514 516 517 604 605 606 608 pbcch: 0 nom: 2 rac: 1 spgc: 0 pat: 6 nco: 0 t3168: 1000 t3192: 500 drxmax: 2 ctrlAck: 0 bsCVmax: 9 alpha: 5 pcMeasCh: 1 
arfcn: 42 rxLev: -79
arfcn: 43 rxLev: -79
$GPRMC,235352.000,A,4806.8825,N,00139.4349,W,3.45,284.33,050218,,,A*72
arfcn: 44 rxLev: -80
arfcn: 41 rxLev: -80
arfcn: 38 rxLev: -80
arfcn: 40 rxLev: -80
arfcn: 13 rxLev: -80
arfcn: 29 rxLev: -80
arfcn: 30 rxLev: -80
arfcn: 31 rxLev: -80
$GPGGA,235353.000,4806.8823,N,00139.4356,W,1,05,2.0,83.5,M,48.3,M,,0000*7D
arfcn: 32 rxLev: -81
$GPGSA,M,3,16,27,21,10,20,,,,,,,,3.1,2.0,2.4*3A
$GPRMC,235353.000,A,4806.8823,N,00139.4356,W,3.54,283.98,050218,,,A*7D
$GPGGA,235354.000,4806.8822,N,00139.4358,W,1,05,2.0,83.8,M,48.3,M,,0000*78
$GPGSA,M,3,16,27,21,10,20,,,,,,,,3.1,2.0,2.4*3A
$GPRMC,235354.000,A,4806.8822,N,00139.4358,W,3.40,284.89,050218,,,A*77
$GPGGA,235355.000,4806.8820,N,00139.4360,W,1,04,3.5,83.9,M,48.3,M,,0000*74
$GPGSA,M,3,16,27,21,20,,,,,,,,,5.9,3.5,4.8*3B
$GPRMC,235355.000,A,4806.8820,N,00139.4360,W,3.13,284.87,050218,,,A*77
$GPGGA,235356.000,4806.8823,N,00139.4374,W,1,04,3.5,84.0,M,48.3,M,,0000*7F
$GPGSA,M,3,16,27,21,20,,,,,,,,,5.9,3.5,4.8*3B
$GPGSV,3,1,12,16,70,189,13,27,68,305,16,21,38,058,21,20,13,039,23*7D
$GPGSV,3,2,12,15,02,053,12,26,41,164,04,39,31,144,,18,43,093,*73
$GPGSV,3,3,12,10,36,139,,08,29,286,,07,16,315,,30,04,335,*7F
$GPRMC,235356.000,A,4806.8823,N,00139.4374,W,3.46,284.41,050218,,,A*78
$GPGGA,235357.000,4806.8819,N,00139.4373,W,1,04,3.5,83.9,M,48.3,M,,0000*7E
$GPGSA,M,3,16,27,21,20,,,,,,,,,5.9,3.5,4.8*3B
$GPRMC,235357.000,A,4806.8819,N,00139.4373,W,2.87,283.22,050218,,,A*79
$GPGGA,235358.000,4806.8819,N,00139.4385,W,1,04,3.5,83.9,M,48.3,M,,0000*78
$GPGSA,M,3,16,27,21,20,,,,,,,,,5.9,3.5,4.8*3B
$GPRMC,235358.000,A,4806.8819,N,00139.4385,W,3.02,281.46,050218,,,A*73
$GPGGA,235359.000,4806.8819,N,00139.4396,W,1,04,3.5,84.0,M,48.3,M,,0000*75
$GPGSA,M,3,16,27,21,20,,,,,,,,,5.9,3.5,4.8*3B
$GPRMC,235359.000,A,4806.8819,N,00139.4396,W,2.94,280.34,050218,,,A*7A
$GPGGA,235400.000,4806.8817,N,00139.4399,W,1,04,3.5,84.0,M,48.3,M,,0000*7F
$GPGSA,M,3,16,27,21,20,,,,,,,,,5.9,3.5,4.8*3B
arfcn: 3 bsic: 0 rxLev: -81 ber: 0.00 mcc: 208 mnc: 01 lac: 10300 cellId: 2686 cellStatus: CELL_FORBIDDEN numArfcn: 13 arfcn: 3 17 18 19 20 21 22 23 24 25 47 48 49 numChannels: 13 array: 1 5 6 7 10 12 14 512 515 517 604 606 608 pbcch: 0 nom: 2 rac: 1 spgc: 0 pat: 6 nco: 0 t3168: 1000 t3192: 500 drxmax: 2 ctrlAck: 0 bsCVmax: 9 alpha: 5 pcMeasCh: 1 
$GPRMC,235400.000,A,4806.8817,N,00139.4399,W,2.48,279.93,050218,,,A*7A
$GPGGA,235401.000,4806.8818,N,00139.4406,W,1,04,3.5,84.0,M,48.3,M,,0000*70
$GPGSA,M,3,16,27,21,20,,,,,,,,,5.9,3.5,4.8*3B
$GPGSV,3,1,12,16,70,189,16,27,68,305,15,21,38,058,21,20,13,039,22*7A
$GPGSV,3,2,12,15,02,053,12,26,41,164,04,39,31,144,,18,43,093,*73
$GPGSV,3,3,12,10,36,139,,08,29,286,,07,16,315,,30,04,335,*7F
$GPRMC,235401.000,A,4806.8818,N,00139.4406,W,2.45,279.52,050218,,,A*75
$GPGGA,235402.000,4806.8814,N,00139.4407,W,1,04,3.5,83.9,M,48.3,M,,0000*70
$GPGSA,M,3,16,27,21,20,,,,,,,,,5.9,3.5,4.8*3B
arfcn: 5 bsic: 1 rxLev: -81 ber: 0.00 mcc: 208 mnc: 01 lac: 10300 cellId: 40079 cellStatus: CELL_FORBIDDEN numArfcn: 13 arfcn: 5 17 18 19 20 21 22 23 24 25 47 48 49 numChannels: 20 array: 1 2 3 4 5 8 9 10 11 13 14 15 16 512 513 518 604 606 608 610 pbcch: 0 nom: 2 rac: 1 spgc: 0 pat: 6 nco: 0 t3168: 1000 t3192: 500 drxmax: 2 ctrlAck: 0 bsCVmax: 9 alpha: 5 pcMeasCh: 1 
arfcn: 39 rxLev: -81
arfcn: 37 rxLev: -81
$GPRMC,235402.000,A,4806.8814,N,00139.4407,W,2.07,278.59,050218,,,A*77
arfcn: 45 rxLev: -81
arfcn: 11 rxLev: -81
$GPGGA,235403.000,4806.8820,N,00139.4425,W,1,04,3.5,83.9,M,48.3,M,,0000*76
$GPGSA,M,3,16,27,21,20,,,,,,,,,5.9,3.5,4.8*3B
$GPRMC,235403.000,A,4806.8820,N,00139.4425,W,2.46,278.64,050218,,,A*7A
$GPGGA,235404.000,4806.8826,N,00139.4439,W,1,04,3.5,84.0,M,48.3,M,,0000*74
$GPGSA,M,3,16,27,21,20,,,,,,,,,5.9,3.5,4.8*3B
$GPRMC,235404.000,A,4806.8826,N,00139.4439,W,2.73,280.20,050218,,,A*77
arfcn: 80 bsic: 47 rxLev: -81 ber: 0.00 mcc: 208 mnc: 10 lac: 49415 cellId: 23568 cellStatus: CELL_FORBIDDEN numArfcn: 2 arfcn: 80 89 numChannels: 19 array: 76 77 78 80 82 83 84 85 113 114 115 116 117 118 119 120 122 123 124 pbcch: 0 nom: 2 rac: 31 spgc: 0 pat: 6 nco: 0 t3168: 1000 t3192: 500 drxmax: 4 ctrlAck: 1 bsCVmax: 9 alpha: 10 pcMeasCh: 0 
arfcn: 28 rxLev: -82
arfcn: 806 rxLev: -82
arfcn: 795 rxLev: -82
arfcn: 33 rxLev: -82
arfcn: 34 rxLev: -82
$GPGGA,235405.000,4806.8830,N,00139.4444,W,1,04,3.5,84.0,M,48.3,M,,0000*78
arfcn: 36 rxLev: -82
$GPGSA,M,3,16,27,21,20,,,,,,,,,5.9,3.5,4.8*3B
arfcn: 35 rxLev: -83
arfcn: 27 rxLev: -83
$GPRMC,235405.000,A,4806.8830,N,00139.4444,W,2.55,282.65,050218,,,A*7C
$GPGGA,235406.000,4806.8834,N,00139.4452,W,1,04,3.5,83.9,M,48.3,M,,0000*76
$GPGSA,M,3,16,27,21,20,,,,,,,,,5.9,3.5,4.8*3B
$GPGSV,3,1,12,16,70,189,16,27,68,305,15,21,38,058,21,20,13,039,22*7A
$GPGSV,3,2,12,26,41,164,04,39,31,144,,18,43,093,,10,36,139,*7F
$GPGSV,3,3,12,08,29,286,,07,16,315,,30,04,335,,15,02,053,*70
$GPRMC,235406.000,A,4806.8834,N,00139.4452,W,2.48,285.10,050218,,,A*75
$GPGGA,235407.000,4806.8834,N,00139.4456,W,1,04,3.4,83.9,M,48.3,M,,0000*72
$GPGSA,M,3,16,27,21,20,,,,,,,,,5.9,3.4,4.8*3A
arfcn: 1 bsic: 44 rxLev: -83 ber: 0.00 mcc: 208 mnc: 01 lac: 10300 cellId: 6468 cellStatus: CELL_FORBIDDEN numArfcn: 13 arfcn: 1 17 18 19 20 21 22 23 24 25 47 48 49 numChannels: 24 array: 2 4 5 6 7 8 9 10 11 12 15 512 513 514 515 516 517 518 605 606 607 608 609 610 pbcch: 0 nom: 2 rac: 1 spgc: 0 pat: 6 nco: 0 t3168: 1000 t3192: 500 drxmax: 2 ctrlAck: 0 bsCVmax: 9 alpha: 5 pcMeasCh: 1 
arfcn: 46 rxLev: -83
$GPRMC,235407.000,A,4806.8834,N,00139.4456,W,2.19,286.39,050218,,,A*7C
arfcn: 798 rxLev: -83
arfcn: 799 rxLev: -83
arfcn: 810 rxLev: -83
arfcn: 828 rxLev: -83
arfcn: 826 rxLev: -84
arfcn: 829 rxLev: -84
arfcn: 816 rxLev: -84
arfcn: 815 rxLev: -84
$GPGGA,235408.000,4806.8834,N,00139.4463,W,1,04,3.4,83.8,M,48.3,M,,0000*7A
arfcn: 820 rxLev: -84
$GPGSA,M,3,16,27,21,20,,,,,,,,,5.9,3.4,4.8*3A
arfcn: 808 rxLev: -84
arfcn: 830 rxLev: -84
$GPRMC,235408.000,A,4806.8834,N,00139.4463,W,2.15,286.60,050218,,,A*75
arfcn: 837 rxLev: -84
arfcn: 8 rxLev: -84
arfcn: 852 rxLev: -85
arfcn: 813 rxLev: -85
arfcn: 797 rxLev: -85
arfcn: 801 rxLev: -85
arfcn: 796 rxLev: -85
$GPGGA,235409.000,4806.8827,N,00139.4476,W,1,04,3.4,83.7,M,48.3,M,,0000*72
arfcn: 793 rxLev: -85
$GPGSA,M,3,16,27,21,20,,,,,,,,,5.9,3.4,4.8*3A
arfcn: 794 rxLev: -85
arfcn: 791 rxLev: -85
$GPRMC,235409.000,A,4806.8827,N,00139.4476,W,2.55,282.67,050218,,,A*75
arfcn: 803 rxLev: -85
arfcn: 819 rxLev: -85
arfcn: 817 rxLev: -85
arfcn: 809 rxLev: -85
arfcn: 811 rxLev: -85
arfcn: 838 rxLev: -85
arfcn: 833 rxLev: -85
arfcn: 835 rxLev: -85
$GPGGA,235410.000,4806.8828,N,00139.4481,W,1,04,3.4,83.7,M,48.3,M,,0000*7D
arfcn: 821 rxLev: -85
$GPGSA,M,3,16,27,21,20,,,,,,,,,5.9,3.4,4.8*3A
arfcn: 855 rxLev: -85
$GPRMC,235410.000,A,4806.8828,N,00139.4481,W,2.29,281.07,050218,,,A*74
$GPGGA,235411.000,4806.8830,N,00139.4475,W,1,04,3.4,83.6,M,48.3,M,,0000*7F
$GPGSA,M,3,16,27,21,20,,,,,,,,,5.9,3.4,4.8*3A
$GPGSV,3,1,12,16,70,189,17,27,68,305,14,21,38,058,21,20,13,039,22*7A
$GPGSV,3,2,12,39,31,144,,18,43,093,,26,41,164,,10,36,139,*7B
$GPGSV,3,3,12,08,29,286,,07,16,315,,30,04,335,,15,02,053,*70
$GPRMC,235411.000,A,4806.8830,N,00139.4475,W,1.80,281.66,050218,,,A*70
$GPGGA,235412.000,4806.8832,N,00139.4482,W,0,00,,83.6,M,48.3,M,,0000*5A
$GPGSA,M,1,,,,,,,,,,,,,,,*12
$GPRMC,235412.000,V,4806.8832,N,00139.4482,W,,,050218,,,N*63
arfcn: 78 bsic: 2 rxLev: -85 ber: 0.00 mcc: 208 mnc: 10 lac: 49415 cellId: 45280 cellStatus: CELL_FORBIDDEN numArfcn: 2 arfcn: 78 116 numChannels: 20 array: 76 77 78 79 80 82 83 84 85 86 114 115 116 117 118 120 121 122 123 124 pbcch: 0 nom: 2 rac: 31 spgc: 0 pat: 6 nco: 0 t3168: 1000 t3192: 500 drxmax: 4 ctrlAck: 1 bsCVmax: 9 alpha: 10 pcMeasCh: 0 
$GPGGA,235413.000,4806.8833,N,00139.4490,W,0,00,,83.6,M,48.3,M,,0000*59
$GPGSA,M,1,,,,,,,,,,,,,,,*12
$GPRMC,235413.000,V,4806.8833,N,00139.4490,W,,,050218,,,N*60
$GPGGA,235414.093,4806.8835,N,00139.4497,W,0,00,,83.6,M,48.3,M,,0000*55
$GPGSA,M,1,,,,,,,,,,,,,,,*12
$GPRMC,235414.093,V,4806.8835,N,00139.4497,W,,,050218,,,N*6C
$GPGGA,235415.093,4806.8836,N,00139.4504,W,0,00,,83.6,M,48.3,M,,0000*5C
$GPGSA,M,1,,,,,,,,,,,,,,,*12
$GPRMC,235415.093,V,4806.8836,N,00139.4504,W,,,050218,,,N*65
arfcn: 1020 bsic: 39 rxLev: -85 ber: 0.00 mcc: 208 mnc: 20 lac: 418 cellId: 38980 cellStatus: CELL_SUITABLE numArfcn: 1 arfcn: 1020 numChannels: 26 array: 787 788 790 791 793 795 796 879 884 885 978 979 981 982 983 985 986 987 1011 1012 1013 1014 1015 1017 1019 1022 pbcch: 0 nom: 2 rac: 6 spgc: 0 pat: 6 nco: 0 t3168: 1500 t3192: 500 drxmax: 0 ctrlAck: 0 bsCVmax: 8 alpha: 6 pcMeasCh: 1 
$GPGGA,235416.093,4806.8838,N,00139.4512,W,0,00,,83.6,M,48.3,M,,0000*56
$GPGSA,M,1,,,,,,,,,,,,,,,*12
$GPGSV,3,1,12,10,36,139,14,16,70,189,17,20,13,039,22,21,38,058,21*78
$GPGSV,3,2,12,27,68,305,04,33,33,198,,18,43,093,,26,41,164,*74
$GPGSV,3,3,12,08,29,286,,07,16,315,,30,04,335,,15,02,053,*70
$GPRMC,235416.093,V,4806.8838,N,00139.4512,W,,,050218,,,N*6F
$GPGGA,235417.093,4806.8836,N,00139.4505,W,1,04,3.1,83.5,M,48.3,M,,0000*75
$GPGSA,M,3,16,21,10,20,,,,,,,,,4.9,3.1,3.8*3D
$GPRMC,235417.093,A,4806.8836,N,00139.4505,W,1.39,283.96,050218,,,A*73
arfcn: 604 bsic: 20 rxLev: -85 ber: 0.04 mcc: 208 mnc: 01 lac: 10300 cellId: 39915 cellStatus: CELL_FORBIDDEN numArfcn: 16 arfcn: 519 520 521 522 523 524 525 526 596 597 598 599 600 601 602 603 numChannels: 13 array: 5 6 10 15 16 512 514 516 517 518 608 609 610 pbcch: 0 nom: 2 rac: 1 spgc: 0 pat: 6 nco: 0 t3168: 1000 t3192: 500 drxmax: 2 ctrlAck: 0 bsCVmax: 9 alpha: 5 pcMeasCh: 1 
$GPGGA,235418.093,4806.8829,N,00139.4511,W,1,04,3.1,83.5,M,48.3,M,,0000*71
$GPGSA,M,3,16,21,10,20,,,,,,,,,4.9,3.1,3.8*3D
$GPRMC,235418.093,A,4806.8829,N,00139.4511,W,1.39,283.45,050218,,,A*79
$GPGGA,235419.000,4806.8817,N,00139.4504,W,1,04,3.1,83.6,M,48.3,M,,0000*70
$GPGSA,M,3,16,21,10,20,,,,,,,,,4.9,3.1,3.8*3D
$GPRMC,235419.000,A,4806.8817,N,00139.4504,W,1.53,278.25,050218,,,A*75
arfcn: 606 bsic: 57 rxLev: -85 ber: 2.02 mcc: 208 mnc: 01 lac: 10301 cellId: 27485 cellStatus: CELL_FORBIDDEN numArfcn: 16 arfcn: 519 520 521 522 523 524 525 526 596 597 598 599 600 601 602 603 numChannels: 15 array: 3 4 6 10 12 512 513 514 515 516 517 604 605 608 609 pbcch: 0 nom: 2 rac: 1 spgc: 0 pat: 6 nco: 0 t3168: 1000 t3192: 500 drxmax: 2 ctrlAck: 0 bsCVmax: 9 alpha: 5 pcMeasCh: 1 
$GPGGA,235420.000,4806.8813,N,00139.4505,W,1,04,3.1,83.9,M,48.3,M,,0000*70
$GPGSA,M,3,16,21,10,20,,,,,,,,,4.9,3.1,3.8*3D
$GPRMC,235420.000,A,4806.8813,N,00139.4505,W,1.63,272.94,050218,,,A*79
$GPGGA,235421.000,4806.8805,N,00139.4480,W,1,05,2.0,83.9,M,48.3,M,,0000*7B
$GPGSA,M,3,16,27,21,10,20,,,,,,,,3.1,2.0,2.4*3A
$GPGSV,3,1,12,16,70,189,16,27,68,305,12,21,38,058,21,10,36,139,15*7C
$GPGSV,3,2,12,20,13,039,22,26,41,164,11,33,33,198,,18,43,093,*77
$GPGSV,3,3,12,08,29,286,,07,16,315,,30,04,335,,15,02,053,*70
$GPRMC,235421.000,A,4806.8805,N,00139.4480,W,0.90,272.94,050218,,,A*7E
$GPGGA,235422.000,4806.8808,N,00139.4482,W,1,05,2.0,84.0,M,48.3,M,,0000*79
$GPGSA,M,3,16,27,21,10,20,,,,,,,,3.1,2.0,2.4*3A
$GPRMC,235422.000,A,4806.8808,N,00139.4482,W,1.16,272.94,050218,,,A*7D
arfcn: 4 bsic: 54 rxLev: -86 ber: 4.03 mcc: 208 mnc: 01 lac: 10300 cellId: 43768 cellStatus: CELL_FORBIDDEN numArfcn: 13 arfcn: 4 17 18 19 20 21 22 23 24 25 47 48 49 numChannels: 20 array: 1 3 5 6 7 8 12 13 14 513 514 515 517 518 601 605 606 608 609 610 pbcch: 0 nom: 2 rac: 1 spgc: 0 pat: 6 nco: 0 t3168: 1000 t3192: 500 drxmax: 2 ctrlAck: 0 bsCVmax: 9 alpha: 5 pcMeasCh: 1 
arfcn: 64 rxLev: -86
arfcn: 825 rxLev: -86
arfcn: 827 rxLev: -86
arfcn: 836 rxLev: -86
$GPGGA,235423.000,4806.8805,N,00139.4463,W,1,06,2.2,83.9,M,48.3,M,,0000*75
arfcn: 839 rxLev: -86
$GPGSA,M,3,16,27,26,21,10,20,,,,,,,4.0,2.2,3.3*3C
arfcn: 846 rxLev: -86
arfcn: 812 rxLev: -86
$GPRMC,235423.000,A,4806.8805,N,00139.4463,W,0.44,272.94,050218,,,A*78
arfcn: 807 rxLev: -86
arfcn: 805 rxLev: -86
arfcn: 814 rxLev: -86
arfcn: 804 rxLev: -86
arfcn: 792 rxLev: -86
arfcn: 800 rxLev: -86
arfcn: 818 rxLev: -86
$GPGGA,235424.000,4806.8800,N,00139.4445,W,1,06,2.2,83.6,M,48.3,M,,0000*7C
arfcn: 842 rxLev: -86
arfcn: 832 rxLev: -86
$GPGSA,M,3,16,27,26,21,10,20,,,,,,,4.0,2.2,3.3*3C
arfcn: 823 rxLev: -86
$GPRMC,235424.000,A,4806.8800,N,00139.4445,W,0.51,272.94,050218,,,A*7A
arfcn: 824 rxLev: -86
arfcn: 867 rxLev: -86
arfcn: 63 rxLev: -86
$GPGGA,235425.000,4806.8795,N,00139.4430,W,1,06,2.2,83.3,M,48.3,M,,0000*79
$GPGSA,M,3,16,27,26,21,10,20,,,,,,,4.0,2.2,3.3*3C
$GPRMC,235425.000,A,4806.8795,N,00139.4430,W,0.95,272.94,050218,,,A*72
$GPGGA,235426.000,4806.8793,N,00139.4409,W,1,06,2.2,83.2,M,48.3,M,,0000*77
$GPGSA,M,3,16,27,26,21,10,20,,,,,,,4.0,2.2,3.3*3C
$GPGSV,3,1,12,16,70,189,16,27,68,305,13,26,41,164,12,21,38,058,21*77
$GPGSV,3,2,12,10,36,139,17,20,13,039,22,33,33,198,,18,43,093,*7C
$GPGSV,3,3,12,08,29,286,,07,16,315,,30,04,335,,15,02,053,*70
$GPRMC,235426.000,A,4806.8793,N,00139.4409,W,1.42,244.81,050218,,,A*77
$GPGGA,235427.000,4806.8794,N,00139.4393,W,1,06,2.2,84.0,M,48.3,M,,0000*70
$GPGSA,M,3,16,27,26,21,10,20,,,,,,,4.0,2.2,3.3*3C
$GPRMC,235427.000,A,4806.8794,N,00139.4393,W,1.32,221.14,050218,,,A*7D
arfcn: 14 bsic: 35 rxLev: -86 ber: 0.00 mcc: 208 mnc: 01 lac: 10300 cellId: 39250 cellStatus: CELL_FORBIDDEN numArfcn: 13 arfcn: 14 17 18 19 20 21 22 23 24 25 47 48 49 numChannels: 14 array: 1 3 4 6 8 10 12 14 512 513 514 517 604 608 pbcch: 0 nom: 2 rac: 1 spgc: 1 pat: 6 nco: 0 t3168: 1000 t3192: 500 drxmax: 4 ctrlAck: 1 bsCVmax: 9 alpha: 7 pcMeasCh: 0 
arfcn: 57 rxLev: -87
arfcn: 831 rxLev: -87
arfcn: 834 rxLev: -87
arfcn: 840 rxLev: -87
$GPGGA,235428.000,4806.8797,N,00139.4379,W,1,06,2.2,84.4,M,48.3,M,,0000*7C
arfcn: 850 rxLev: -87
$GPGSA,M,3,16,27,26,21,10,20,,,,,,,4.0,2.2,3.3*3C
arfcn: 802 rxLev: -87
$GPRMC,235428.000,A,4806.8797,N,00139.4379,W,1.16,221.14,050218,,,A*73
arfcn: 845 rxLev: -87
arfcn: 847 rxLev: -87
arfcn: 848 rxLev: -87
arfcn: 841 rxLev: -87
arfcn: 843 rxLev: -87
arfcn: 844 rxLev: -87
arfcn: 822 rxLev: -87
arfcn: 854 rxLev: -87
arfcn: 859 rxLev: -87
$GPGGA,235429.000,4806.8799,N,00139.4358,W,1,06,2.2,85.3,M,48.3,M,,0000*76
arfcn: 58 rxLev: -87
$GPGSA,M,3,16,27,26,21,10,20,,,,,,,4.0,2.2,3.3*3C
arfcn: 56 rxLev: -87
arfcn: 67 rxLev: -87
$GPRMC,235429.000,A,4806.8799,N,00139.4358,W,1.53,186.68,050218,,,A*7B
arfcn: 68 rxLev: -87
arfcn: 26 rxLev: -87
arfcn: 59 rxLev: -88
$GPGGA,235430.000,4806.8803,N,00139.4349,W,1,06,2.2,85.1,M,48.3,M,,0000*70
$GPGSA,M,3,16,27,26,21,10,20,,,,,,,4.0,2.2,3.3*3C
$GPRMC,235430.000,A,4806.8803,N,00139.4349,W,1.44,169.31,050218,,,A*74
$GPGGA,235431.000,4806.8805,N,00139.4336,W,1,06,2.2,85.4,M,48.3,M,,0000*7A
$GPGSA,M,3,16,27,26,21,10,20,,,,,,,4.0,2.2,3.3*3C
$GPGSV,3,1,12,16,70,189,16,27,68,305,12,26,41,164,12,21,38,058,20*77
$GPGSV,3,2,12,10,36,139,17,20,13,039,21,33,33,198,,18,43,093,*7F
arfcn: 512 bsic: 25 rxLev: -88 ber: 0.08 mcc: 208 mnc: 01 lac: 10300 cellId: 40155 cellStatus: CELL_FORBIDDEN numArfcn: 16 arfcn: 519 520 521 522 523 524 525 526 596 597 598 599 600 601 602 603 numChannels: 16 array: 2 3 5 8 10 11 12 15 16 517 518 604 605 606 609 610 pbcch: 0 nom: 2 rac: 1 spgc: 0 pat: 6 nco: 0 t3168: 1000 t3192: 500 drxmax: 2 ctrlAck: 0 bsCVmax: 9 alpha: 5 pcMeasCh: 1 
arfcn: 857 rxLev: -88
$GPGSV,3,3,12,08,29,286,,07,16,315,,30,04,335,,15,02,053,*70
arfcn: 853 rxLev: -88
arfcn: 866 rxLev: -88
$GPRMC,235431.000,A,4806.8805,N,00139.4336,W,0.95,169.31,050218,,,A*76
arfcn: 863 rxLev: -88
arfcn: 849 rxLev: -88
arfcn: 851 rxLev: -88
$GPGGA,235432.000,4806.8808,N,00139.4332,W,1,05,2.6,86.2,M,48.3,M,,0000*72
arfcn: 856 rxLev: -88
$GPGSA,M,3,16,26,21,10,20,,,,,,,,3.4,2.6,2.3*3F
arfcn: 858 rxLev: -88
$GPRMC,235432.000,A,4806.8808,N,00139.4332,W,0.58,169.31,050218,,,A*7D
arfcn: 860 rxLev: -88
arfcn: 62 rxLev: -88
$GPGGA,235433.000,4806.8814,N,00139.4336,W,1,05,2.6,86.3,M,48.3,M,,0000*7B
$GPGSA,M,3,16,26,21,10,20,,,,,,,,3.4,2.6,2.3*3F
$GPRMC,235433.000,A,4806.8814,N,00139.4336,W,0.77,169.31,050218,,,A*78
$GPGGA,235434.000,4806.8820,N,00139.4338,W,1,05,2.6,86.5,M,48.3,M,,0000*73
$GPGSA,M,3,16,26,21,10,20,,,,,,,,3.4,2.6,2.3*3F
$GPRMC,235434.000,A,4806.8820,N,00139.4338,W,0.97,169.31,050218,,,A*78
$GPGGA,235435.000,4806.8826,N,00139.4341,W,1,05,2.6,86.6,M,48.3,M,,0000*79
$GPGSA,M,3,16,26,21,10,20,,,,,,,,3.4,2.6,2.3*3F
$GPRMC,235435.000,A,4806.8826,N,00139.4341,W,1.14,169.31,050218,,,A*7B
arfcn: 978 bsic: 19 rxLev: -88 ber: 0.00 mcc: 208 mnc: 20 lac: 418 cellId: 18480 cellStatus: CELL_SUITABLE numArfcn: 2 arfcn: 978 1023 numChannels: 24 array: 788 790 794 880 883 975 976 977 979 980 981 982 983 985 986 1011 1012 1014 1016 1017 1018 1019 1020 1021 pbcch: 0 nom: 2 rac: 6 spgc: 0 pat: 6 nco: 0 t3168: 1500 t3192: 500 drxmax: 4 ctrlAck: 1 bsCVmax: 8 alpha: 6 pcMeasCh: 1 
$GPGGA,235436.000,4806.8831,N,00139.4347,W,1,05,2.6,86.3,M,48.3,M,,0000*7F
$GPGSA,M,3,16,26,21,10,20,,,,,,,,3.4,2.6,2.3*3F
$GPGSV,3,1,12,16,70,189,16,26,41,164,12,21,38,058,20,10,36,139,18*7F
$GPGSV,3,2,12,20,13,039,21,27,68,305,04,33,33,198,,18,43,093,*7F
$GPGSV,3,3,12,08,29,286,,07,16,315,,30,04,335,,15,02,053,*70
$GPRMC,235436.000,A,4806.8831,N,00139.4347,W,0.96,169.31,050218,,,A*73
$GPGGA,235437.000,4806.8836,N,00139.4353,W,1,05,2.6,87.4,M,48.3,M,,0000*7A
$GPGSA,M,3,16,26,21,10,20,,,,,,,,3.4,2.6,2.3*3F
$GPRMC,235437.000,A,4806.8836,N,00139.4353,W,1.02,169.31,050218,,,A*7C
$GPGGA,235438.000,4806.8839,N,00139.4343,W,1,05,2.6,87.6,M,48.3,M,,0000*79
$GPGSA,M,3,16,26,21,10,20,,,,,,,,3.4,2.6,2.3*3F
$GPRMC,235438.000,A,4806.8839,N,00139.4343,W,0.98,169.31,050218,,,A*7F
arfcn: 122 bsic: 3 rxLev: -88 ber: 0.00 mcc: 208 mnc: 10 lac: 49415 cellId: 33517 cellStatus: CELL_FORBIDDEN numArfcn: 3 arfcn: 77 88 122 numChannels: 17 array: 77 78 79 80 82 84 85 86 114 115 117 118 119 120 122 123 124 pbcch: 0 nom: 2 rac: 31 spgc: 0 pat: 6 nco: 0 t3168: 1000 t3192: 500 drxmax: 4 ctrlAck: 1 bsCVmax: 9 alpha: 10 pcMeasCh: 0 
arfcn: 124 rxLev: -88
arfcn: 979 rxLev: -89
$GPGGA,235439.000,4806.8843,N,00139.4343,W,1,05,2.6,87.9,M,48.3,M,,0000*7A
$GPGSA,M,3,16,26,21,10,20,,,,,,,,3.4,2.6,2.3*3F
$GPRMC,235439.000,A,4806.8843,N,00139.4343,W,0.86,169.31,050218,,,A*7C
$GPGGA,235440.000,4806.8847,N,00139.4347,W,1,05,2.6,88.6,M,48.3,M,,0000*74
$GPGSA,M,3,16,26,21,10,20,,,,,,,,3.4,2.6,2.3*3F
arfcn: 117 bsic: 12 rxLev: -89 ber: 0.00 mcc: 208 mnc: 10 lac: 49415 cellId: 3568 cellStatus: CELL_FORBIDDEN numArfcn: 2 arfcn: 82 117 numChannels: 17 array: 76 77 78 79 80 83 84 85 87 113 114 116 117 120 122 123 124 pbcch: 0 nom: 2 rac: 31 spgc: 0 pat: 6 nco: 0 t3168: 1000 t3192: 500 drxmax: 4 ctrlAck: 1 bsCVmax: 9 alpha: 10 pcMeasCh: 0 
arfcn: 69 rxLev: -89
$GPRMC,235440.000,A,4806.8847,N,00139.4347,W,0.32,169.31,050218,,,A*7D
arfcn: 65 rxLev: -89
arfcn: 864 rxLev: -89
arfcn: 862 rxLev: -89
arfcn: 875 rxLev: -89
arfcn: 869 rxLev: -89
arfcn: 865 rxLev: -89
arfcn: 868 rxLev: -89
arfcn: 60 rxLev: -89
$GPGGA,235441.000,4806.8852,N,00139.4364,W,1,05,2.6,89.2,M,48.3,M,,0000*75
arfcn: 55 rxLev: -89
$GPGSA,M,3,16,26,21,10,20,,,,,,,,3.4,2.6,2.3*3F
$GPGSV,3,1,12,16,70,189,16,26,41,164,14,21,38,058,20,10,36,139,19*78
$GPGSV,3,2,12,20,13,039,21,27,68,305,04,33,33,198,,18,43,093,*7F
$GPGSV,3,3,12,08,29,286,,07,16,315,,30,04,335,,15,02,053,*70
$GPRMC,235441.000,A,4806.8852,N,00139.4364,W,1.05,169.31,050218,,,A*7C
$GPGGA,235442.000,4806.8852,N,00139.4366,W,1,05,2.6,88.6,M,48.3,M,,0000*71
$GPGSA,M,3,16,26,21,10,20,,,,,,,,3.4,2.6,2.3*3F
$GPRMC,235442.000,A,4806.8852,N,00139.4366,W,0.76,169.31,050218,,,A*78
$GPGGA,235443.000,4806.8853,N,00139.4366,W,1,05,2.6,88.1,M,48.3,M,,0000*76
$GPGSA,M,3,16,26,21,10,20,,,,,,,,3.4,2.6,2.3*3F
$GPRMC,235443.000,A,4806.8853,N,00139.4366,W,0.54,169.31,050218,,,A*78
$GPGGA,235444.000,4806.8853,N,00139.4368,W,1,06,2.2,88.1,M,48.3,M,,0000*78
$GPGSA,M,3,16,27,26,21,10,20,,,,,,,4.0,2.2,3.3*3C
$GPRMC,235444.000,A,4806.8853,N,00139.4368,W,1.11,169.31,050218,,,A*71
$GPGGA,235445.000,4806.8849,N,00139.4356,W,1,06,2.2,88.2,M,48.3,M,,0000*7C
arfcn: 1017 bsic: 33 rxLev: -89 ber: 1.07 mcc: 208 mnc: 20 lac: 418 cellId: 20104 cellStatus: CELL_SUITABLE numArfcn: 3 arfcn: 986 987 1017 numChannels: 20 array: 788 790 885 975 976 978 979 980 981 982 986 987 1011 1012 1015 1017 1019 1020 1021 1022 pbcch: 0 nom: 2 rac: 7 spgc: 0 pat: 6 nco: 0 t3168: 1500 t3192: 500 drxmax: 4 ctrlAck: 1 bsCVmax: 8 alpha: 6 pcMeasCh: 1 
arfcn: 53 rxLev: -90
$GPGSA,M,3,16,27,26,21,10,20,,,,,,,4.0,2.2,3.3*3C
arfcn: 66 rxLev: -90
arfcn: 61 rxLev: -90
$GPRMC,235445.000,A,4806.8849,N,00139.4356,W,0.98,169.31,050218,,,A*76
arfcn: 861 rxLev: -90
arfcn: 870 rxLev: -90
arfcn: 876 rxLev: -90
arfcn: 877 rxLev: -90
arfcn: 54 rxLev: -90
$GPGGA,235446.000,4806.8846,N,00139.4352,W,1,06,2.2,87.6,M,48.3,M,,0000*7F
$GPGSA,M,3,16,27,26,21,10,20,,,,,,,4.0,2.2,3.3*3C
$GPGSV,3,1,12,16,70,189,17,27,68,305,13,26,41,164,15,21,38,058,19*7A
$GPGSV,3,2,12,10,36,139,20,20,13,039,21,37,27,150,,18,43,093,*7E
$GPGSV,3,3,12,08,29,286,,07,16,315,,30,04,335,,15,02,053,*70
$GPRMC,235446.000,A,4806.8846,N,00139.4352,W,0.79,169.31,050218,,,A*71
$GPGGA,235447.000,4806.8846,N,00139.4346,W,1,06,2.2,88.6,M,48.3,M,,0000*74
$GPGSA,M,3,16,27,26,21,10,20,,,,,,,4.0,2.2,3.3*3C
arfcn: 76 bsic: 5 rxLev: -90 ber: 4.10 mcc: FFF mnc: FF lac: 65535 cellId: 0 cellStatus: CELL_OTHER numArfcn: 0 arfcn: numChannels: 0 array:
arfcn: 47 rxLev: -91
$GPRMC,235447.000,A,4806.8846,N,00139.4346,W,0.64,169.31,050218,,,A*79
arfcn: 1014 rxLev: -91
arfcn: 879 rxLev: -91
arfcn: 874 rxLev: -91
arfcn: 871 rxLev: -91
arfcn: 758 rxLev: -91
arfcn: 759 rxLev: -91
arfcn: 767 rxLev: -91
arfcn: 768 rxLev: -91
$GPGGA,235448.000,4806.8848,N,00139.4351,W,1,06,2.2,87.8,M,48.3,M,,0000*72
arfcn: 766 rxLev: -91
$GPGSA,M,3,16,27,26,21,10,20,,,,,,,4.0,2.2,3.3*3C
arfcn: 760 rxLev: -91
arfcn: 776 rxLev: -91
$GPRMC,235448.000,A,4806.8848,N,00139.4351,W,0.74,169.31,050218,,,A*7F
arfcn: 749 rxLev: -91
arfcn: 872 rxLev: -91
arfcn: 873 rxLev: -91
arfcn: 878 rxLev: -91
arfcn: 99 rxLev: -91
$GPGGA,235449.000,4806.8847,N,00139.4349,W,1,06,2.2,87.8,M,48.3,M,,0000*75
$GPGSA,M,3,16,27,26,21,10,20,,,,,,,4.0,2.2,3.3*3C
$GPRMC,235449.000,A,4806.8847,N,00139.4349,W,0.60,169.31,050218,,,A*7D
$GPGGA,235450.000,4806.8848,N,00139.4347,W,1,06,2.2,87.9,M,48.3,M,,0000*7D
$GPGSA,M,3,16,27,26,21,10,20,,,,,,,4.0,2.2,3.3*3C
$GPRMC,235450.000,A,4806.8848,N,00139.4347,W,0.24,169.31,050218,,,A*74
arfcn: 123 bsic: 1 rxLev: -91 ber: 6.01 mcc: 208 mnc: 10 lac: 49415 cellId: 41634 cellStatus: CELL_FORBIDDEN numArfcn: 2 arfcn: 87 123 numChannels: 18 array: 76 77 78 79 80 83 84 85 86 113 114 116 117 118 119 121 123 124 pbcch: 0 nom: 2 rac: 31 spgc: 0 pat: 6 nco: 0 t3168: 1000 t3192: 500 drxmax: 4 ctrlAck: 1 bsCVmax: 9 alpha: 10 pcMeasCh: 0 
arfcn: 115 rxLev: -92
arfcn: 98 rxLev: -92
arfcn: 70 rxLev: -92
arfcn: 71 rxLev: -92
$GPGGA,235451.000,4806.8849,N,00139.4337,W,1,06,2.2,88.1,M,48.3,M,,0000*7D
$GPGSA,M,3,16,27,26,21,10,20,,,,,,,4.0,2.2,3.3*3C
$GPGSV,3,1,12,16,70,189,17,27,68,305,12,26,41,164,16,21,38,058,19*78
$GPGSV,3,2,12,10,36,139,20,20,13,039,20,37,27,150,,18,43,093,*7F
$GPGSV,3,3,12,08,29,286,,07,16,315,,30,04,335,,15,02,053,*70
$GPRMC,235451.000,A,4806.8849,N,00139.4337,W,0.64,169.31,050218,,,A*77
$GPGGA,235452.000,4806.8853,N,00139.4349,W,1,06,2.2,88.2,M,48.3,M,,0000*7F
$GPGSA,M,3,16,27,26,21,10,20,,,,,,,4.0,2.2,3.3*3C
arfcn: 2 bsic: 54 rxLev: -92 ber: 18.08 mcc: FFF mnc: FF lac: 65535 cellId: 0 cellStatus: CELL_OTHER numArfcn: 0 arfcn: numChannels: 0 array:
$GPRMC,235452.000,A,4806.8853,N,00139.4349,W,0.49,169.31,050218,,,A*79
arfcn: 514 rxLev: -92
arfcn: 750 rxLev: -92
arfcn: 775 rxLev: -92
arfcn: 769 rxLev: -92
arfcn: 778 rxLev: -92
arfcn: 757 rxLev: -92
arfcn: 756 rxLev: -92
arfcn: 777 rxLev: -92
$GPGGA,235453.000,4806.8858,N,00139.4365,W,1,06,2.2,88.3,M,48.3,M,,0000*7A
arfcn: 779 rxLev: -92
arfcn: 751 rxLev: -92
$GPGSA,M,3,16,27,26,21,10,20,,,,,,,4.0,2.2,3.3*3C
arfcn: 741 rxLev: -92
arfcn: 725 rxLev: -92
$GPRMC,235453.000,A,4806.8858,N,00139.4365,W,0.77,169.31,050218,,,A*70
arfcn: 880 rxLev: -92
arfcn: 52 rxLev: -92
arfcn: 97 rxLev: -92
$GPGGA,235454.000,4806.8862,N,00139.4382,W,1,06,2.2,88.3,M,48.3,M,,0000*7D
$GPGSA,M,3,16,27,26,21,10,20,,,,,,,4.0,2.2,3.3*3C
$GPRMC,235454.000,A,4806.8862,N,00139.4382,W,1.09,169.31,050218,,,A*7F
$GPGGA,235455.000,4806.8865,N,00139.4397,W,1,06,2.2,88.4,M,48.3,M,,0000*78
$GPGSA,M,3,16,27,26,21,10,20,,,,,,,4.0,2.2,3.3*3C
$GPRMC,235455.000,A,4806.8865,N,00139.4397,W,1.16,169.31,050218,,,A*73
arfcn: 114 bsic: 6 rxLev: -92 ber: 0.04 mcc: 208 mnc: 10 lac: 49415 cellId: 44202 cellStatus: CELL_FORBIDDEN numArfcn: 2 arfcn: 80 114 numChannels: 20 array: 76 77 78 79 80 84 85 86 113 114 115 116 117 118 119 120 121 122 123 124 pbcch: 0 nom: 2 rac: 31 spgc: 0 pat: 6 nco: 0 t3168: 1000 t3192: 500 drxmax: 4 ctrlAck: 1 bsCVmax: 9 alpha: 10 pcMeasCh: 0 
arfcn: 94 rxLev: -93
arfcn: 95 rxLev: -93
arfcn: 93 rxLev: -93
$GPGGA,235456.000,4806.8864,N,00139.4401,W,1,06,2.2,88.6,M,48.3,M,,0000*70
arfcn: 72 rxLev: -93
arfcn: 516 rxLev: -93
$GPGSA,M,3,16,27,26,21,10,20,,,,,,,4.0,2.2,3.3*3C
$GPGSV,3,1,12,16,70,189,17,27,68,305,12,26,41,164,16,21,38,058,19*78
$GPGSV,3,2,12,10,36,139,20,20,13,039,20,37,27,150,,18,43,093,*7F
$GPGSV,3,3,12,08,29,286,,07,16,315,,30,04,335,,15,02,053,*70
$GPRMC,235456.000,A,4806.8864,N,00139.4401,W,0.79,169.31,050218,,,A*71
$GPGGA,235457.000,4806.8865,N,00139.4403,W,1,06,2.2,88.8,M,48.3,M,,0000*7C
$GPGSA,M,3,16,27,26,21,10,20,,,,,,,4.0,2.2,3.3*3C
$GPRMC,235457.000,A,4806.8865,N,00139.4403,W,0.33,169.31,050218,,,A*7D
$GPGGA,235458.000,4806.8867,N,00139.4410,W,1,06,2.2,89.0,M,48.3,M,,0000*7A
$GPGSA,M,3,16,27,26,21,10,20,,,,,,,4.0,2.2,3.3*3C
$GPRMC,235458.000,A,4806.8867,N,00139.4410,W,0.48,169.31,050218,,,A*7E
$GPGGA,235459.000,4806.8866,N,00139.4414,W,1,05,2.6,89.1,M,48.3,M,,0000*78
arfcn: 1016 bsic: 41 rxLev: -93 ber: 0.04 mcc: 208 mnc: 20 lac: 418 cellId: 23623 cellStatus: CELL_SUITABLE numArfcn: 1 arfcn: 1016 numChannels: 28 array: 787 788 791 792 793 794 795 879 880 883 884 975 977 978 979 981 982 983 986 987 1011 1012 1017 1018 1019 1020 1021 1022 pbcch: 0 nom: 2 rac: 6 spgc: 0 pat: 6 nco: 0 t3168: 1500 t3192: 500 drxmax: 4 ctrlAck: 1 bsCVmax: 8 alpha: 6 pcMeasCh: 1 
$GPGSA,M,3,16,26,21,10,20,,,,,,,,3.4,2.6,2.3*3F
$GPRMC,235459.000,A,4806.8866,N,00139.4414,W,0.85,169.31,050218,,,A*7B
$GPGGA,235500.000,4806.8867,N,00139.4417,W,1,05,2.6,89.2,M,48.3,M,,0000*74
$GPGSA,M,3,16,26,21,10,20,,,,,,,,3.4,2.6,2.3*3F
$GPRMC,235500.000,A,4806.8867,N,00139.4417,W,0.68,169.31,050218,,,A*77
$GPGGA,235501.000,4806.8868,N,00139.4423,W,1,05,2.6,89.2,M,48.3,M,,0000*7D
$GPGSA,M,3,16,26,21,10,20,,,,,,,,3.4,2.6,2.3*3F
$GPGSV,3,1,12,16,70,189,17,26,41,164,16,21,38,058,18,10,36,139,20*7A
$GPGSV,3,2,12,20,13,039,20,27,68,305,12,37,27,150,,18,43,093,*7C
$GPGSV,3,3,12,08,29,286,,07,16,315,,30,04,335,,15,02,053,*70
$GPRMC,235501.000,A,4806.8868,N,00139.4423,W,0.91,169.31,050218,,,A*78
$GPGGA,235502.000,4806.8867,N,00139.4429,W,1,05,2.6,89.3,M,48.3,M,,0000*7A
$GPGSA,M,3,16,26,21,10,20,,,,,,,,3.4,2.6,2.3*3F
$GPRMC,235502.000,A,4806.8867,N,00139.4429,W,1.20,211.80,050218,,,A*73
$GPGGA,235503.000,4806.8869,N,00139.4432,W,1,05,2.6,89.4,M,48.3,M,,0000*78
$GPGSA,M,3,16,26,21,10,20,,,,,,,,3.4,2.6,2.3*3F
$GPRMC,235503.000,A,4806.8869,N,00139.4432,W,1.03,211.80,050218,,,A*77
arfcn: 1019 bsic: 48 rxLev: -93 ber: 6.08 mcc: 208 mnc: 20 lac: 418 cellId: 20015 cellStatus: CELL_SUITABLE numArfcn: 2 arfcn: 1010 1019 numChannels: 20 array: 787 789 794 882 976 979 981 982 983 985 986 987 1012 1013 1015 1016 1017 1020 1021 1022 pbcch: 0 nom: 2 rac: 6 spgc: 0 pat: 6 nco: 0 t3168: 1500 t3192: 500 drxmax: 0 ctrlAck: 0 bsCVmax: 8 alpha: 4 pcMeasCh: 1 
arfcn: 724 rxLev: -93
$GPGGA,235504.000,4806.8872,N,00139.4438,W,1,05,2.6,89.4,M,48.3,M,,0000*7F
$GPGSA,M,3,16,26,21,10,20,,,,,,,,3.4,2.6,2.3*3F
arfcn: 742 rxLev: -93
arfcn: 740 rxLev: -93
$GPRMC,235504.000,A,4806.8872,N,00139.4438,W,1.16,211.80,050218,,,A*74
arfcn: 748 rxLev: -93
arfcn: 716 rxLev: -93
arfcn: 774 rxLev: -93
arfcn: 761 rxLev: -93
arfcn: 765 rxLev: -93
arfcn: 773 rxLev: -93
arfcn: 770 rxLev: -93
arfcn: 747 rxLev: -93
$GPGGA,235505.000,4806.8873,N,00139.4441,W,1,06,1.3,89.5,M,48.3,M,,0000*75
arfcn: 752 rxLev: -93
arfcn: 739 rxLev: -93
$GPGSA,M,3,16,26,21,10,07,20,,,,,,,2.8,1.3,2.5*35
arfcn: 723 rxLev: -93
arfcn: 722 rxLev: -93
$GPRMC,235505.000,A,4806.8873,N,00139.4441,W,1.28,238.90,050218,,,A*7D
arfcn: 726 rxLev: -93
arfcn: 729 rxLev: -93
arfcn: 730 rxLev: -93
arfcn: 732 rxLev: -93
arfcn: 733 rxLev: -93
arfcn: 734 rxLev: -93
arfcn: 96 rxLev: -93
$GPGGA,235506.000,4806.8871,N,00139.4446,W,1,06,1.3,89.6,M,48.3,M,,0000*70
arfcn: 100 rxLev: -93
$GPGSA,M,3,16,26,21,10,07,20,,,,,,,2.8,1.3,2.5*35
$GPGSV,3,1,12,16,70,189,17,26,41,164,16,21,38,058,18,10,36,139,20*7A
$GPGSV,3,2,12,07,16,315,13,20,13,039,20,15,02,053,04,27,68,305,12*7C
$GPGSV,3,3,12,37,27,150,,18,43,093,,08,29,286,,30,04,335,*76
$GPRMC,235506.000,A,4806.8871,N,00139.4446,W,1.61,247.55,050218,,,A*77
$GPGGA,235507.000,4806.8869,N,00139.4452,W,1,06,1.3,89.8,M,48.3,M,,0000*73
$GPGSA,M,3,16,26,21,10,07,20,,,,,,,2.8,1.3,2.5*35
$GPRMC,235507.000,A,4806.8869,N,00139.4452,W,1.89,249.33,050218,,,A*72
$GPGGA,235508.000,4806.8867,N,00139.4460,W,1,06,1.3,90.0,M,48.3,M,,0000*73
$GPGSA,M,3,16,26,21,10,07,20,,,,,,,2.8,1.3,2.5*35
$GPRMC,235508.000,A,4806.8867,N,00139.4460,W,2.56,253.32,050218,,,A*79
$GPGGA,235509.000,4806.8865,N,00139.4466,W,1,06,1.3,90.0,M,48.3,M,,0000*76
$GPGSA,M,3,16,26,21,10,07,20,,,,,,,2.8,1.3,2.5*35
arfcn: 120 bsic: 59 rxLev: -93 ber: 5.04 mcc: 208 mnc: 10 lac: 49415 cellId: 13571 cellStatus: CELL_FORBIDDEN numArfcn: 0 arfcn: numChannels: 0 array:
arfcn: 6 rxLev: -93
$GPRMC,235509.000,A,4806.8865,N,00139.4466,W,2.54,256.16,050218,,,A*7D
arfcn: 9 rxLev: -94
arfcn: 107 rxLev: -94
arfcn: 735 rxLev: -94
arfcn: 731 rxLev: -94
arfcn: 721 rxLev: -94
arfcn: 715 rxLev: -94
arfcn: 780 rxLev: -94
arfcn: 781 rxLev: -94
$GPGGA,235510.000,4806.8863,N,00139.4474,W,1,06,1.3,90.1,M,48.3,M,,0000*7A
arfcn: 762 rxLev: -94
$GPGSA,M,3,16,26,21,10,07,20,,,,,,,2.8,1.3,2.5*35
arfcn: 764 rxLev: -94
arfcn: 881 rxLev: -94
$GPRMC,235510.000,A,4806.8863,N,00139.4474,W,2.51,256.75,050218,,,A*70
arfcn: 763 rxLev: -94
arfcn: 753 rxLev: -94
arfcn: 772 rxLev: -94
arfcn: 717 rxLev: -94
arfcn: 719 rxLev: -94
arfcn: 727 rxLev: -94
arfcn: 743 rxLev: -94
$GPGGA,235511.000,4806.8865,N,00139.4487,W,1,07,1.2,90.2,M,48.3,M,,0000*72
arfcn: 106 rxLev: -94
$GPGSA,M,3,16,27,26,21,10,07,20,,,,,,2.2,1.2,1.8*35
arfcn: 103 rxLev: -94
arfcn: 105 rxLev: -94
$GPGSV,3,1,12,16,70,189,17,27,68,305,12,26,41,164,15,21,38,058,18*7A
arfcn: 101 rxLev: -94
arfcn: 92 rxLev: -95
$GPGSV,3,2,12,10,36,139,19,07,16,315,12,20,13,039,20,15,02,053,04*74
arfcn: 84 rxLev: -95
arfcn: 104 rxLev: -95
$GPGSV,3,3,12,37,27,150,,18,43,093,,08,29,286,,30,04,335,*76
arfcn: 108 rxLev: -95
arfcn: 25 rxLev: -95
$GPRMC,235511.000,A,4806.8865,N,00139.4487,W,2.74,263.83,050218,,,A*73
arfcn: 1021 rxLev: -95
arfcn: 744 rxLev: -95
arfcn: 736 rxLev: -95
$GPGGA,235512.000,4806.8868,N,00139.4498,W,1,07,1.2,90.3,M,48.3,M,,0000*73
arfcn: 720 rxLev: -95
$GPGSA,M,3,16,27,26,21,10,07,20,,,,,,2.2,1.2,1.8*35
arfcn: 718 rxLev: -95
arfcn: 771 rxLev: -95
$GPRMC,235512.000,A,4806.8868,N,00139.4498,W,3.06,275.29,050218,,,A*70
arfcn: 782 rxLev: -95
arfcn: 755 rxLev: -95
arfcn: 728 rxLev: -95
arfcn: 737 rxLev: -95
arfcn: 738 rxLev: -95
$GPGGA,235513.000,4806.8869,N,00139.4508,W,1,07,1.2,90.3,M,48.3,M,,0000*7B
$GPGSA,M,3,16,27,26,21,10,07,20,,,,,,2.2,1.2,1.8*35
$GPRMC,235513.000,A,4806.8869,N,00139.4508,W,3.17,279.69,050218,,,A*70
$GPGGA,235514.000,4806.8872,N,00139.4523,W,1,07,1.2,90.2,M,48.3,M,,0000*7E
$GPGSA,M,3,16,27,26,21,10,07,20,,,,,,2.2,1.2,1.8*35
$GPRMC,235514.000,A,4806.8872,N,00139.4523,W,3.58,283.18,050218,,,A*7C
arfcn: 513 bsic: 27 rxLev: -95 ber: 10.09 mcc: 208 mnc: 01 lac: 10300 cellId: 27587 cellStatus: CELL_FORBIDDEN numArfcn: 16 arfcn: 519 520 521 522 523 524 525 526 596 597 598 599 600 601 602 603 numChannels: 14 array: 1 4 8 12 512 513 515 516 517 518 605 606 607 609 pbcch: 0 nom: 2 rac: 1 spgc: 0 pat: 6 nco: 0 t3168: 1000 t3192: 500 drxmax: 2 ctrlAck: 0 bsCVmax: 9 alpha: 5 pcMeasCh: 1 
$GPGGA,235515.000,4806.8876,N,00139.4537,W,1,07,1.2,90.0,M,48.3,M,,0000*7C
$GPGSA,M,3,16,27,26,21,10,07,20,,,,,,2.2,1.2,1.8*35
$GPRMC,235515.000,A,4806.8876,N,00139.4537,W,3.77,285.96,050218,,,A*71
$GPGGA,235516.000,4806.8881,N,00139.4547,W,1,07,1.2,90.0,M,48.3,M,,0000*70
$GPGSA,M,3,16,27,26,21,10,07,20,,,,,,2.2,1.2,1.8*35
arfcn: 15 bsic: 7 rxLev: -95 ber: 20.07 mcc: FFF mnc: FF lac: 65535 cellId: 0 cellStatus: CELL_OTHER numArfcn: 0 arfcn: numChannels: 0 array:
arfcn: 109 rxLev: -95
arfcn: 102 rxLev: -95
$GPGSV,3,1,12,16,70,189,17,27,68,305,13,26,41,164,16,21,38,058,17*77
arfcn: 79 rxLev: -95
$GPGSV,3,2,12,10,36,139,19,07,16,315,11,20,13,039,20,15,02,053,04*77
arfcn: 7 rxLev: -96
arfcn: 745 rxLev: -96
$GPGSV,3,3,12,39,31,144,,18,43,093,,08,29,286,,30,04,335,*7A
arfcn: 746 rxLev: -96
arfcn: 754 rxLev: -96
$GPRMC,235516.000,A,4806.8881,N,00139.4547,W,3.80,290.46,050218,,,A*7C
arfcn: 91 rxLev: -96
arfcn: 86 rxLev: -96
$GPGGA,235517.000,4806.8889,N,00139.4562,W,1,06,1.3,90.0,M,48.3,M,,0000*7E
arfcn: 81 rxLev: -97
arfcn: 639 rxLev: -97
$GPGSA,M,3,16,26,21,10,07,20,,,,,,,2.8,1.3,2.5*35
arfcn: 660 rxLev: -97
arfcn: 608 rxLev: -97
$GPRMC,235517.000,A,4806.8889,N,00139.4562,W,4.35,295.40,050218,,,A*78
arfcn: 83 rxLev: -97
arfcn: 75 rxLev: -97
arfcn: 73 rxLev: -97
arfcn: 976 rxLev: -97
arfcn: 977 rxLev: -97
arfcn: 110 rxLev: -98
arfcn: 77 rxLev: -98
arfcn: 609 rxLev: -98
$GPGGA,235518.000,4806.8897,N,00139.4581,W,1,06,2.2,90.0,M,48.3,M,,0000*71
arfcn: 610 rxLev: -98
$GPGSA,M,3,16,27,26,21,10,20,,,,,,,4.0,2.2,3.3*3C
arfcn: 518 rxLev: -98
arfcn: 640 rxLev: -98
$GPRMC,235518.000,A,4806.8897,N,00139.4581,W,4.23,296.53,050218,,,A*73
arfcn: 642 rxLev: -98
arfcn: 641 rxLev: -99
arfcn: 643 rxLev: -99
arfcn: 617 rxLev: -99
arfcn: 661 rxLev: -99
arfcn: 664 rxLev: -99
arfcn: 655 rxLev: -99
$GPGGA,235519.000,4806.8904,N,00139.4594,W,1,05,2.6,90.0,M,48.3,M,,0000*78
arfcn: 517 rxLev: -99
$GPGSA,M,3,16,26,21,10,20,,,,,,,,3.4,2.6,2.3*3F
arfcn: 1015 rxLev: -99
$GPRMC,235519.000,A,4806.8904,N,00139.4594,W,4.01,298.96,050218,,,A*7A
$GPGGA,235520.000,4806.8909,N,00139.4610,W,1,05,2.6,90.1,M,48.3,M,,0000*71
$GPGSA,M,3,16,26,21,10,20,,,,,,,,3.4,2.6,2.3*3F
$GPRMC,235520.000,A,4806.8909,N,00139.4610,W,4.18,298.11,050218,,,A*75
arfcn: 1013 bsic: 63 rxLev: -99 ber: 9.06 mcc: FFF mnc: FF lac: 65535 cellId: 0 cellStatus: CELL_OTHER numArfcn: 0 arfcn: numChannels: 0 array:
$GPGGA,235521.000,4806.8914,N,00139.4627,W,1,05,2.6,90.2,M,48.3,M,,0000*7B
$GPGSA,M,3,16,26,21,10,20,,,,,,,,3.4,2.6,2.3*3F
$GPGSV,3,1,12,16,70,189,17,26,41,164,16,21,38,058,17,10,36,139,18*7E
$GPGSV,3,2,12,20,13,039,20,07,16,315,06,15,02,053,05,27,68,305,04*7E
$GPGSV,3,3,12,39,31,144,,18,43,093,,08,29,286,,30,04,335,*7A
$GPRMC,235521.000,A,4806.8914,N,00139.4627,W,4.48,297.75,050218,,,A*74
$GPGGA,235522.000,4806.8919,N,00139.4644,W,1,05,2.6,90.2,M,48.3,M,,0000*70
$GPGSA,M,3,16,26,21,10,20,,,,,,,,3.4,2.6,2.3*3F
$GPRMC,235522.000,A,4806.8919,N,00139.4644,W,4.43,296.90,050218,,,A*7E
arfcn: 987 bsic: 40 rxLev: -99 ber: 9.07 mcc: FFF mnc: FF lac: 65535 cellId: 0 cellStatus: CELL_OTHER numArfcn: 0 arfcn: numChannels: 0 array:
arfcn: 90 rxLev: -99
arfcn: 121 rxLev: -99
$GPGGA,235523.000,4806.8921,N,00139.4655,W,1,05,2.6,90.2,M,48.3,M,,0000*7A
$GPGSA,M,3,16,26,21,10,20,,,,,,,,3.4,2.6,2.3*3F
arfcn: 682 rxLev: -99
$GPRMC,235523.000,A,4806.8921,N,00139.4655,W,4.02,295.56,050218,,,A*78
arfcn: 663 rxLev: -99
arfcn: 659 rxLev: -99
arfcn: 666 rxLev: -99
arfcn: 669 rxLev: -99
arfcn: 644 rxLev: -99
arfcn: 637 rxLev: -99
arfcn: 638 rxLev: -99
arfcn: 633 rxLev: -100
arfcn: 634 rxLev: -100
$GPGGA,235524.000,4806.8925,N,00139.4671,W,1,05,2.6,90.1,M,48.3,M,,0000*7C
arfcn: 635 rxLev: -100
$GPGSA,M,3,16,26,21,10,20,,,,,,,,3.4,2.6,2.3*3F
arfcn: 636 rxLev: -100
arfcn: 645 rxLev: -100
$GPRMC,235524.000,A,4806.8925,N,00139.4671,W,4.11,294.12,050218,,,A*7E
arfcn: 646 rxLev: -100
arfcn: 648 rxLev: -100
arfcn: 657 rxLev: -100
arfcn: 658 rxLev: -100
arfcn: 662 rxLev: -100
arfcn: 653 rxLev: -100
arfcn: 650 rxLev: -100
arfcn: 652 rxLev: -100
$GPGGA,235525.000,4806.8926,N,00139.4681,W,1,05,2.6,90.1,M,48.3,M,,0000*71
arfcn: 1012 rxLev: -100
arfcn: 988 rxLev: -100
$GPGSA,M,3,16,26,21,10,20,,,,,,,,3.4,2.6,2.3*3F
$GPRMC,235525.000,A,4806.8926,N,00139.4681,W,3.66,292.80,050218,,,A*79
arfcn: 651 rxLev: -100
arfcn: 649 rxLev: -100
arfcn: 656 rxLev: -100
arfcn: 668 rxLev: -100
arfcn: 675 rxLev: -100
arfcn: 677 rxLev: -100
arfcn: 679 rxLev: -100
arfcn: 680 rxLev: -100
$GPGGA,235526.000,4806.8934,N,00139.4698,W,1,05,2.6,90.0,M,48.3,M,,0000*78
arfcn: 647 rxLev: -100
arfcn: 618 rxLev: -100
$GPGSA,M,3,16,26,21,10,20,,,,,,,,3.4,2.6,2.3*3F
arfcn: 620 rxLev: -100
arfcn: 622 rxLev: -100
$GPGSV,3,1,12,16,70,189,18,26,41,164,15,21,38,058,18,10,36,139,17*72
$GPGSV,3,2,12,20,13,039,19,07,16,315,04,27,68,305,05,39,31,144,*7B
arfcn: 628 rxLev: -100
arfcn: 630 rxLev: -100
$GPGSV,3,3,12,18,43,093,,08,29,286,,30,04,335,,15,02,053,*73
arfcn: 632 rxLev: -100
arfcn: 975 rxLev: -100
$GPRMC,235526.000,A,4806.8934,N,00139.4698,W,4.00,294.89,050218,,,A*79
arfcn: 681 rxLev: -100
arfcn: 683 rxLev: -101
arfcn: 685 rxLev: -101
$GPGGA,235527.000,4806.8937,N,00139.4693,W,1,06,2.2,89.8,M,48.3,M,,0000*76
arfcn: 687 rxLev: -101
$GPGSA,M,3,16,27,26,21,10,20,,,,,,,4.0,2.2,3.3*3C
arfcn: 688 rxLev: -101
arfcn: 691 rxLev: -101
$GPRMC,235527.000,A,4806.8937,N,00139.4693,W,3.45,297.28,050218,,,A*7E
arfcn: 692 rxLev: -101
arfcn: 704 rxLev: -101
arfcn: 118 rxLev: -101
