$GPRMC,110651.000,A,4719.1126,N,00130.4939,W,0.03,217.46,251217,,,A*73
Survey start at #CCLK: "17/12/25,12:06:51+04"
at#csurv
Network survey started ...
$GPGGA,110652.000,4719.1126,N,00130.4941,W,1,09,1.1,-24.9,M,48.5,M,,0000*58
Survey end at #CCLK: "17/12/25,12:06:51+04"
Survey duration: 0 seconds, 0 bases detected over 0 freqs scanned.
$GPGSA,M,3,09,06,23,02,07,03,19,30,17,,,,1.9,1.1,1.6*34
$GPRMC,110652.000,A,4719.1126,N,00130.4941,W,0.19,217.46,251217,,,A*74
$GPGGA,110653.000,4719.1127,N,00130.4943,W,1,09,1.1,-25.5,M,48.5,M,,0000*57
$GPGSA,M,3,09,06,23,02,07,03,19,30,17,,,,1.9,1.1,1.6*34
$GPRMC,110653.000,A,4719.1127,N,00130.4943,W,0.22,217.46,251217,,,A*7E
Survey start at #CCLK: "17/12/25,12:06:53+04"
at#csurv
Network survey started ...
$GPGGA,110654.000,4719.1127,N,00130.4945,W,1,08,1.2,-25.9,M,48.5,M,,0000*58
$GPGSA,M,3,09,06,23,02,07,03,30,17,,,,,2.0,1.2,1.6*35
$GPGSV,3,1,12,09,88,160,25,06,65,266,26,23,53,059,25,02,35,306,20*7D
$GPGSV,3,2,12,07,28,161,34,03,21,099,18,30,07,179,20,17,05,212,17*73
$GPGSV,3,3,12,19,16,228,16,26,03,045,17,33,33,198,27,04,12,316,*7C
$GPRMC,110654.000,A,4719.1127,N,00130.4945,W,0.43,217.46,251217,,,A*78
$GPGGA,110655.000,4719.1127,N,00130.4949,W,1,08,1.2,-26.3,M,48.5,M,,0000*5C
$GPGSA,M,3,09,06,23,02,07,03,30,17,,,,,2.0,1.2,1.6*35
$GPRMC,110655.000,A,4719.1127,N,00130.4949,W,0.54,217.46,251217,,,A*73
$GPGGA,110656.000,4719.1127,N,00130.4952,W,1,08,1.2,-26.6,M,48.5,M,,0000*50
$GPGSA,M,3,09,06,23,02,07,03,30,17,,,,,2.0,1.2,1.6*35
$GPRMC,110656.000,A,4719.1127,N,00130.4952,W,0.31,217.46,251217,,,A*79
$GPGGA,110657.000,4719.1126,N,00130.4953,W,1,08,1.2,-26.9,M,48.5,M,,0000*5E
$GPGSA,M,3,09,06,23,02,07,03,30,17,,,,,2.0,1.2,1.6*35
$GPRMC,110657.000,A,4719.1126,N,00130.4953,W,0.24,217.46,251217,,,A*7C
$GPGGA,110658.000,4719.1125,N,00130.4952,W,1,09,1.1,-27.0,M,48.5,M,,0000*59
$GPGSA,M,3,09,06,23,02,07,03,19,30,17,,,,1.9,1.1,1.6*34
$GPRMC,110658.000,A,4719.1125,N,00130.4952,W,0.32,217.46,251217,,,A*76
$GPGGA,110659.000,4719.1125,N,00130.4951,W,1,09,1.1,-27.1,M,48.5,M,,0000*5A
$GPGSA,M,3,09,06,23,02,07,03,19,30,17,,,,1.9,1.1,1.6*34
$GPGSV,3,1,12,09,88,160,26,06,65,266,27,23,53,059,26,02,35,306,21*7D
$GPGSV,3,2,12,07,28,161,34,03,21,099,20,19,16,228,13,30,07,179,20*79
$GPGSV,3,3,12,17,05,212,16,26,03,045,18,33,33,198,28,04,12,316,*79
$GPRMC,110659.000,A,4719.1125,N,00130.4951,W,0.31,217.46,251217,,,A*77
$GPGGA,110700.000,4719.1126,N,00130.4951,W,1,09,1.1,-27.3,M,48.5,M,,0000*56
$GPGSA,M,3,09,06,23,02,07,03,19,30,17,,,,1.9,1.1,1.6*34
$GPRMC,110700.000,A,4719.1126,N,00130.4951,W,0.03,217.46,251217,,,A*78
$GPGGA,110701.000,4719.1126,N,00130.4953,W,1,09,1.1,-27.4,M,48.5,M,,0000*52
$GPGSA,M,3,09,06,23,02,07,03,19,30,17,,,,1.9,1.1,1.6*34
$GPRMC,110701.000,A,4719.1126,N,00130.4953,W,0.18,217.46,251217,,,A*71
$GPGGA,110702.000,4719.1125,N,00130.4954,W,1,09,1.1,-27.4,M,48.5,M,,0000*55
$GPGSA,M,3,09,06,23,02,07,03,19,30,17,,,,1.9,1.1,1.6*34
$GPRMC,110702.000,A,4719.1125,N,00130.4954,W,0.23,217.46,251217,,,A*7E
arfcn: 975 bsic: 14 rxLev: -90 ber: 0.00 mcc: 208 mnc: 20 lac: 420 cellId: 38411 cellStatus: CELL_SUITABLE numArfcn: 3 arfcn: 975 986 1010 numChannels: 21 array: 789 794 880 884 975 977 978 980 981 982 983 985 1012 1013 1014 1015 1016 1017 1019 1021 1022 pbcch: 0 nom: 2 rac: 7 spgc: 0 pat: 6 nco: 0 t3168: 1500 t3192: 500 drxmax: 0 ctrlAck: 0 bsCVmax: 8 alpha: 6 pcMeasCh: 1 
arfcn: 978 bsic: 40 rxLev: -90 ber: 0.00 mcc: 208 mnc: 20 lac: 420 cellId: 38409 cellStatus: CELL_SUITABLE numArfcn: 5 arfcn: 874 876 978 987 1020 numChannels: 24 array: 975 976 977 978 980 981 982 983 985 1011 1012 1014 1015 1016 1017 1019 1021 1022 791 792 880 881 884 885 pbcch: 0 nom: 2 rac: 7 spgc: 0 pat: 6 nco: 0 t3168: 1500 t3192: 500 drxmax: 0 ctrlAck: 0 bsCVmax: 8 alpha: 6 pcMeasCh: 1 
$GPGGA,110703.000,4719.1124,N,00130.4956,W,1,09,1.1,-27.1,M,48.5,M,,0000*52
$GPGSA,M,3,09,06,23,02,07,03,19,30,17,,,,1.9,1.1,1.6*34
$GPRMC,110703.000,A,4719.1124,N,00130.4956,W,0.32,217.46,251217,,,A*7C
$GPGGA,110704.000,4719.1123,N,00130.4959,W,1,09,1.1,-26.8,M,48.5,M,,0000*55
$GPGSA,M,3,09,06,23,02,07,03,19,30,17,,,,1.9,1.1,1.6*34
arfcn: 977 bsic: 40 rxLev: -91 ber: 0.00 mcc: FFF mnc: FF lac: 65535 cellId: 0 cellStatus: CELL_OTHER numArfcn: 0 arfcn: numChannels: 0 array:
$GPGSV,3,1,12,09,88,160,26,06,65,266,27,23,53,059,26,02,35,306,23*7F
$GPGSV,3,2,12,07,28,161,34,03,21,099,21,19,16,228,21,30,07,179,20*79
$GPGSV,3,3,12,17,05,212,15,33,33,198,30,04,12,316,,26,03,045,*7A
$GPRMC,110704.000,A,4719.1123,N,00130.4959,W,0.25,217.46,251217,,,A*75
$GPGGA,110705.000,4719.1121,N,00130.4962,W,1,09,1.1,-26.7,M,48.5,M,,0000*51
$GPGSA,M,3,09,06,23,02,07,03,19,30,17,,,,1.9,1.1,1.6*34
$GPRMC,110705.000,A,4719.1121,N,00130.4962,W,0.56,217.46,251217,,,A*7A
$GPGGA,110706.000,4719.1119,N,00130.4963,W,1,09,1.1,-26.4,M,48.5,M,,0000*5B
$GPGSA,M,3,09,06,23,02,07,03,19,30,17,,,,1.9,1.1,1.6*34
$GPRMC,110706.000,A,4719.1119,N,00130.4963,W,0.20,217.46,251217,,,A*72
arfcn: 114 bsic: 58 rxLev: -93 ber: 0.00 mcc: 208 mnc: 10 lac: 49409 cellId: 34486 cellStatus: CELL_FORBIDDEN numArfcn: 3 arfcn: 77 88 114 numChannels: 13 array: 76 78 79 80 82 83 84 86 114 115 120 123 612 pbcch: 0 nom: 2 rac: 30 spgc: 0 pat: 6 nco: 0 t3168: 1000 t3192: 500 drxmax: 4 ctrlAck: 1 bsCVmax: 9 alpha: 10 pcMeasCh: 0 
arfcn: 67 rxLev: -93
arfcn: 983 rxLev: -93
arfcn: 124 rxLev: -93
$GPGGA,110707.000,4719.1118,N,00130.4964,W,1,09,1.1,-26.3,M,48.5,M,,0000*5B
arfcn: 15 rxLev: -93
arfcn: 68 rxLev: -94
$GPGSA,M,3,09,06,23,02,07,03,19,30,17,,,,1.9,1.1,1.6*34
arfcn: 66 rxLev: -94
$GPRMC,110707.000,A,4719.1118,N,00130.4964,W,0.19,217.46,251217,,,A*7F
arfcn: 7 rxLev: -94
arfcn: 63 rxLev: -95
$GPGGA,110708.000,4719.1118,N,00130.4964,W,1,09,1.1,-26.4,M,48.5,M,,0000*53
$GPGSA,M,3,09,06,23,02,07,03,19,30,17,,,,1.9,1.1,1.6*34
$GPRMC,110708.000,A,4719.1118,N,00130.4964,W,0.14,217.46,251217,,,A*7D
$GPGGA,110709.000,4719.1117,N,00130.4963,W,1,09,1.1,-26.3,M,48.5,M,,0000*5D
$GPGSA,M,3,09,06,23,02,07,03,19,30,17,,,,1.9,1.1,1.6*34
$GPGSV,3,1,12,09,88,160,26,06,65,266,28,23,53,059,26,02,35,306,23*70
$GPGSV,3,2,12,07,28,161,34,03,21,099,21,19,16,228,21,30,07,179,20*79
$GPGSV,3,3,12,17,05,212,14,05,01,286,13,26,03,045,12,49,35,171,*7E
$GPRMC,110709.000,A,4719.1117,N,00130.4963,W,0.13,217.46,251217,,,A*73
$GPGGA,110710.000,4719.1118,N,00130.4962,W,1,09,1.1,-26.6,M,48.5,M,,0000*5E
$GPGSA,M,3,09,06,23,02,07,03,19,30,17,,,,1.9,1.1,1.6*34
$GPRMC,110710.000,A,4719.1118,N,00130.4962,W,0.28,217.46,251217,,,A*7D
arfcn: 78 bsic: 59 rxLev: -95 ber: 1.04 mcc: 208 mnc: 10 lac: 30500 cellId: 20248 cellStatus: CELL_FORBIDDEN numArfcn: 1 arfcn: 78 numChannels: 19 array: 76 77 78 79 80 82 84 85 86 113 114 115 116 118 119 120 121 122 124 pbcch: 0 nom: 2 rac: 1 spgc: 0 pat: 6 nco: 0 t3168: 1500 t3192: 500 drxmax: 0 ctrlAck: 0 bsCVmax: 8 alpha: 6 pcMeasCh: 1 
$GPGGA,110711.000,4719.1119,N,00130.4960,W,1,09,1.1,-26.9,M,48.5,M,,0000*53
$GPGSA,M,3,09,06,23,02,07,03,19,30,17,,,,1.9,1.1,1.6*34
$GPRMC,110711.000,A,4719.1119,N,00130.4960,W,0.24,217.46,251217,,,A*73
$GPGGA,110712.000,4719.1118,N,00130.4960,W,1,09,1.1,-27.1,M,48.5,M,,0000*58
$GPGSA,M,3,09,06,23,02,07,03,19,30,17,,,,1.9,1.1,1.6*34
$GPRMC,110712.000,A,4719.1118,N,00130.4960,W,0.24,217.46,251217,,,A*71
$GPGGA,110713.000,4719.1117,N,00130.4960,W,1,09,1.1,-27.0,M,48.5,M,,0000*57
$GPGSA,M,3,09,06,23,02,07,03,19,30,17,,,,1.9,1.1,1.6*34
$GPRMC,110713.000,A,4719.1117,N,00130.4960,W,0.25,217.46,251217,,,A*7E
$GPGGA,110714.000,4719.1116,N,00130.4959,W,1,09,1.1,-26.8,M,48.5,M,,0000*52
$GPGSA,M,3,09,06,23,02,07,03,19,30,17,,,,1.9,1.1,1.6*34
$GPGSV,3,1,12,09,88,150,22,06,65,266,28,23,52,059,26,02,35,305,24*72
$GPGSV,3,2,12,07,28,161,34,03,21,099,21,19,16,228,11,30,07,179,17*7E
$GPGSV,3,3,12,17,05,212,09,05,02,286,13,49,35,171,36,04,13,316,*73
$GPRMC,110714.000,A,4719.1116,N,00130.4959,W,0.23,217.46,251217,,,A*74
arfcn: 82 bsic: 50 rxLev: -95 ber: 0.05 mcc: 208 mnc: 10 lac: 30500 cellId: 20265 cellStatus: CELL_FORBIDDEN numArfcn: 1 arfcn: 82 numChannels: 17 array: 76 77 78 79 80 84 86 113 114 115 116 118 119 120 122 123 124 pbcch: 0 nom: 2 rac: 1 spgc: 0 pat: 6 nco: 0 t3168: 1500 t3192: 500 drxmax: 0 ctrlAck: 0 bsCVmax: 8 alpha: 6 pcMeasCh: 1 
$GPGGA,110715.000,4719.1116,N,00130.4958,W,1,09,1.1,-26.8,M,48.5,M,,0000*52
$GPGSA,M,3,09,06,23,02,07,03,19,30,17,,,,1.9,1.1,1.6*34
$GPRMC,110715.000,A,4719.1116,N,00130.4958,W,0.00,217.46,251217,,,A*75
$GPGGA,110716.000,4719.1116,N,00130.4958,W,1,09,1.1,-26.8,M,48.5,M,,0000*51
$GPGSA,M,3,09,06,23,02,07,03,19,30,17,,,,1.9,1.1,1.6*34
$GPRMC,110716.000,A,4719.1116,N,00130.4958,W,0.00,217.46,251217,,,A*76
$GPGGA,110717.000,4719.1116,N,00130.4958,W,1,09,1.1,-26.8,M,48.5,M,,0000*50
$GPGSA,M,3,09,06,23,02,07,03,19,30,17,,,,1.9,1.1,1.6*34
$GPRMC,110717.000,A,4719.1116,N,00130.4958,W,0.00,217.46,251217,,,A*77
$GPGGA,110718.000,4719.1116,N,00130.4958,W,1,09,1.1,-26.8,M,48.5,M,,0000*5F
arfcn: 980 bsic: 17 rxLev: -95 ber: 3.06 mcc: 208 mnc: 20 lac: 420 cellId: 20175 cellStatus: CELL_SUITABLE numArfcn: 3 arfcn: 976 980 988 numChannels: 17 array: 876 975 976 977 978 980 983 985 1012 1013 1014 1015 1016 1017 1018 1019 1022 pbcch: 0 nom: 2 rac: 7 spgc: 0 pat: 6 nco: 0 t3168: 1500 t3192: 500 drxmax: 0 ctrlAck: 0 bsCVmax: 8 alpha: 6 pcMeasCh: 1 
arfcn: 94 rxLev: -95
arfcn: 123 rxLev: -95
$GPGSA,M,3,09,06,23,02,07,03,19,30,17,,,,1.9,1.1,1.6*34
$GPRMC,110718.000,A,4719.1116,N,00130.4958,W,0.00,217.46,251217,,,A*78
arfcn: 93 rxLev: -96
arfcn: 92 rxLev: -96
arfcn: 61 rxLev: -96
arfcn: 1006 rxLev: -96
arfcn: 1005 rxLev: -96
arfcn: 1007 rxLev: -96
arfcn: 1001 rxLev: -96
arfcn: 981 rxLev: -96
arfcn: 990 rxLev: -96
$GPGGA,110719.000,4719.1103,N,00130.4952,W,1,09,1.1,-24.9,M,48.5,M,,0000*53
arfcn: 991 rxLev: -96
$GPGSA,M,3,09,06,23,02,07,03,19,30,17,,,,1.9,1.1,1.6*34
arfcn: 60 rxLev: -96
$GPGSV,3,1,12,09,88,148,21,06,65,265,28,23,52,059,25,02,35,305,25*79
$GPGSV,3,2,12,07,28,161,35,03,21,099,20,19,16,228,25,30,07,179,23*7E
$GPGSV,3,3,12,17,05,212,09,05,02,286,13,26,03,045,17,49,35,171,31*76
$GPRMC,110719.000,A,4719.1103,N,00130.4952,W,0.16,217.46,251217,,,A*70
$GPGGA,110720.000,4719.1095,N,00130.4948,W,1,09,1.1,-23.6,M,48.5,M,,0000*54
$GPGSA,M,3,09,06,23,02,07,03,19,30,17,,,,1.9,1.1,1.6*34
$GPRMC,110720.000,A,4719.1095,N,00130.4948,W,0.47,217.46,251217,,,A*7B
$GPGGA,110721.000,4719.1088,N,00130.4944,W,1,09,1.1,-22.4,M,48.5,M,,0000*56
$GPGSA,M,3,09,06,23,02,07,03,19,30,17,,,,1.9,1.1,1.6*34
arfcn: 4 bsic: 20 rxLev: -96 ber: 2.02 mcc: 208 mnc: 01 lac: 6404 cellId: 16419 cellStatus: CELL_FORBIDDEN numArfcn: 13 arfcn: 4 17 18 19 20 21 22 23 24 25 47 48 49 numChannels: 18 array: 1 2 4 5 6 7 8 9 10 11 12 13 14 15 16 513 604 608 pbcch: 0 nom: 2 rac: 1 spgc: 1 pat: 6 nco: 0 t3168: 1000 t3192: 500 drxmax: 4 ctrlAck: 1 bsCVmax: 9 alpha: 7 pcMeasCh: 0 
arfcn: 5 rxLev: -96
$GPRMC,110721.000,A,4719.1088,N,00130.4944,W,0.38,217.46,251217,,,A*72
arfcn: 95 rxLev: -96
arfcn: 97 rxLev: -96
arfcn: 98 rxLev: -97
arfcn: 99 rxLev: -97
arfcn: 100 rxLev: -97
arfcn: 96 rxLev: -97
arfcn: 91 rxLev: -97
arfcn: 65 rxLev: -97
$GPGGA,110722.000,4719.1082,N,00130.4940,W,1,09,1.1,-21.6,M,48.5,M,,0000*5A
$GPGSA,M,3,09,06,23,02,07,03,19,30,17,,,,1.9,1.1,1.6*34
$GPRMC,110722.000,A,4719.1082,N,00130.4940,W,0.07,217.46,251217,,,A*73
$GPGGA,110723.000,4719.1078,N,00130.4938,W,1,09,1.1,-21.0,M,48.5,M,,0000*57
$GPGSA,M,3,09,06,23,02,07,03,19,30,17,,,,1.9,1.1,1.6*34
$GPRMC,110723.000,A,4719.1078,N,00130.4938,W,0.24,217.46,251217,,,A*79
arfcn: 12 bsic: 26 rxLev: -97 ber: 1.06 mcc: 208 mnc: 01 lac: 6403 cellId: 63250 cellStatus: CELL_FORBIDDEN numArfcn: 13 arfcn: 12 17 18 19 20 21 22 23 24 25 47 48 49 numChannels: 13 array: 1 3 4 5 6 7 8 9 10 11 13 14 15 pbcch: 0 nom: 2 rac: 1 spgc: 0 pat: 6 nco: 0 t3168: 1000 t3192: 500 drxmax: 2 ctrlAck: 0 bsCVmax: 9 alpha: 10 pcMeasCh: 1 
arfcn: 8 rxLev: -97
$GPGGA,110724.000,4719.1076,N,00130.4934,W,1,08,1.2,-20.6,M,48.5,M,,0000*57
$GPGSA,M,3,09,06,23,02,07,03,19,30,,,,,2.0,1.2,1.7*3A
$GPGSV,3,1,12,09,88,148,20,06,65,265,29,23,52,059,24,02,35,305,24*79
$GPGSV,3,2,12,07,28,161,35,03,21,099,20,19,16,228,26,30,07,179,21*7F
$GPGSV,3,3,12,17,05,212,08,49,35,171,31,04,13,316,,26,03,045,*7A
$GPRMC,110724.000,A,4719.1076,N,00130.4934,W,0.22,217.46,251217,,,A*7A
$GPGGA,110725.000,4719.1073,N,00130.4931,W,1,08,1.2,-20.2,M,48.5,M,,0000*52
$GPGSA,M,3,09,06,23,02,07,03,19,30,,,,,2.0,1.2,1.7*3A
$GPRMC,110725.000,A,4719.1073,N,00130.4931,W,0.18,217.46,251217,,,A*72
arfcn: 10 bsic: 15 rxLev: -97 ber: 1.06 mcc: 208 mnc: 01 lac: 6403 cellId: 8058 cellStatus: CELL_FORBIDDEN numArfcn: 13 arfcn: 10 17 18 19 20 21 22 23 24 25 47 48 49 numChannels: 20 array: 1 2 3 5 6 7 8 9 10 12 13 15 513 516 517 518 604 605 606 608 pbcch: 0 nom: 2 rac: 1 spgc: 1 pat: 6 nco: 0 t3168: 1000 t3192: 500 drxmax: 4 ctrlAck: 1 bsCVmax: 9 alpha: 7 pcMeasCh: 0 
arfcn: 59 rxLev: -97
$GPGGA,110726.000,4719.1069,N,00130.4931,W,1,08,1.2,-19.6,M,48.5,M,,0000*54
arfcn: 62 rxLev: -97
$GPGSA,M,3,09,06,23,02,07,03,19,30,,,,,2.0,1.2,1.7*3A
arfcn: 64 rxLev: -97
arfcn: 992 rxLev: -97
$GPRMC,110726.000,A,4719.1069,N,00130.4931,W,0.47,217.46,251217,,,A*70
arfcn: 1000 rxLev: -97
arfcn: 997 rxLev: -97
arfcn: 998 rxLev: -97
arfcn: 995 rxLev: -97
arfcn: 996 rxLev: -97
arfcn: 999 rxLev: -97
arfcn: 1002 rxLev: -97
arfcn: 1008 rxLev: -97
$GPGGA,110727.000,4719.1067,N,00130.4930,W,1,08,1.2,-19.3,M,48.5,M,,0000*5F
arfcn: 1003 rxLev: -97
$GPGSA,M,3,09,06,23,02,07,03,19,30,,,,,2.0,1.2,1.7*3A
arfcn: 1004 rxLev: -97
arfcn: 993 rxLev: -97
$GPRMC,110727.000,A,4719.1067,N,00130.4930,W,0.40,217.46,251217,,,A*79
arfcn: 994 rxLev: -97
arfcn: 984 rxLev: -97
arfcn: 58 rxLev: -97
arfcn: 69 rxLev: -97
arfcn: 70 rxLev: -97
arfcn: 71 rxLev: -98
arfcn: 101 rxLev: -98
arfcn: 976 rxLev: -98
arfcn: 57 rxLev: -98
$GPGGA,110728.000,4719.1063,N,00130.4928,W,1,08,1.2,-18.7,M,48.5,M,,0000*58
arfcn: 56 rxLev: -98
$GPGSA,M,3,09,06,23,02,07,03,19,30,,,,,2.0,1.2,1.7*3A
arfcn: 29 rxLev: -98
arfcn: 102 rxLev: -98
$GPRMC,110728.000,A,4719.1063,N,00130.4928,W,0.18,217.46,251217,,,A*76
arfcn: 72 rxLev: -98
arfcn: 73 rxLev: -98
arfcn: 76 rxLev: -98
arfcn: 77 rxLev: -99
arfcn: 103 rxLev: -99
arfcn: 104 rxLev: -99
arfcn: 105 rxLev: -99
arfcn: 120 rxLev: -99
$GPGGA,110729.000,4719.1063,N,00130.4928,W,1,08,1.2,-18.8,M,48.5,M,,0000*56
arfcn: 55 rxLev: -99
$GPGSA,M,3,09,06,23,02,07,03,19,30,,,,,2.0,1.2,1.7*3A
arfcn: 54 rxLev: -99
arfcn: 53 rxLev: -99
$GPGSV,3,1,12,09,88,148,20,06,65,265,28,23,52,059,24,02,35,305,24*78
arfcn: 33 rxLev: -99
arfcn: 37 rxLev: -99
$GPGSV,3,2,12,07,28,161,35,03,21,099,21,19,16,228,26,30,07,179,20*7F
arfcn: 38 rxLev: -99
arfcn: 40 rxLev: -99
$GPGSV,3,3,12,17,05,212,06,49,35,171,30,04,13,316,,26,03,045,*75
arfcn: 44 rxLev: -99
arfcn: 30 rxLev: -99
$GPRMC,110729.000,A,4719.1063,N,00130.4928,W,0.01,217.46,251217,,,A*7F
arfcn: 31 rxLev: -99
arfcn: 32 rxLev: -99
arfcn: 119 rxLev: -99
$GPGGA,110730.000,4719.1063,N,00130.4928,W,1,08,1.2,-18.8,M,48.5,M,,0000*5E
arfcn: 121 rxLev: -99
$GPGSA,M,3,09,06,23,02,07,03,19,30,,,,,2.0,1.2,1.7*3A
arfcn: 122 rxLev: -99
arfcn: 106 rxLev: -99
$GPRMC,110730.000,A,4719.1063,N,00130.4928,W,0.01,217.46,251217,,,A*77
$GPGGA,110731.000,4719.1063,N,00130.4928,W,1,08,1.2,-18.8,M,48.5,M,,0000*5F
$GPGSA,M,3,09,06,23,02,07,03,19,30,,,,,2.0,1.2,1.7*3A
$GPRMC,110731.000,A,4719.1063,N,00130.4928,W,0.00,217.46,251217,,,A*77
$GPGGA,110732.000,4719.1063,N,00130.4929,W,1,09,1.1,-18.7,M,48.5,M,,0000*50
$GPGSA,M,3,09,06,23,02,07,03,19,30,17,,,,1.9,1.1,1.6*34
$GPRMC,110732.000,A,4719.1063,N,00130.4929,W,0.00,217.46,251217,,,A*75
arfcn: 1012 bsic: 9 rxLev: -99 ber: 0.10 mcc: 208 mnc: 20 lac: 420 cellId: 50862 cellStatus: CELL_SUITABLE numArfcn: 2 arfcn: 984 1012 numChannels: 18 array: 791 792 876 975 976 977 978 980 981 982 983 985 1014 1015 1017 1018 1019 1021 pbcch: 0 nom: 2 rac: 7 spgc: 0 pat: 6 nco: 0 t3168: 1500 t3192: 500 drxmax: 4 ctrlAck: 0 bsCVmax: 8 alpha: 6 pcMeasCh: 1 
arfcn: 982 rxLev: -100
arfcn: 75 rxLev: -100
arfcn: 90 rxLev: -100
arfcn: 28 rxLev: -100
arfcn: 9 rxLev: -100
$GPGGA,110733.000,4719.1063,N,00130.4940,W,1,09,1.1,-16.1,M,48.5,M,,0000*56
arfcn: 39 rxLev: -100
$GPGSA,M,3,09,06,23,02,07,03,19,30,17,,,,1.9,1.1,1.6*34
arfcn: 34 rxLev: -100
arfcn: 35 rxLev: -100
$GPRMC,110733.000,A,4719.1063,N,00130.4940,W,0.19,217.46,251217,,,A*73
arfcn: 36 rxLev: -100
arfcn: 43 rxLev: -100
arfcn: 41 rxLev: -100
arfcn: 42 rxLev: -100
arfcn: 45 rxLev: -100
arfcn: 48 rxLev: -100
arfcn: 27 rxLev: -100
arfcn: 74 rxLev: -100
$GPGGA,110734.000,4719.1064,N,00130.4949,W,1,09,1.1,-13.4,M,48.5,M,,0000*5F
arfcn: 107 rxLev: -100
$GPGSA,M,3,09,06,23,02,07,03,19,30,17,,,,1.9,1.1,1.6*34
arfcn: 108 rxLev: -100
arfcn: 979 rxLev: -100
$GPGSV,3,1,12,09,88,144,20,06,65,265,23,23,52,059,14,02,36,305,25*7E
arfcn: 609 rxLev: -101
arfcn: 109 rxLev: -101
$GPGSV,3,2,12,07,28,161,35,03,21,099,21,19,16,228,22,30,07,179,20*7B
arfcn: 13 rxLev: -101
arfcn: 1 rxLev: -101
$GPGSV,3,3,12,17,05,212,11,49,35,171,30,04,13,316,,26,03,045,*73
arfcn: 3 rxLev: -101
arfcn: 1022 rxLev: -101
$GPRMC,110734.000,A,4719.1064,N,00130.4949,W,0.51,217.46,251217,,,A*76
arfcn: 1021 rxLev: -102
arfcn: 1020 rxLev: -102
$GPGGA,110735.000,4719.1065,N,00130.4954,W,1,09,1.1,-11.4,M,48.5,M,,0000*51
arfcn: 14 rxLev: -102
arfcn: 11 rxLev: -102
$GPGSA,M,3,09,06,23,02,07,03,19,30,17,,,,1.9,1.1,1.6*34
arfcn: 52 rxLev: -102
$GPRMC,110735.000,A,4719.1065,N,00130.4954,W,0.59,217.46,251217,,,A*72
$GPGGA,110736.000,4719.1065,N,00130.4960,W,1,09,1.1,-9.7,M,48.5,M,,0000*6F
$GPGSA,M,3,09,06,23,02,07,03,19,30,17,,,,1.9,1.1,1.6*34
$GPRMC,110736.000,A,4719.1065,N,00130.4960,W,0.29,217.46,251217,,,A*71
$GPGGA,110737.000,4719.1062,N,00130.4961,W,1,09,1.1,-8.3,M,48.5,M,,0000*6D
$GPGSA,M,3,09,06,23,02,07,03,19,30,17,,,,1.9,1.1,1.6*34
arfcn: 81 bsic: 43 rxLev: -102 ber: 3.10 mcc: FFF mnc: FF lac: 65535 cellId: 0 cellStatus: CELL_OTHER numArfcn: 0 arfcn: numChannels: 0 array:
$GPRMC,110737.000,A,4719.1062,N,00130.4961,W,0.20,217.46,251217,,,A*7F
arfcn: 83 rxLev: -102
arfcn: 86 rxLev: -102
arfcn: 118 rxLev: -102
$GPGGA,110738.000,4719.1056,N,00130.4957,W,1,09,1.1,-8.2,M,48.5,M,,0000*61
$GPGSA,M,3,09,06,23,02,07,03,19,30,17,,,,1.9,1.1,1.6*34
$GPRMC,110738.000,A,4719.1056,N,00130.4957,W,0.48,217.46,251217,,,A*7C
$GPGGA,110739.000,4719.1054,N,00130.4955,W,1,08,1.7,-8.6,M,48.5,M,,0000*63
$GPGSA,M,3,09,06,23,07,03,19,30,17,,,,,2.6,1.7,2.0*39
$GPGSV,3,1,12,09,88,144,21,06,65,265,25,23,52,059,20,07,28,161,38*78
$GPGSV,3,2,12,03,21,099,20,19,16,228,33,30,07,179,25,17,05,212,27*75
$GPGSV,3,3,12,02,36,305,07,37,28,150,,04,13,316,,26,03,045,*72
$GPRMC,110739.000,A,4719.1054,N,00130.4955,W,0.20,217.46,251217,,,A*73
$GPGGA,110740.000,4719.1053,N,00130.4957,W,1,08,1.7,-7.9,M,48.5,M,,0000*68
$GPGSA,M,3,09,06,23,07,03,19,30,17,,,,,2.6,1.7,2.0*39
$GPRMC,110740.000,A,4719.1053,N,00130.4957,W,0.09,217.46,251217,,,A*73
$GPGGA,110741.000,4719.1051,N,00130.4956,W,1,09,1.1,-7.3,M,48.5,M,,0000*67
$GPGSA,M,3,09,06,23,02,07,03,19,30,17,,,,1.9,1.1,1.6*34
$GPRMC,110741.000,A,4719.1051,N,00130.4956,W,0.27,217.46,251217,,,A*7D
$GPGGA,110742.000,4719.1048,N,00130.4958,W,1,09,1.1,-6.7,M,48.5,M,,0000*67
$GPGSA,M,3,09,06,23,02,07,03,19,30,17,,,,1.9,1.1,1.6*34
$GPRMC,110742.000,A,4719.1048,N,00130.4958,W,0.28,217.46,251217,,,A*77
$GPGGA,110743.000,4719.1045,N,00130.4961,W,1,09,1.1,-5.6,M,48.5,M,,0000*63
$GPGSA,M,3,09,06,23,02,07,03,19,30,17,,,,1.9,1.1,1.6*34
arfcn: 2 bsic: 37 rxLev: -102 ber: 11.07 mcc: 208 mnc: 01 lac: 6404 cellId: 22696 cellStatus: CELL_FORBIDDEN numArfcn: 0 arfcn: numChannels: 0 array: pbcch: 0 nom: 2 rac: 1 spgc: 1 pat: 6 nco: 0 t3168: 1000 t3192: 500 drxmax: 4 ctrlAck: 1 bsCVmax: 9 alpha: 7 pcMeasCh: 0 
arfcn: 849 rxLev: -102
$GPRMC,110743.000,A,4719.1045,N,00130.4961,W,0.18,217.46,251217,,,A*72
arfcn: 989 rxLev: -102
arfcn: 987 rxLev: -102
arfcn: 1009 rxLev: -103
arfcn: 729 rxLev: -103
arfcn: 606 rxLev: -103
arfcn: 6 rxLev: -103
arfcn: 16 rxLev: -103
$GPGGA,110744.000,4719.1042,N,00130.4966,W,1,08,1.2,-4.6,M,48.5,M,,0000*67
arfcn: 18 rxLev: -103
$GPGSA,M,3,09,06,23,02,07,03,19,17,,,,,2.0,1.2,1.6*3E
arfcn: 49 rxLev: -103
arfcn: 46 rxLev: -103
$GPGSV,3,1,12,09,88,144,17,06,65,265,25,23,52,059,20,02,36,305,18*75
arfcn: 79 rxLev: -103
arfcn: 80 rxLev: -103
$GPGSV,3,2,12,07,28,161,28,03,21,099,21,19,16,228,31,17,05,212,23*7F
arfcn: 89 rxLev: -103
arfcn: 110 rxLev: -103
$GPGSV,3,3,12,30,07,179,10,37,28,150,,04,13,316,,26,03,045,*7E
arfcn: 47 rxLev: -103
arfcn: 26 rxLev: -103
$GPRMC,110744.000,A,4719.1042,N,00130.4966,W,0.21,217.46,251217,,,A*7F
$GPGGA,110745.000,4719.1038,N,00130.4971,W,1,09,1.1,-3.2,M,48.5,M,,0000*6C
$GPGSA,M,3,09,06,23,02,07,03,19,30,17,,,,1.9,1.1,1.6*34
$GPRMC,110745.000,A,4719.1038,N,00130.4971,W,0.39,217.46,251217,,,A*7C
$GPGGA,110746.000,4719.1032,N,00130.4974,W,1,09,1.1,-1.8,M,48.5,M,,0000*68
$GPGSA,M,3,09,06,23,02,07,03,19,30,17,,,,1.9,1.1,1.6*34
$GPRMC,110746.000,A,4719.1032,N,00130.4974,W,0.45,217.46,251217,,,A*7B
$GPGGA,110747.000,4719.1033,N,00130.4973,W,1,09,1.1,-1.9,M,48.5,M,,0000*6E
$GPGSA,M,3,09,06,23,02,07,03,19,30,17,,,,1.9,1.1,1.6*34
arfcn: 1014 bsic: 43 rxLev: -103 ber: 0.00 mcc: 208 mnc: 20 lac: 420 cellId: 38580 cellStatus: CELL_SUITABLE numArfcn: 3 arfcn: 987 1014 1023 numChannels: 19 array: 975 976 977 978 980 981 982 983 984 985 1014 1015 1016 1017 1018 1019 1020 1021 1022 pbcch: 0 nom: 2 rac: 7 spgc: 0 pat: 6 nco: 0 t3168: 1500 t3192: 500 drxmax: 0 ctrlAck: 0 bsCVmax: 8 alpha: 6 pcMeasCh: 1 
arfcn: 985 rxLev: -103
$GPRMC,110747.000,A,4719.1033,N,00130.4973,W,0.00,217.46,251217,,,A*7D
arfcn: 986 rxLev: -104
arfcn: 115 rxLev: -104
arfcn: 117 rxLev: -104
arfcn: 19 rxLev: -104
arfcn: 1015 rxLev: -104
$GPGGA,110748.000,4719.1033,N,00130.4973,W,1,09,1.1,-1.9,M,48.5,M,,0000*61
$GPGSA,M,3,09,06,23,02,07,03,19,30,17,,,,1.9,1.1,1.6*34
$GPRMC,110748.000,A,4719.1033,N,00130.4973,W,0.00,217.46,251217,,,A*72
$GPGGA,110749.000,4719.1033,N,00130.4973,W,1,09,1.1,-1.8,M,48.5,M,,0000*61
$GPGSA,M,3,09,06,23,02,07,03,19,30,17,,,,1.9,1.1,1.6*34
$GPGSV,3,1,12,09,88,144,20,06,65,265,25,23,52,059,20,02,36,305,23*79
$GPGSV,3,2,12,07,28,161,32,03,21,099,16,19,16,228,37,30,07,179,17*78
$GPGSV,3,3,12,17,05,212,26,37,28,150,,04,13,316,,26,03,045,*72
$GPRMC,110749.000,A,4719.1033,N,00130.4973,W,0.00,217.46,251217,,,A*73
$GPGGA,110750.000,4719.1033,N,00130.4973,W,1,09,1.1,-1.8,M,48.5,M,,0000*69
$GPGSA,M,3,09,06,23,02,07,03,19,30,17,,,,1.9,1.1,1.6*34
$GPRMC,110750.000,A,4719.1033,N,00130.4973,W,0.00,217.46,251217,,,A*7B
$GPGGA,110751.000,4719.1033,N,00130.4973,W,1,09,1.1,-1.8,M,48.5,M,,0000*68
$GPGSA,M,3,09,06,23,02,07,03,19,30,17,,,,1.9,1.1,1.6*34
$GPRMC,110751.000,A,4719.1033,N,00130.4973,W,0.00,217.46,251217,,,A*7A
$GPGGA,110752.000,4719.1028,N,00130.4972,W,1,09,1.1,-1.5,M,48.5,M,,0000*6D
$GPGSA,M,3,09,06,23,02,07,03,19,30,17,,,,1.9,1.1,1.6*34
$GPRMC,110752.000,A,4719.1028,N,00130.4972,W,0.53,217.46,251217,,,A*74
$GPGGA,110753.000,4719.1025,N,00130.4972,W,1,09,1.1,-1.2,M,48.5,M,,0000*66
$GPGSA,M,3,09,06,23,02,07,03,19,30,17,,,,1.9,1.1,1.6*34
$GPRMC,110753.000,A,4719.1025,N,00130.4972,W,0.44,217.46,251217,,,A*7E
$GPGGA,110754.000,4719.1023,N,00130.4971,W,1,07,1.8,-0.7,M,48.5,M,,0000*67
$GPGSA,M,3,09,06,23,07,03,19,30,,,,,,2.8,1.8,2.2*3C
$GPGSV,3,1,12,09,88,144,25,06,65,265,19,23,52,059,20,07,28,161,39*72
$GPGSV,3,2,12,03,21,099,16,19,16,228,25,30,07,179,24,02,36,305,10*71
$GPGSV,3,3,12,17,05,212,15,22,03,104,04,37,28,150,,04,13,316,*76
$GPRMC,110754.000,A,4719.1023,N,00130.4971,W,0.30,217.46,251217,,,A*7F
$GPGGA,110755.000,4719.1022,N,00130.4973,W,1,09,1.1,-0.4,M,48.5,M,,0000*61
$GPGSA,M,3,09,06,23,02,07,03,19,30,17,,,,1.9,1.1,1.6*34
$GPRMC,110755.000,A,4719.1022,N,00130.4973,W,0.55,217.46,251217,,,A*7E
$GPGGA,110756.000,4719.1024,N,00130.4976,W,1,09,1.1,-0.2,M,48.5,M,,0000*67
$GPGSA,M,3,09,06,23,02,07,03,19,30,17,,,,1.9,1.1,1.6*34
$GPRMC,110756.000,A,4719.1024,N,00130.4976,W,0.90,217.46,251217,,,A*77
$GPGGA,110757.000,4719.1026,N,00130.4977,W,1,09,1.1,0.2,M,48.5,M,,0000*48
$GPGSA,M,3,09,06,23,02,07,03,19,30,17,,,,1.9,1.1,1.6*34
$GPRMC,110757.000,A,4719.1026,N,00130.4977,W,1.08,217.46,251217,,,A*75
$GPGGA,110758.000,4719.1029,N,00130.4978,W,1,09,1.1,0.6,M,48.5,M,,0000*43
$GPGSA,M,3,09,06,23,02,07,03,19,30,17,,,,1.9,1.1,1.6*34
$GPRMC,110758.000,A,4719.1029,N,00130.4978,W,1.49,319.90,251217,,,A*7B
$GPGGA,110759.000,4719.1031,N,00130.4977,W,1,09,1.1,0.9,M,48.5,M,,0000*4B
$GPGSA,M,3,09,06,23,02,07,03,19,30,17,,,,1.9,1.1,1.6*34
$GPGSV,3,1,12,09,88,144,24,06,65,265,21,23,52,059,21,02,36,305,16*7E
arfcn: 1017 bsic: 14 rxLev: -104 ber: 9.02 mcc: 208 mnc: 20 lac: 420 cellId: 22632 cellStatus: CELL_OTHER numArfcn: 3 arfcn: 976 1011 1017 numChannels: 16 array: 787 790 792 879 977 979 981 982 983 984 1011 1014 1015 1017 1018 1021
arfcn: 516 rxLev: -104
arfcn: 608 rxLev: -104
$GPGSV,3,2,12,07,28,161,27,03,21,099,17,19,16,228,19,30,07,179,21*74
arfcn: 607 rxLev: -105
arfcn: 988 rxLev: -105
$GPGSV,3,3,12,17,05,212,18,22,03,104,04,37,28,150,,04,13,316,*7B
arfcn: 50 rxLev: -105
arfcn: 51 rxLev: -105
$GPRMC,110759.000,A,4719.1031,N,00130.4977,W,1.13,319.90,251217,,,A*73
arfcn: 21 rxLev: -105
arfcn: 113 rxLev: -105
arfcn: 88 rxLev: -105
$GPGGA,110800.000,4719.1033,N,00130.4976,W,1,09,1.1,1.3,M,48.5,M,,0000*40
arfcn: 884 rxLev: -105
$GPGSA,M,3,09,06,23,02,07,03,19,30,17,,,,1.9,1.1,1.6*34
arfcn: 1019 rxLev: -105
arfcn: 604 rxLev: -106
$GPRMC,110800.000,A,4719.1033,N,00130.4976,W,1.09,319.90,251217,,,A*78
arfcn: 1011 rxLev: -106
arfcn: 87 rxLev: -106
arfcn: 84 rxLev: -106
arfcn: 20 rxLev: -106
arfcn: 23 rxLev: -106
arfcn: 17 rxLev: -106
arfcn: 85 rxLev: -106
$GPGGA,110801.000,4719.1033,N,00130.4977,W,1,09,1.1,1.8,M,48.5,M,,0000*4B
arfcn: 116 rxLev: -106
arfcn: 1016 rxLev: -106
$GPGSA,M,3,09,06,23,02,07,03,19,30,17,,,,1.9,1.1,1.6*34
arfcn: 793 rxLev: -106
arfcn: 605 rxLev: -106
$GPRMC,110801.000,A,4719.1033,N,00130.4977,W,0.63,319.90,251217,,,A*75
arfcn: 666 rxLev: -107
arfcn: 669 rxLev: -107
arfcn: 861 rxLev: -107
arfcn: 665 rxLev: -107
arfcn: 1013 rxLev: -107
arfcn: 546 rxLev: -107
arfcn: 1010 rxLev: -107
arfcn: 111 rxLev: -107
$GPGGA,110802.000,4719.1034,N,00130.4980,W,1,08,1.2,2.0,M,48.5,M,,0000*4E
arfcn: 25 rxLev: -107
arfcn: 0 rxLev: -107
$GPGSA,M,3,09,06,23,02,07,03,19,17,,,,,2.0,1.2,1.6*3E
arfcn: 22 rxLev: -108
arfcn: 112 rxLev: -108
$GPRMC,110802.000,A,4719.1034,N,00130.4980,W,0.36,319.90,251217,,,A*79
arfcn: 1023 rxLev: -108
arfcn: 1018 rxLev: -108
arfcn: 611 rxLev: -108
arfcn: 725 rxLev: -108
arfcn: 791 rxLev: -108
Network survey ended
Survey end at #CCLK: "17/12/25,12:08:02+04"
Survey duration: 68 seconds, 15 bases detected over 192 freqs scanned.
$GPGGA,110803.000,4719.1036,N,00130.4982,W,1,08,1.2,2.1,M,48.5,M,,0000*4E
$GPGSA,M,3,09,06,23,02,07,03,19,17,,,,,2.0,1.2,1.6*3E
$GPRMC,110803.000,A,4719.1036,N,00130.4982,W,0.36,319.90,251217,,,A*78
$GPGGA,110804.000,4719.1037,N,00130.4982,W,1,06,1.3,2.0,M,48.5,M,,0000*46
$GPGSA,M,3,09,06,02,07,03,17,,,,,,,2.1,1.3,1.6*37
$GPGSV,3,1,12,09,88,144,18,06,65,265,22,02,36,305,21,07,28,161,25*73
$GPGSV,3,2,12,03,21,099,16,17,05,212,17,19,16,228,08,22,03,104,04*75
$GPGSV,3,3,12,23,52,059,15,30,07,179,04,37,28,150,,04,13,316,*73
$GPRMC,110804.000,A,4719.1037,N,00130.4982,W,0.01,319.90,251217,,,A*7A
Survey start at #CCLK: "17/12/25,12:08:04+04"
$GPGGA,110805.000,4719.1039,N,00130.4985,W,1,07,1.2,1.9,M,48.5,M,,0000*44
$GPGSA,M,3,09,06,23,02,07,03,17,,,,,,2.0,1.2,1.6*36
at#csurv
Network survey started ...
$GPRMC,110805.000,A,4719.1039,N,00130.4985,W,0.35,319.90,251217,,,A*75
$GPGGA,110806.000,4719.1038,N,00130.4986,W,1,07,1.2,1.9,M,48.5,M,,0000*45
$GPGSA,M,3,09,06,23,02,07,03,17,,,,,,2.0,1.2,1.6*36
$GPRMC,110806.000,A,4719.1038,N,00130.4986,W,0.30,319.90,251217,,,A*71
$GPGGA,110807.000,4719.1036,N,00130.4990,W,1,07,1.2,1.9,M,48.5,M,,0000*4D
$GPGSA,M,3,09,06,23,02,07,03,17,,,,,,2.0,1.2,1.6*36
$GPRMC,110807.000,A,4719.1036,N,00130.4990,W,0.66,319.90,251217,,,A*7A
$GPGGA,110808.000,4719.1037,N,00130.4993,W,1,07,1.2,2.0,M,48.5,M,,0000*4A
$GPGSA,M,3,09,06,23,02,07,03,17,,,,,,2.0,1.2,1.6*36
$GPRMC,110808.000,A,4719.1037,N,00130.4993,W,0.42,319.90,251217,,,A*71
$GPGGA,110809.000,4719.1038,N,00130.4994,W,1,07,1.2,1.9,M,48.5,M,,0000*49
$GPGSA,M,3,09,06,23,02,07,03,17,,,,,,2.0,1.2,1.6*36
$GPGSV,3,1,12,09,88,144,18,06,65,265,21,23,52,059,14,02,36,305,18*79
$GPGSV,3,2,12,07,28,161,25,03,21,099,15,17,05,212,17,22,03,104,04*75
$GPGSV,3,3,12,30,07,179,04,36,26,138,,19,16,228,,04,13,316,*7B
$GPRMC,110809.000,A,4719.1038,N,00130.4994,W,0.35,319.90,251217,,,A*78
$GPGGA,110810.000,4719.1040,N,00130.4997,W,1,07,1.2,2.1,M,48.5,M,,0000*46
$GPGSA,M,3,09,06,23,02,07,03,17,,,,,,2.0,1.2,1.6*36
$GPRMC,110810.000,A,4719.1040,N,00130.4997,W,0.56,319.90,251217,,,A*79
$GPGGA,110811.000,4719.1041,N,00130.5001,W,1,07,1.2,2.1,M,48.5,M,,0000*41
$GPGSA,M,3,09,06,23,02,07,03,17,,,,,,2.0,1.2,1.6*36
$GPRMC,110811.000,A,4719.1041,N,00130.5001,W,0.67,319.90,251217,,,A*7C
$GPGGA,110812.000,4719.1044,N,00130.5002,W,1,07,1.2,2.1,M,48.5,M,,0000*44
$GPGSA,M,3,09,06,23,02,07,03,17,,,,,,2.0,1.2,1.6*36
$GPRMC,110812.000,A,4719.1044,N,00130.5002,W,0.70,319.90,251217,,,A*7F
$GPGGA,110813.000,4719.1047,N,00130.5003,W,1,07,1.2,2.0,M,48.5,M,,0000*46
$GPGSA,M,3,09,06,23,02,07,03,17,,,,,,2.0,1.2,1.6*36
$GPRMC,110813.000,A,4719.1047,N,00130.5003,W,0.81,319.90,251217,,,A*72
$GPGGA,110814.000,4719.1051,N,00130.5004,W,1,07,1.2,1.9,M,48.5,M,,0000*4B
$GPGSA,M,3,09,06,23,02,07,03,17,,,,,,2.0,1.2,1.6*36
$GPGSV,3,1,12,09,88,129,17,06,65,264,20,23,52,059,11,02,36,305,17*77
$GPGSV,3,2,12,07,29,161,25,03,21,099,14,17,05,212,16,30,08,179,04*76
$GPGSV,3,3,12,36,26,138,,19,16,227,,04,13,316,,26,04,045,*7A
$GPRMC,110814.000,A,4719.1051,N,00130.5004,W,0.78,319.90,251217,,,A*73
$GPGGA,110815.000,4719.1054,N,00130.5004,W,1,07,1.2,1.7,M,48.5,M,,0000*41
$GPGSA,M,3,09,06,23,02,07,03,17,,,,,,2.0,1.2,1.6*36
$GPRMC,110815.000,A,4719.1054,N,00130.5004,W,0.61,319.90,251217,,,A*7F
$GPGGA,110816.000,4719.1058,N,00130.5002,W,1,07,1.2,1.5,M,48.5,M,,0000*4A
$GPGSA,M,3,09,06,23,02,07,03,17,,,,,,2.0,1.2,1.6*36
$GPRMC,110816.000,A,4719.1058,N,00130.5002,W,0.65,319.90,251217,,,A*72
$GPGGA,110817.000,4719.1062,N,00130.4999,W,1,07,1.3,1.7,M,48.5,M,,0000*4B
$GPGSA,M,3,09,06,02,07,03,30,17,,,,,,2.0,1.3,1.6*35
$GPRMC,110817.000,A,4719.1062,N,00130.4999,W,0.96,319.90,251217,,,A*7C
$GPGGA,110818.000,4719.1063,N,00130.4999,W,1,07,1.3,1.8,M,48.5,M,,0000*4A
$GPGSA,M,3,09,06,02,07,03,30,17,,,,,,2.0,1.3,1.6*35
$GPRMC,110818.000,A,4719.1063,N,00130.4999,W,0.78,319.90,251217,,,A*72
$GPGGA,110819.000,4719.1063,N,00130.5001,W,1,07,1.3,2.0,M,48.5,M,,0000*49
$GPGSA,M,3,09,06,02,07,03,30,17,,,,,,2.0,1.3,1.6*35
$GPGSV,3,1,12,09,88,129,16,06,65,264,16,02,36,305,16,07,29,161,25*75
$GPGSV,3,2,12,03,21,099,13,30,08,179,11,17,05,212,16,36,26,138,*73
$GPGSV,3,3,12,23,52,059,,19,16,227,,04,13,316,,26,04,045,*7B
$GPRMC,110819.000,A,4719.1063,N,00130.5001,W,0.29,319.90,251217,,,A*7E
$GPGGA,110820.000,4719.1065,N,00130.5002,W,1,07,1.3,2.1,M,48.5,M,,0000*47
$GPGSA,M,3,09,06,02,07,03,30,17,,,,,,2.0,1.3,1.6*35
$GPRMC,110820.000,A,4719.1065,N,00130.5002,W,0.20,319.90,251217,,,A*78
arfcn: 983 bsic: 12 rxLev: -90 ber: 0.00 mcc: 208 mnc: 20 lac: 60 cellId: 21709 cellStatus: CELL_SUITABLE numArfcn: 2 arfcn: 983 1022 numChannels: 18 array: 788 791 876 880 884 975 977 978 980 981 982 985 1012 1014 1015 1016 1017 1018 pbcch: 0 nom: 2 rac: 7 spgc: 0 pat: 6 nco: 0 t3168: 1500 t3192: 500 drxmax: 0 ctrlAck: 0 bsCVmax: 8 alpha: 6 pcMeasCh: 1 
arfcn: 67 rxLev: -93
arfcn: 124 rxLev: -93
arfcn: 981 rxLev: -93
arfcn: 123 rxLev: -94
$GPGGA,110821.000,4719.1069,N,00130.5000,W,1,07,1.3,2.5,M,48.5,M,,0000*4C
arfcn: 977 rxLev: -95
$GPGSA,M,3,09,06,02,07,03,30,17,,,,,,2.0,1.3,1.6*35
arfcn: 66 rxLev: -95
arfcn: 68 rxLev: -96
$GPRMC,110821.000,A,4719.1069,N,00130.5000,W,0.65,319.90,251217,,,A*76
arfcn: 978 bsic: 40 rxLev: -96 ber: 5.03 mcc: 208 mnc: 20 lac: 420 cellId: 38409 cellStatus: CELL_SUITABLE numArfcn: 5 arfcn: 874 876 978 987 1020 numChannels: 24 array: 975 976 977 978 980 981 982 983 985 1011 1012 1014 1015 1016 1017 1019 1021 1022 791 792 880 881 884 885 pbcch: 0 nom: 2 rac: 7 spgc: 0 pat: 6 nco: 0 t3168: 1500 t3192: 500 drxmax: 0 ctrlAck: 0 bsCVmax: 8 alpha: 6 pcMeasCh: 1 
arfcn: 63 rxLev: -96
arfcn: 73 rxLev: -97
arfcn: 75 rxLev: -97
arfcn: 975 rxLev: -97
$GPGGA,110822.000,4719.1072,N,00130.4998,W,1,06,1.3,2.6,M,48.5,M,,0000*4E
$GPGSA,M,3,09,06,02,07,03,17,,,,,,,2.1,1.3,1.6*37
$GPRMC,110822.000,A,4719.1072,N,00130.4998,W,0.88,319.90,251217,,,A*75
$GPGGA,110823.000,4719.1071,N,00130.5000,W,1,05,1.5,3.0,M,48.5,M,,0000*47
$GPGSA,M,3,09,06,02,03,17,,,,,,,,2.1,1.5,1.5*35
arfcn: 5 bsic: 32 rxLev: -97 ber: 3.03 mcc: FFF mnc: FF lac: 65535 cellId: 0 cellStatus: CELL_OTHER numArfcn: 0 arfcn: numChannels: 0 array:
arfcn: 8 rxLev: -98
$GPRMC,110823.000,A,4719.1071,N,00130.5000,W,0.52,319.90,251217,,,A*79
arfcn: 121 rxLev: -98
arfcn: 1000 rxLev: -98
arfcn: 1002 rxLev: -98
arfcn: 1003 rxLev: -98
arfcn: 1004 rxLev: -98
arfcn: 1005 rxLev: -98
arfcn: 1006 rxLev: -98
$GPGGA,110824.000,4719.1070,N,00130.5002,W,1,05,2.5,3.2,M,48.5,M,,0000*42
$GPGSA,M,3,09,06,02,07,17,,,,,,,,3.2,2.5,2.1*37
$GPGSV,3,1,12,09,88,129,16,06,65,264,17,02,36,305,15,07,29,161,24*76
$GPGSV,3,2,12,17,05,212,16,30,08,179,04,36,26,138,,23,52,059,*7F
$GPGSV,3,3,12,03,21,099,,19,16,227,,04,13,316,,26,04,045,*71
$GPRMC,110824.000,A,4719.1070,N,00130.5002,W,0.23,319.90,251217,,,A*7B
$GPGGA,110825.000,4719.1068,N,00130.5002,W,1,05,2.5,3.3,M,48.5,M,,0000*4B
$GPGSA,M,3,09,06,02,07,17,,,,,,,,3.2,2.5,2.1*37
$GPRMC,110825.000,A,4719.1068,N,00130.5002,W,0.28,319.90,251217,,,A*78
$GPGGA,110826.000,4719.1068,N,00130.5001,W,1,05,2.5,3.4,M,48.5,M,,0000*4C
$GPGSA,M,3,09,06,02,07,17,,,,,,,,3.2,2.5,2.1*37
$GPRMC,110826.000,A,4719.1068,N,00130.5001,W,0.11,319.90,251217,,,A*72
$GPGGA,110827.000,4719.1065,N,00130.5006,W,1,05,2.5,3.5,M,48.5,M,,0000*46
$GPGSA,M,3,09,06,02,07,17,,,,,,,,3.2,2.5,2.1*37
$GPRMC,110827.000,A,4719.1065,N,00130.5006,W,0.59,319.90,251217,,,A*75
$GPGGA,110828.000,4719.1067,N,00130.5006,W,1,05,2.5,3.6,M,48.5,M,,0000*48
$GPGSA,M,3,09,06,02,07,17,,,,,,,,3.2,2.5,2.1*37
$GPRMC,110828.000,A,4719.1067,N,00130.5006,W,0.34,319.90,251217,,,A*73
$GPGGA,110829.000,4719.1070,N,00130.5007,W,1,05,2.5,3.7,M,48.5,M,,0000*4F
$GPGSA,M,3,09,06,02,07,17,,,,,,,,3.2,2.5,2.1*37
$GPGSV,3,1,12,09,88,129,15,06,65,264,17,02,36,305,16,07,29,161,25*77
$GPGSV,3,2,12,17,05,212,16,36,26,138,,23,52,059,,03,21,099,*7F
$GPGSV,3,3,12,19,16,227,,04,13,316,,30,08,179,,26,04,045,*75
arfcn: 980 bsic: 17 rxLev: -98 ber: 1.07 mcc: 208 mnc: 20 lac: 420 cellId: 20175 cellStatus: CELL_SUITABLE numArfcn: 3 arfcn: 976 980 988 numChannels: 17 array: 876 975 976 977 978 980 983 985 1012 1013 1014 1015 1016 1017 1018 1019 1022 pbcch: 0 nom: 2 rac: 7 spgc: 0 pat: 6 nco: 0 t3168: 1500 t3192: 500 drxmax: 0 ctrlAck: 0 bsCVmax: 8 alpha: 6 pcMeasCh: 1 
arfcn: 120 rxLev: -98
arfcn: 64 rxLev: -99
$GPRMC,110829.000,A,4719.1070,N,00130.5007,W,0.49,319.90,251217,,,A*7F
arfcn: 60 rxLev: -99
arfcn: 1007 rxLev: -99
arfcn: 1001 rxLev: -99
$GPGGA,110830.000,4719.1069,N,00130.5008,W,1,05,2.5,3.7,M,48.5,M,,0000*40
arfcn: 609 rxLev: -99
$GPGSA,M,3,09,06,02,07,17,,,,,,,,3.2,2.5,2.1*37
arfcn: 998 rxLev: -99
$GPRMC,110830.000,A,4719.1069,N,00130.5008,W,0.11,319.90,251217,,,A*7D
arfcn: 999 rxLev: -99
arfcn: 997 rxLev: -99
arfcn: 984 rxLev: -99
arfcn: 61 rxLev: -99
arfcn: 62 rxLev: -99
arfcn: 74 rxLev: -99
arfcn: 122 rxLev: -99
arfcn: 976 rxLev: -99
$GPGGA,110831.000,4719.1071,N,00130.5010,W,1,05,2.5,3.8,M,48.5,M,,0000*4E
arfcn: 119 rxLev: -100
arfcn: 78 rxLev: -100
$GPGSA,M,3,09,06,02,07,17,,,,,,,,3.2,2.5,2.1*37
arfcn: 65 rxLev: -100
$GPRMC,110831.000,A,4719.1071,N,00130.5010,W,0.20,319.90,251217,,,A*7E
arfcn: 58 rxLev: -100
arfcn: 55 rxLev: -100
arfcn: 990 rxLev: -100
arfcn: 991 rxLev: -100
arfcn: 992 rxLev: -100
arfcn: 1008 rxLev: -100
arfcn: 996 rxLev: -100
arfcn: 994 rxLev: -100
arfcn: 995 rxLev: -100
$GPGGA,110832.000,4719.1072,N,00130.5011,W,1,05,2.5,3.8,M,48.5,M,,0000*4F
arfcn: 993 rxLev: -100
$GPGSA,M,3,09,06,02,07,17,,,,,,,,3.2,2.5,2.1*37
arfcn: 982 rxLev: -100
arfcn: 59 rxLev: -100
$GPRMC,110832.000,A,4719.1072,N,00130.5011,W,0.23,319.90,251217,,,A*7C
arfcn: 4 rxLev: -100
arfcn: 69 rxLev: -100
arfcn: 76 rxLev: -100
arfcn: 77 rxLev: -100
arfcn: 72 rxLev: -101
arfcn: 70 rxLev: -101
arfcn: 71 rxLev: -101
$GPGGA,110833.000,4719.1073,N,00130.5011,W,1,05,2.5,3.9,M,48.5,M,,0000*4E
$GPGSA,M,3,09,06,02,07,17,,,,,,,,3.2,2.5,2.1*37
$GPRMC,110833.000,A,4719.1073,N,00130.5011,W,0.29,319.90,251217,,,A*76
$GPGGA,110834.000,4719.1076,N,00130.5011,W,1,05,2.5,3.9,M,48.5,M,,0000*4C
$GPGSA,M,3,09,06,02,07,17,,,,,,,,3.2,2.5,2.1*37
$GPGSV,3,1,12,09,88,129,15,06,65,264,19,02,36,305,16,07,29,161,25*79
$GPGSV,3,2,12,17,05,212,15,23,52,059,11,36,26,138,,03,21,099,*7C
arfcn: 15 bsic: 29 rxLev: -101 ber: 4.10 mcc: FFF mnc: FF lac: 65535 cellId: 0 cellStatus: CELL_OTHER numArfcn: 0 arfcn: numChannels: 0 array:
$GPGSV,3,3,12,19,16,227,,04,13,316,,30,08,179,,26,04,045,*75
arfcn: 18 rxLev: -101
arfcn: 56 rxLev: -101
$GPRMC,110834.000,A,4719.1076,N,00130.5011,W,0.43,319.90,251217,,,A*78
arfcn: 57 rxLev: -101
arfcn: 54 rxLev: -101
arfcn: 729 rxLev: -101
arfcn: 52 rxLev: -101
$GPGGA,110835.000,4719.1076,N,00130.5010,W,1,05,2.5,4.0,M,48.5,M,,0000*42
arfcn: 53 rxLev: -101
$GPGSA,M,3,09,06,02,07,17,,,,,,,,3.2,2.5,2.1*37
arfcn: 35 rxLev: -101
arfcn: 36 rxLev: -101
$GPRMC,110835.000,A,4719.1076,N,00130.5010,W,0.27,319.90,251217,,,A*7A
arfcn: 37 rxLev: -101
arfcn: 39 rxLev: -101
arfcn: 9 rxLev: -101
arfcn: 7 rxLev: -101
arfcn: 19 rxLev: -102
arfcn: 34 rxLev: -102
arfcn: 33 rxLev: -102
arfcn: 40 rxLev: -102
$GPGGA,110836.000,4719.1076,N,00130.5008,W,1,05,2.5,4.0,M,48.5,M,,0000*48
arfcn: 41 rxLev: -102
$GPGSA,M,3,09,06,02,07,17,,,,,,,,3.2,2.5,2.1*37
arfcn: 43 rxLev: -102
arfcn: 44 rxLev: -102
$GPRMC,110836.000,A,4719.1076,N,00130.5008,W,0.43,319.90,251217,,,A*72
arfcn: 45 rxLev: -102
arfcn: 79 rxLev: -102
arfcn: 92 rxLev: -102
arfcn: 94 rxLev: -102
arfcn: 95 rxLev: -102
arfcn: 118 rxLev: -102
$GPGGA,110837.000,4719.1078,N,00130.5000,W,1,05,2.5,4.0,M,48.5,M,,0000*4F
arfcn: 96 rxLev: -102
$GPGSA,M,3,09,06,02,07,17,,,,,,,,3.2,2.5,2.1*37
arfcn: 97 rxLev: -102
arfcn: 93 rxLev: -102
$GPRMC,110837.000,A,4719.1078,N,00130.5000,W,0.99,319.90,251217,,,A*72
arfcn: 82 rxLev: -102
arfcn: 42 rxLev: -102
arfcn: 32 rxLev: -102
arfcn: 38 rxLev: -102
arfcn: 51 rxLev: -102
arfcn: 29 rxLev: -102
arfcn: 12 rxLev: -102
arfcn: 1022 rxLev: -102
$GPGGA,110838.000,4719.1079,N,00130.4992,W,1,06,1.5,4.1,M,48.5,M,,0000*43
arfcn: 985 rxLev: -102
arfcn: 979 rxLev: -102
$GPGSA,M,3,09,06,23,02,07,17,,,,,,,2.5,1.5,2.0*32
arfcn: 849 rxLev: -102
arfcn: 13 rxLev: -103
$GPRMC,110838.000,A,4719.1079,N,00130.4992,W,1.42,42.15,251217,,,A*48
arfcn: 14 rxLev: -103
arfcn: 10 rxLev: -103
arfcn: 6 rxLev: -103
arfcn: 28 rxLev: -103
arfcn: 30 rxLev: -103
arfcn: 31 rxLev: -103
arfcn: 91 rxLev: -103
$GPGGA,110839.000,4719.1080,N,00130.4988,W,1,06,1.5,4.1,M,48.5,M,,0000*4F
arfcn: 98 rxLev: -103
$GPGSA,M,3,09,06,23,02,07,17,,,,,,,2.5,1.5,2.0*32
arfcn: 114 rxLev: -103
arfcn: 115 rxLev: -103
$GPGSV,3,1,12,09,88,129,15,06,65,264,20,23,52,059,11,02,36,305,16*74
arfcn: 117 rxLev: -103
arfcn: 27 rxLev: -103
$GPGSV,3,2,12,07,29,161,25,17,05,212,15,49,35,171,,03,21,099,*7C
arfcn: 3 rxLev: -103
arfcn: 50 rxLev: -103
$GPGSV,3,3,12,19,16,227,,04,13,316,,30,08,179,,26,04,045,*75
arfcn: 49 rxLev: -103
$GPRMC,110839.000,A,4719.1080,N,00130.4988,W,1.28,51.20,251217,,,A*4C
arfcn: 46 rxLev: -103
arfcn: 987 rxLev: -103
arfcn: 989 rxLev: -103
$GPGGA,110840.000,4719.1082,N,00130.4988,W,1,06,1.5,4.2,M,48.5,M,,0000*40
arfcn: 1021 rxLev: -103
$GPGSA,M,3,09,06,23,02,07,17,,,,,,,2.5,1.5,2.0*32
arfcn: 605 rxLev: -104
arfcn: 606 rxLev: -104
$GPRMC,110840.000,A,4719.1082,N,00130.4988,W,1.10,51.20,251217,,,A*4B
arfcn: 1009 rxLev: -104
arfcn: 47 rxLev: -104
arfcn: 48 rxLev: -104
arfcn: 1 rxLev: -104
arfcn: 24 rxLev: -104
arfcn: 17 rxLev: -104
arfcn: 99 rxLev: -104
$GPGGA,110841.000,4719.1085,N,00130.4980,W,1,06,1.5,4.2,M,48.5,M,,0000*4E
arfcn: 100 rxLev: -104
$GPGSA,M,3,09,06,23,02,07,17,,,,,,,2.5,1.5,2.0*32
arfcn: 90 rxLev: -104
arfcn: 88 rxLev: -104
$GPRMC,110841.000,A,4719.1085,N,00130.4980,W,1.70,52.15,251217,,,A*46
arfcn: 89 rxLev: -104
arfcn: 83 rxLev: -104
arfcn: 80 rxLev: -104
arfcn: 81 rxLev: -104
arfcn: 84 rxLev: -104
arfcn: 87 rxLev: -104
arfcn: 116 rxLev: -104
arfcn: 22 rxLev: -104
arfcn: 986 rxLev: -104
$GPGGA,110842.000,4719.1084,N,00130.4978,W,1,06,1.5,4.2,M,48.5,M,,0000*4B
arfcn: 604 rxLev: -104
$GPGSA,M,3,09,06,23,02,07,17,,,,,,,2.5,1.5,2.0*32
arfcn: 607 rxLev: -104
arfcn: 611 rxLev: -104
$GPRMC,110842.000,A,4719.1084,N,00130.4978,W,1.30,55.27,251217,,,A*41
arfcn: 666 rxLev: -104
arfcn: 1015 rxLev: -104
arfcn: 1017 rxLev: -105
arfcn: 988 rxLev: -105
arfcn: 20 rxLev: -105
arfcn: 11 rxLev: -105
arfcn: 113 rxLev: -105
arfcn: 101 rxLev: -105
$GPGGA,110843.000,4719.1085,N,00130.4978,W,1,06,1.5,4.2,M,48.5,M,,0000*4B
Survey end at #CCLK: "17/12/25,12:08:42+04"
Survey duration: 38 seconds, 5 bases detected over 153 freqs scanned.
$GPGSA,M,3,09,06,23,02,07,17,,,,,,,2.5,1.5,2.0*32
$GPRMC,110843.000,A,4719.1085,N,00130.4978,W,0.98,55.27,251217,,,A*42
$GPGGA,110844.000,4719.1086,N,00130.4978,W,1,06,1.5,4.3,M,48.5,M,,0000*4E
$GPGSA,M,3,09,06,23,02,07,17,,,,,,,2.5,1.5,2.0*32
$GPGSV,3,1,12,09,88,129,15,06,65,264,20,23,52,059,13,02,36,305,16*76
$GPGSV,3,2,12,07,29,161,24,17,05,212,15,49,35,171,,03,21,099,*7D
$GPGSV,3,3,12,19,16,227,,04,13,316,,30,08,179,,26,04,045,*75
$GPRMC,110844.000,A,4719.1086,N,00130.4978,W,0.99,55.27,251217,,,A*47
Survey start at #CCLK: "17/12/25,12:08:44+04"
at#csurv
Network survey started ...
$GPGGA,110845.000,4719.1086,N,00130.4980,W,1,06,1.5,4.4,M,48.5,M,,0000*4F
Survey end at #CCLK: "17/12/25,12:08:44+04"
Survey duration: 0 seconds, 0 bases detected over 0 freqs scanned.
$GPGSA,M,3,09,06,23,02,07,17,,,,,,,2.5,1.5,2.0*32
$GPRMC,110845.000,A,4719.1086,N,00130.4980,W,0.77,55.27,251217,,,A*41
$GPGGA,110846.000,4719.1090,N,00130.4975,W,1,06,1.5,4.5,M,48.5,M,,0000*40
$GPGSA,M,3,09,06,23,02,07,17,,,,,,,2.5,1.5,2.0*32
$GPRMC,110846.000,A,4719.1090,N,00130.4975,W,1.39,53.14,251217,,,A*42
Survey start at #CCLK: "17/12/25,12:08:46+04"
at#csurv
Network survey started ...
$GPGGA,110847.000,4719.1092,N,00130.4971,W,1,06,1.5,4.5,M,48.5,M,,0000*47
$GPGSA,M,3,09,06,23,02,07,17,,,,,,,2.5,1.5,2.0*32
$GPRMC,110847.000,A,4719.1092,N,00130.4971,W,1.85,51.56,251217,,,A*46
$GPGGA,110848.000,4719.1091,N,00130.4968,W,1,06,1.5,4.6,M,48.5,M,,0000*40
$GPGSA,M,3,09,06,23,02,07,17,,,,,,,2.5,1.5,2.0*32
$GPRMC,110848.000,A,4719.1091,N,00130.4968,W,1.85,53.97,251217,,,A*4D
$GPGGA,110849.000,4719.1089,N,00130.4965,W,1,06,1.5,4.7,M,48.5,M,,0000*44
$GPGSA,M,3,09,06,23,02,07,17,,,,,,,2.5,1.5,2.0*32
$GPGSV,3,1,12,09,88,129,14,06,65,264,20,23,52,059,19,02,36,305,15*7E
$GPGSV,3,2,12,07,29,161,24,17,05,212,15,49,35,171,,03,21,099,*7D
$GPGSV,3,3,12,19,16,227,,04,13,316,,30,08,179,,26,04,045,*75
$GPRMC,110849.000,A,4719.1089,N,00130.4965,W,1.63,58.47,251217,,,A*46
$GPGGA,110850.000,4719.1087,N,00130.4966,W,1,06,1.5,4.7,M,48.5,M,,0000*41
$GPGSA,M,3,09,06,23,02,07,17,,,,,,,2.5,1.5,2.0*32
$GPRMC,110850.000,A,4719.1087,N,00130.4966,W,1.08,58.47,251217,,,A*4E
$GPGGA,110851.000,4719.1084,N,00130.4967,W,1,06,1.5,4.8,M,48.5,M,,0000*4D
$GPGSA,M,3,09,06,23,02,07,17,,,,,,,2.5,1.5,2.0*32
$GPRMC,110851.000,A,4719.1084,N,00130.4967,W,0.60,58.47,251217,,,A*42
$GPGGA,110852.000,4719.1082,N,00130.4972,W,1,05,1.7,4.8,M,48.5,M,,0000*4D
$GPGSA,M,3,09,06,23,02,17,,,,,,,,2.4,1.7,1.7*32
$GPRMC,110852.000,A,4719.1082,N,00130.4972,W,0.24,58.47,251217,,,A*43
$GPGGA,110853.000,4719.1077,N,00130.4976,W,1,06,1.5,4.8,M,48.5,M,,0000*43
$GPGSA,M,3,09,06,23,02,07,17,,,,,,,2.5,1.5,2.0*32
$GPRMC,110853.000,A,4719.1077,N,00130.4976,W,0.50,58.47,251217,,,A*4F
$GPGGA,110854.000,4719.1077,N,00130.4982,W,1,06,1.5,4.9,M,48.5,M,,0000*4E
$GPGSA,M,3,09,06,23,02,07,17,,,,,,,2.5,1.5,2.0*32
$GPGSV,3,1,12,09,88,129,13,06,65,264,21,23,52,059,18,02,36,305,15*79
$GPGSV,3,2,12,07,29,161,25,17,05,212,16,49,35,171,,03,21,099,*7F
arfcn: 67 rxLev: -92
$GPGSV,3,3,12,19,16,227,,04,13,316,,30,08,179,,26,04,045,*75
$GPRMC,110854.000,A,4719.1077,N,00130.4982,W,0.58,58.47,251217,,,A*4B
$GPGGA,110855.000,4719.1076,N,00130.4987,W,1,06,1.5,4.9,M,48.5,M,,0000*4B
$GPGSA,M,3,09,06,23,02,07,17,,,,,,,2.5,1.5,2.0*32
$GPRMC,110855.000,A,4719.1076,N,00130.4987,W,0.46,58.47,251217,,,A*41
$GPGGA,110856.000,4719.1073,N,00130.4994,W,1,06,1.5,4.9,M,48.5,M,,0000*4F
$GPGSA,M,3,09,06,23,02,07,17,,,,,,,2.5,1.5,2.0*32
$GPRMC,110856.000,A,4719.1073,N,00130.4994,W,0.88,58.47,251217,,,A*47
$GPGGA,110857.000,4719.1072,N,00130.5002,W,1,06,1.5,5.0,M,48.5,M,,0000*40
$GPGSA,M,3,09,06,23,02,07,17,,,,,,,2.5,1.5,2.0*32
$GPRMC,110857.000,A,4719.1072,N,00130.5002,W,0.96,58.47,251217,,,A*4F
$GPGGA,110858.000,4719.1070,N,00130.5005,W,1,06,1.5,5.0,M,48.5,M,,0000*4A
$GPGSA,M,3,09,06,23,02,07,17,,,,,,,2.5,1.5,2.0*32
$GPRMC,110858.000,A,4719.1070,N,00130.5005,W,0.51,58.47,251217,,,A*4E
arfcn: 983 bsic: 12 rxLev: -92 ber: 0.01 mcc: 208 mnc: 20 lac: 60 cellId: 21709 cellStatus: CELL_SUITABLE numArfcn: 2 arfcn: 983 1022 numChannels: 18 array: 788 791 876 880 884 975 977 978 980 981 982 985 1012 1014 1015 1016 1017 1018 pbcch: 0 nom: 2 rac: 7 spgc: 0 pat: 6 nco: 0 t3168: 1500 t3192: 500 drxmax: 0 ctrlAck: 0 bsCVmax: 8 alpha: 6 pcMeasCh: 1 
arfcn: 124 rxLev: -92
$GPGGA,110859.000,4719.1070,N,00130.5010,W,1,06,1.5,5.0,M,48.5,M,,0000*4F
$GPGSA,M,3,09,06,23,02,07,17,,,,,,,2.5,1.5,2.0*32
$GPGSV,3,1,12,09,88,129,13,06,65,264,21,23,52,059,18,02,36,305,14*78
$GPGSV,3,2,12,07,29,161,24,17,05,212,17,49,35,171,,03,21,099,*7F
$GPGSV,3,3,12,19,16,227,,04,13,316,,30,08,179,,26,04,045,*75
$GPRMC,110859.000,A,4719.1070,N,00130.5010,W,0.46,58.47,251217,,,A*4D
$GPGGA,110900.000,4719.1068,N,00130.5015,W,1,06,1.5,5.0,M,48.5,M,,0000*4E
$GPGSA,M,3,09,06,23,02,07,17,,,,,,,2.5,1.5,2.0*32
$GPRMC,110900.000,A,4719.1068,N,00130.5015,W,0.54,58.47,251217,,,A*4F
$GPGGA,110901.000,4719.1066,N,00130.5019,W,1,06,1.5,5.0,M,48.5,M,,0000*4D
$GPGSA,M,3,09,06,23,02,07,17,,,,,,,2.5,1.5,2.0*32
$GPRMC,110901.000,A,4719.1066,N,00130.5019,W,0.41,58.47,251217,,,A*48
arfcn: 5 bsic: 32 rxLev: -94 ber: 1.08 mcc: 208 mnc: 01 lac: 6404 cellId: 23196 cellStatus: CELL_FORBIDDEN numArfcn: 13 arfcn: 5 17 18 19 20 21 22 23 24 25 47 48 49 numChannels: 18 array: 1 2 3 4 7 8 9 10 11 12 13 14 15 16 513 604 606 608 pbcch: 0 nom: 2 rac: 1 spgc: 0 pat: 6 nco: 0 t3168: 1000 t3192: 500 drxmax: 2 ctrlAck: 0 bsCVmax: 9 alpha: 5 pcMeasCh: 1 
arfcn: 978 bsic: 40 rxLev: -94 ber: 1.08 mcc: 208 mnc: 20 lac: 420 cellId: 38409 cellStatus: CELL_SUITABLE numArfcn: 5 arfcn: 874 876 978 987 1020 numChannels: 24 array: 975 976 977 978 980 981 982 983 985 1011 1012 1014 1015 1016 1017 1019 1021 1022 791 792 880 881 884 885 pbcch: 0 nom: 2 rac: 7 spgc: 0 pat: 6 nco: 0 t3168: 1500 t3192: 500 drxmax: 0 ctrlAck: 0 bsCVmax: 8 alpha: 6 pcMeasCh: 1 
$GPGGA,110902.000,4719.1064,N,00130.5019,W,1,06,1.5,5.1,M,48.5,M,,0000*4D
$GPGSA,M,3,09,06,23,02,07,17,,,,,,,2.5,1.5,2.0*32
$GPRMC,110902.000,A,4719.1064,N,00130.5019,W,0.07,58.47,251217,,,A*4B
$GPGGA,110903.000,4719.1059,N,00130.5020,W,1,06,1.5,5.1,M,48.5,M,,0000*48
$GPGSA,M,3,09,06,23,02,07,17,,,,,,,2.5,1.5,2.0*32
$GPRMC,110903.000,A,4719.1059,N,00130.5020,W,0.45,58.47,251217,,,A*48
arfcn: 981 bsic: 38 rxLev: -95 ber: 0.04 mcc: 208 mnc: 20 lac: 60 cellId: 20259 cellStatus: CELL_SUITABLE numArfcn: 1 arfcn: 981 numChannels: 19 array: 787 788 791 793 877 880 882 884 975 977 978 982 983 985 1011 1012 1013 1015 1016 pbcch: 0 nom: 2 rac: 1 spgc: 0 pat: 6 nco: 0 t3168: 1500 t3192: 500 drxmax: 0 ctrlAck: 0 bsCVmax: 8 alpha: 6 pcMeasCh: 1 
arfcn: 123 rxLev: -95
$GPGGA,110904.000,4719.1054,N,00130.5025,W,1,06,1.5,5.2,M,48.5,M,,0000*44
arfcn: 977 rxLev: -95
$GPGSA,M,3,09,06,23,02,07,17,,,,,,,2.5,1.5,2.0*32
arfcn: 66 rxLev: -95
$GPGSV,3,1,12,09,88,129,13,06,65,264,22,23,52,059,18,02,36,305,14*7B
arfcn: 975 rxLev: -96
$GPGSV,3,2,12,07,29,161,24,17,05,212,16,49,35,171,,03,21,099,*7E
arfcn: 63 rxLev: -96
$GPGSV,3,3,12,19,16,227,,04,13,316,,30,08,179,,26,04,045,*75
$GPRMC,110904.000,A,4719.1054,N,00130.5025,W,1.09,58.47,251217,,,A*4E
$GPGGA,110905.000,4719.1052,N,00130.5028,W,1,06,1.5,5.2,M,48.5,M,,0000*4E
$GPGSA,M,3,09,06,23,02,07,17,,,,,,,2.5,1.5,2.0*32
$GPRMC,110905.000,A,4719.1052,N,00130.5028,W,0.84,58.47,251217,,,A*40
$GPGGA,110906.000,4719.1049,N,00130.5030,W,1,06,1.5,5.3,M,48.5,M,,0000*4F
$GPGSA,M,3,09,06,23,02,07,17,,,,,,,2.5,1.5,2.0*32
$GPRMC,110906.000,A,4719.1049,N,00130.5030,W,0.67,58.47,251217,,,A*4D
Survey end at #CCLK: "17/12/25,12:09:05+04"
Survey duration: 19 seconds, 4 bases detected over 11 freqs scanned.
$GPGGA,110907.000,4719.1047,N,00130.5030,W,1,06,1.5,5.3,M,48.5,M,,0000*40
$GPGSA,M,3,09,06,23,02,07,17,,,,,,,2.5,1.5,2.0*32
$GPRMC,110907.000,A,4719.1047,N,00130.5030,W,0.35,58.47,251217,,,A*45
$GPGGA,110908.000,4719.1047,N,00130.5027,W,1,06,1.5,5.4,M,48.5,M,,0000*4E
Survey start at #CCLK: "17/12/25,12:09:07+04"
at#csurv
Network survey started ...
Survey end at #CCLK: "17/12/25,12:09:07+04"
Survey duration: 0 seconds, 0 bases detected over 0 freqs scanned.
$GPGSA,M,3,09,06,23,02,07,17,,,,,,,2.5,1.5,2.0*32
$GPRMC,110908.000,A,4719.1047,N,00130.5027,W,0.36,58.47,251217,,,A*4F
$GPGGA,110909.000,4719.1050,N,00130.5023,W,1,05,1.9,5.3,M,48.5,M,,0000*45
$GPGSA,M,3,09,06,23,07,17,,,,,,,,2.7,1.9,1.9*34
$GPGSV,3,1,12,09,88,129,13,06,65,264,22,23,52,059,18,07,29,161,23*74
$GPGSV,3,2,12,17,05,212,16,02,36,305,08,33,33,198,,03,21,099,*77
$GPGSV,3,3,12,19,16,227,,04,13,316,,30,08,179,,26,04,045,*75
$GPRMC,110909.000,A,4719.1050,N,00130.5023,W,0.97,58.47,251217,,,A*47
Survey start at #CCLK: "17/12/25,12:09:09+04"
at#csurv
$GPGGA,110910.000,4719.1046,N,00130.5023,W,1,06,1.5,5.3,M,48.5,M,,0000*45
Network survey started ...
$GPGSA,M,3,09,06,23,02,07,17,,,,,,,2.5,1.5,2.0*32
$GPRMC,110910.000,A,4719.1046,N,00130.5023,W,0.62,58.47,251217,,,A*42
$GPGGA,110911.000,4719.1044,N,00130.5023,W,1,06,1.5,5.4,M,48.5,M,,0000*41
$GPGSA,M,3,09,06,23,02,07,17,,,,,,,2.5,1.5,2.0*32
$GPRMC,110911.000,A,4719.1044,N,00130.5023,W,0.87,58.47,251217,,,A*4A
$GPGGA,110912.000,4719.1042,N,00130.5023,W,1,06,1.5,5.5,M,48.5,M,,0000*45
$GPGSA,M,3,09,06,23,02,07,17,,,,,,,2.5,1.5,2.0*32
$GPRMC,110912.000,A,4719.1042,N,00130.5023,W,1.15,58.47,251217,,,A*45
Survey end at #CCLK: "17/12/25,12:09:12+04"
Survey duration: 2 seconds, 0 bases detected over 0 freqs scanned.
$GPGGA,110913.000,4719.1041,N,00130.5022,W,1,06,1.5,5.6,M,48.5,M,,0000*45
$GPGSA,M,3,09,06,23,02,07,17,,,,,,,2.5,1.5,2.0*32
$GPRMC,110913.000,A,4719.1041,N,00130.5022,W,1.00,58.47,251217,,,A*42
$GPGGA,110914.000,4719.1039,N,00130.5019,W,1,06,1.5,5.6,M,48.5,M,,0000*45
$GPGSA,M,3,09,06,23,02,07,17,,,,,,,2.5,1.5,2.0*32
$GPGSV,3,1,12,09,88,129,16,06,65,264,23,23,52,059,19,02,36,305,14*7E
$GPGSV,3,2,12,07,29,161,23,17,05,212,16,33,33,198,,03,21,099,*75
Survey start at #CCLK: "17/12/25,12:09:13+04"
at#csurv
Network survey started ...
Survey end at #CCLK: "17/12/25,12:09:13+04"
Survey duration: 0 seconds, 0 bases detected over 0 freqs scanned.
$GPGSV,3,3,12,19,16,227,,04,13,316,,30,08,179,,26,04,045,*75
$GPRMC,110914.000,A,4719.1039,N,00130.5019,W,1.18,77.32,251217,,,A*44
$GPGGA,110915.000,4719.1038,N,00130.5017,W,1,06,1.5,5.6,M,48.5,M,,0000*4B
$GPGSA,M,3,09,06,23,02,07,17,,,,,,,2.5,1.5,2.0*32
$GPRMC,110915.000,A,4719.1038,N,00130.5017,W,0.81,77.32,251217,,,A*4B
$GPGGA,110916.000,4719.1038,N,00130.5021,W,1,06,1.5,5.6,M,48.5,M,,0000*4D
$GPGSA,M,3,09,06,23,02,07,17,,,,,,,2.5,1.5,2.0*32
Survey start at #CCLK: "17/12/25,12:09:15+04"
at#csurv
Network survey started ...
Survey end at #CCLK: "17/12/25,12:09:15+04"
Survey duration: 0 seconds, 0 bases detected over 0 freqs scanned.
$GPRMC,110916.000,A,4719.1038,N,00130.5021,W,0.39,77.32,251217,,,A*4E
$GPGGA,110917.000,4719.1035,N,00130.5025,W,1,06,1.5,5.7,M,48.5,M,,0000*44
$GPGSA,M,3,09,06,23,02,07,17,,,,,,,2.5,1.5,2.0*32
$GPRMC,110917.000,A,4719.1035,N,00130.5025,W,0.37,77.32,251217,,,A*48
$GPGGA,110918.000,4719.1033,N,00130.5029,W,1,06,1.5,5.7,M,48.5,M,,0000*41
$GPGSA,M,3,09,06,23,02,07,17,,,,,,,2.5,1.5,2.0*32
$GPRMC,110918.000,A,4719.1033,N,00130.5029,W,0.42,77.32,251217,,,A*4F
Survey start at #CCLK: "17/12/25,12:09:17+04"
at#csurv
Network survey started ...
Survey end at #CCLK: "17/12/25,12:09:17+04"
Survey duration: 0 seconds, 0 bases detected over 0 freqs scanned.
$GPGGA,110919.000,4719.1031,N,00130.5026,W,1,07,1.5,5.9,M,48.5,M,,0000*42
$GPGSA,M,3,09,06,23,02,07,30,17,,,,,,2.4,1.5,1.9*3A
$GPGSV,3,1,12,09,88,129,18,06,65,264,20,23,52,059,23,02,36,305,21*7C
$GPGSV,3,2,12,07,29,161,23,30,08,179,26,17,05,212,15,33,33,198,*76
$GPGSV,3,3,12,03,21,099,,19,16,227,,04,13,316,,26,04,045,*71
$GPRMC,110919.000,A,4719.1031,N,00130.5026,W,0.27,77.32,251217,,,A*40
$GPGGA,110920.000,4719.1028,N,00130.5027,W,1,07,1.5,5.9,M,48.5,M,,0000*41
$GPGSA,M,3,09,06,23,02,07,30,17,,,,,,2.4,1.5,1.9*3A
$GPRMC,110920.000,A,4719.1028,N,00130.5027,W,0.71,77.32,251217,,,A*40
Survey start at #CCLK: "17/12/25,12:09:20+04"
at#csurv
Network survey started ...
Survey end at #CCLK: "17/12/25,12:09:20+04"
Survey duration: 0 seconds, 0 bases detected over 0 freqs scanned.
$GPGGA,110921.000,4719.1024,N,00130.5024,W,1,07,1.5,6.0,M,48.5,M,,0000*45
$GPGSA,M,3,09,06,23,02,07,30,17,,,,,,2.4,1.5,1.9*3A
$GPRMC,110921.000,A,4719.1024,N,00130.5024,W,0.63,77.32,251217,,,A*4D
$GPGGA,110922.000,4719.1020,N,00130.5024,W,1,07,1.5,6.0,M,48.5,M,,0000*42
$GPGSA,M,3,09,06,23,02,07,30,17,,,,,,2.4,1.5,1.9*3A
$GPRMC,110922.000,A,4719.1020,N,00130.5024,W,0.85,77.32,251217,,,A*42
Survey start at #CCLK: "17/12/25,12:09:22+04"
at#csurv
Network survey started ...
$GPGGA,110923.000,4719.1017,N,00130.5025,W,1,07,1.5,6.1,M,48.5,M,,0000*47
Survey end at #CCLK: "17/12/25,12:09:22+04"
Survey duration: 0 seconds, 0 bases detected over 0 freqs scanned.
$GPGSA,M,3,09,06,23,02,07,30,17,,,,,,2.4,1.5,1.9*3A
$GPRMC,110923.000,A,4719.1017,N,00130.5025,W,0.80,77.32,251217,,,A*43
$GPGGA,110924.000,4719.1013,N,00130.5030,W,1,07,1.5,6.2,M,48.5,M,,0000*43
$GPGSA,M,3,09,06,23,02,07,30,17,,,,,,2.4,1.5,1.9*3A
$GPGSV,3,1,12,09,88,129,21,06,65,264,19,23,52,059,16,02,36,305,15*7D
$GPGSV,3,2,12,07,29,161,29,30,08,179,18,17,05,212,15,33,33,198,*71
$GPGSV,3,3,12,03,21,099,,19,16,227,,04,13,316,,26,04,045,*71
$GPRMC,110924.000,A,4719.1013,N,00130.5030,W,1.19,137.64,251217,,,A*73
$GPGGA,110925.000,4719.1010,N,00130.5036,W,1,06,2.1,6.3,M,48.5,M,,0000*40
$GPGSA,M,3,09,06,23,07,30,17,,,,,,,3.2,2.1,2.4*36
Survey start at #CCLK: "17/12/25,12:09:24+04"
at#csurv
Network survey started ...
$GPRMC,110925.000,A,4719.1010,N,00130.5036,W,1.23,162.82,251217,,,A*76
$GPGGA,110926.000,4719.1007,N,00130.5041,W,1,07,1.9,6.4,M,48.5,M,,0000*48
$GPGSA,M,3,09,06,23,07,19,30,17,,,,,,3.0,1.9,2.3*30
$GPRMC,110926.000,A,4719.1007,N,00130.5041,W,1.31,176.56,251217,,,A*7C
$GPGGA,110927.000,4719.1005,N,00130.5046,W,1,07,1.9,6.5,M,48.5,M,,0000*4D
$GPGSA,M,3,09,06,23,07,19,30,17,,,,,,3.0,1.9,2.3*30
$GPRMC,110927.000,A,4719.1005,N,00130.5046,W,1.24,194.24,251217,,,A*75
$GPGGA,110928.000,4719.1003,N,00130.5047,W,1,07,1.9,6.6,M,48.5,M,,0000*46
$GPGSA,M,3,09,06,23,07,19,30,17,,,,,,3.0,1.9,2.3*30
$GPRMC,110928.000,A,4719.1003,N,00130.5047,W,1.00,194.24,251217,,,A*7B
$GPGGA,110929.000,4719.1000,N,00130.5050,W,1,07,1.9,6.6,M,48.5,M,,0000*42
$GPGSA,M,3,09,06,23,07,19,30,17,,,,,,3.0,1.9,2.3*30
$GPGSV,3,1,12,09,88,129,14,06,65,264,19,23,52,059,18,07,29,161,29*71
$GPGSV,3,2,12,19,16,227,18,30,08,179,17,17,05,212,15,02,36,305,04*7B
$GPGSV,3,3,12,03,21,099,15,33,33,198,,04,13,316,,26,04,045,*7D
$GPRMC,110929.000,A,4719.1000,N,00130.5050,W,1.15,194.24,251217,,,A*7B
arfcn: 978 bsic: 40 rxLev: -86 ber: 0.00 mcc: 208 mnc: 20 lac: 420 cellId: 38409 cellStatus: CELL_SUITABLE numArfcn: 5 arfcn: 874 876 978 987 1020 numChannels: 24 array: 975 976 977 978 980 981 982 983 985 1011 1012 1014 1015 1016 1017 1019 1021 1022 791 792 880 881 884 885 pbcch: 0 nom: 2 rac: 7 spgc: 0 pat: 6 nco: 0 t3168: 1500 t3192: 500 drxmax: 0 ctrlAck: 0 bsCVmax: 8 alpha: 6 pcMeasCh: 1 
$GPGGA,110930.000,4719.0998,N,00130.5050,W,1,08,1.7,6.6,M,48.5,M,,0000*42
$GPGSA,M,3,09,06,23,07,03,19,30,17,,,,,2.6,1.7,1.9*33
$GPRMC,110930.000,A,4719.0998,N,00130.5050,W,1.09,194.24,251217,,,A*77
$GPGGA,110931.000,4719.0998,N,00130.5048,W,1,08,1.7,6.6,M,48.5,M,,0000*4A
$GPGSA,M,3,09,06,23,07,03,19,30,17,,,,,2.6,1.7,1.9*33
$GPRMC,110931.000,A,4719.0998,N,00130.5048,W,0.72,194.24,251217,,,A*72
$GPGGA,110932.000,4719.0998,N,00130.5047,W,1,07,1.8,6.6,M,48.5,M,,0000*46
$GPGSA,M,3,09,06,23,07,03,19,30,,,,,,2.8,1.8,2.1*3F
$GPRMC,110932.000,A,4719.0998,N,00130.5047,W,0.50,194.24,251217,,,A*7E
$GPGGA,110933.000,4719.0997,N,00130.5048,W,1,07,1.8,6.6,M,48.5,M,,0000*47
$GPGSA,M,3,09,06,23,07,03,19,30,,,,,,2.8,1.8,2.1*3F
$GPRMC,110933.000,A,4719.0997,N,00130.5048,W,0.56,194.24,251217,,,A*79
arfcn: 114 bsic: 58 rxLev: -90 ber: 0.00 mcc: 208 mnc: 10 lac: 49409 cellId: 34486 cellStatus: CELL_FORBIDDEN numArfcn: 3 arfcn: 77 88 114 numChannels: 13 array: 76 78 79 80 82 83 84 86 114 115 120 123 612 pbcch: 0 nom: 2 rac: 30 spgc: 0 pat: 6 nco: 0 t3168: 1000 t3192: 500 drxmax: 4 ctrlAck: 1 bsCVmax: 9 alpha: 10 pcMeasCh: 0 
arfcn: 67 rxLev: -91
$GPGGA,110934.000,4719.0996,N,00130.5043,W,1,08,1.2,6.6,M,48.5,M,,0000*4F
$GPGSA,M,3,09,06,23,02,07,03,19,30,,,,,2.0,1.2,1.7*3A
$GPGSV,3,1,12,09,88,129,15,06,65,264,18,23,52,059,23,02,36,305,08*71
$GPGSV,3,2,12,07,29,161,29,03,21,099,16,19,16,227,18,30,08,179,17*7E
$GPGSV,3,3,12,17,05,212,14,33,33,198,,04,13,316,,26,04,045,*7E
$GPRMC,110934.000,A,4719.0996,N,00130.5043,W,0.29,194.24,251217,,,A*7C
$GPGGA,110935.000,4719.0997,N,00130.5042,W,1,08,1.2,6.6,M,48.5,M,,0000*4E
$GPGSA,M,3,09,06,23,02,07,03,19,30,,,,,2.0,1.2,1.7*3A
$GPRMC,110935.000,A,4719.0997,N,00130.5042,W,0.38,194.24,251217,,,A*7D
$GPGGA,110936.000,4719.0998,N,00130.5040,W,1,07,1.8,6.6,M,48.5,M,,0000*45
$GPGSA,M,3,09,06,23,07,03,19,30,,,,,,2.8,1.8,2.1*3F
$GPRMC,110936.000,A,4719.0998,N,00130.5040,W,0.66,194.24,251217,,,A*78
$GPGGA,110937.000,4719.1000,N,00130.5041,W,1,07,1.8,6.6,M,48.5,M,,0000*4C
$GPGSA,M,3,09,06,23,07,03,19,30,,,,,,2.8,1.8,2.1*3F
$GPRMC,110937.000,A,4719.1000,N,00130.5041,W,1.10,194.24,251217,,,A*71
$GPGGA,110938.000,4719.1003,N,00130.5040,W,1,07,1.8,6.6,M,48.5,M,,0000*41
$GPGSA,M,3,09,06,23,07,03,19,30,,,,,,2.8,1.8,2.1*3F
$GPRMC,110938.000,A,4719.1003,N,00130.5040,W,0.91,194.24,251217,,,A*74
$GPGGA,110939.000,4719.1006,N,00130.5033,W,1,08,1.2,6.7,M,48.5,M,,0000*45
$GPGSA,M,3,09,06,23,02,07,03,19,30,,,,,2.0,1.2,1.7*3A
$GPGSV,3,1,12,09,88,129,25,06,65,264,22,23,52,059,15,02,36,305,08*7E
$GPGSV,3,2,12,07,29,161,39,03,21,099,15,19,16,227,28,30,08,179,29*72
$GPGSV,3,3,12,17,05,212,14,37,28,150,,04,13,316,,26,04,045,*74
$GPRMC,110939.000,A,4719.1006,N,00130.5033,W,0.88,194.24,251217,,,A*7C
$GPGGA,110940.000,4719.1006,N,00130.5020,W,1,08,1.2,6.6,M,48.5,M,,0000*48
$GPGSA,M,3,09,06,23,02,07,03,19,30,,,,,2.0,1.2,1.7*3A
$GPRMC,110940.000,A,4719.1006,N,00130.5020,W,1.01,194.24,251217,,,A*70
$GPGGA,110941.000,4719.1008,N,00130.5008,W,1,08,1.2,6.6,M,48.5,M,,0000*4D
$GPGSA,M,3,09,06,23,02,07,03,19,30,,,,,2.0,1.2,1.7*3A
$GPRMC,110941.000,A,4719.1008,N,00130.5008,W,1.48,127.23,251217,,,A*77
$GPGGA,110942.000,4719.1009,N,00130.5003,W,1,07,1.2,6.6,M,48.5,M,,0000*4B
$GPGSA,M,3,09,06,23,02,07,03,19,,,,,,2.1,1.2,1.7*38
$GPRMC,110942.000,A,4719.1009,N,00130.5003,W,1.37,105.93,251217,,,A*7D
$GPGGA,110943.000,4719.1010,N,00130.4996,W,1,08,1.2,6.6,M,48.5,M,,0000*49
$GPGSA,M,3,09,06,23,02,07,03,19,30,,,,,2.0,1.2,1.7*3A
$GPRMC,110943.000,A,4719.1010,N,00130.4996,W,1.30,91.93,251217,,,A*4B
arfcn: 983 bsic: 12 rxLev: -91 ber: 0.00 mcc: 208 mnc: 20 lac: 60 cellId: 21709 cellStatus: CELL_SUITABLE numArfcn: 2 arfcn: 983 1022 numChannels: 18 array: 788 791 876 880 884 975 977 978 980 981 982 985 1012 1014 1015 1016 1017 1018 pbcch: 0 nom: 2 rac: 7 spgc: 0 pat: 6 nco: 0 t3168: 1500 t3192: 500 drxmax: 0 ctrlAck: 0 bsCVmax: 8 alpha: 6 pcMeasCh: 1 
$GPGGA,110944.000,4719.1012,N,00130.4991,W,1,08,1.2,6.6,M,48.5,M,,0000*4B
$GPGSA,M,3,09,06,23,02,07,03,19,30,,,,,2.0,1.2,1.7*3A
$GPGSV,3,1,12,09,88,129,23,06,65,264,20,23,52,059,17,02,36,305,13*72
$GPGSV,3,2,12,07,29,161,26,03,21,099,17,19,16,227,24,30,08,179,21*7A
$GPGSV,3,3,12,17,05,212,20,37,28,150,,04,13,316,,26,04,045,*73
$GPRMC,110944.000,A,4719.1012,N,00130.4991,W,1.02,91.93,251217,,,A*48
$GPGGA,110945.000,4719.1012,N,00130.4988,W,1,08,1.2,6.6,M,48.5,M,,0000*42
$GPGSA,M,3,09,06,23,02,07,03,19,30,,,,,2.0,1.2,1.7*3A
