Survey start at #CCLK: "17/12/30,08:08:32+04"
at#csurv
Network survey started ...
$GPGGA,070832.183,,,,,0,00,,,M,0.0,M,,0000*52
Survey end at #CCLK: "17/12/30,08:08:32+04"
Survey duration: 0 seconds, 0 bases detected over 0 freqs scanned.
$GPGSA,M,1,,,,,,,,,,,,,,,*12
$GPRMC,070832.183,V,,,,,,,301217,,,N*4F
$GPGGA,070833.184,,,,,0,00,,,M,0.0,M,,0000*54
$GPGSA,M,1,,,,,,,,,,,,,,,*12
$GPRMC,070833.184,V,,,,,,,301217,,,N*49
Survey start at #CCLK: "17/12/30,08:08:34+04"
at#csurv
Network survey started ...
$GPGGA,070834.179,,,,,0,00,,,M,0.0,M,,0000*51
$GPGSA,M,1,,,,,,,,,,,,,,,*12
$GPRMC,070834.179,V,,,,,,,301217,,,N*4C
$GPGGA,070835.184,,,,,0,00,,,M,0.0,M,,0000*52
$GPGSA,M,1,,,,,,,,,,,,,,,*12
$GPGSV,3,1,11,01,75,091,36,03,66,217,42,08,12,157,28,11,59,135,34*7A
$GPGSV,3,2,11,14,33,062,35,17,40,304,45,19,20,313,35,22,81,134,32*78
$GPGSV,3,3,11,23,11,175,27,28,23,248,32,32,21,042,23*4F
$GPRMC,070835.184,V,,,,,,,301217,,,N*4F
$GPGGA,070836.184,,,,,0,00,,,M,0.0,M,,0000*51
$GPGSA,M,1,,,,,,,,,,,,,,,*12
$GPRMC,070836.184,V,,,,,,,301217,,,N*4C
$GPGGA,070837.184,,,,,0,00,,,M,0.0,M,,0000*50
$GPGSA,M,1,,,,,,,,,,,,,,,*12
$GPRMC,070837.184,V,,,,,,,301217,,,N*4D
$GPGGA,070838.179,,,,,0,00,,,M,0.0,M,,0000*5D
$GPGSA,M,1,,,,,,,,,,,,,,,*12
$GPRMC,070838.179,V,,,,,,,301217,,,N*40
$GPGGA,070839.184,,,,,0,00,,,M,0.0,M,,0000*5E
$GPGSA,M,1,,,,,,,,,,,,,,,*12
$GPRMC,070839.184,V,,,,,,,301217,,,N*43
$GPGGA,070840.179,,,,,0,00,,,M,0.0,M,,0000*52
$GPGSA,M,1,,,,,,,,,,,,,,,*12
$GPGSV,3,1,11,01,75,091,45,03,66,217,26,08,12,157,32,11,59,135,34*77
arfcn: 124 rxLev: -91
$GPGSV,3,2,11,14,33,062,36,17,40,304,38,19,20,313,31,22,81,134,34*73
arfcn: 975 bsic: 60 rxLev: -92 ber: 0.07 mcc: 208 mnc: 20 lac: 413 cellId: 20247 cellStatus: CELL_SUITABLE numArfcn: 1 arfcn: 975 numChannels: 20 array: 977 978 979 980 981 982 983 984 985 987 1011 1013 1014 1015 1017 1018 1019 1020 1021 1022 pbcch: 0 nom: 2 rac: 1 spgc: 0 pat: 6 nco: 0 t3168: 1500 t3192: 500 drxmax: 0 ctrlAck: 0 bsCVmax: 8 alpha: 6 pcMeasCh: 1 
arfcn: 67 rxLev: -92
$GPGSV,3,3,11,23,11,175,30,28,23,248,32,32,21,042,35*4E
$GPRMC,070840.179,V,,,,,,,301217,,,N*4F
$GPGGA,070841.184,,,,,0,00,,,M,0.0,M,,0000*51
$GPGSA,M,1,,,,,,,,,,,,,,,*12
$GPRMC,070841.184,V,,,,,,,301217,,,N*4C
$GPGGA,070842.184,,,,,0,00,,,M,0.0,M,,0000*52
$GPGSA,M,1,,,,,,,,,,,,,,,*12
$GPRMC,070842.184,V,,,,,,,301217,,,N*4F
arfcn: 81 bsic: 11 rxLev: -94 ber: 0.04 mcc: 208 mnc: 10 lac: 6001 cellId: 49645 cellStatus: CELL_FORBIDDEN numArfcn: 2 arfcn: 81 83 numChannels: 17 array: 77 78 79 80 82 83 85 86 87 113 114 115 117 118 120 122 124 pbcch: 0 nom: 2 rac: 61 spgc: 0 pat: 6 nco: 0 t3168: 1000 t3192: 500 drxmax: 2 ctrlAck: 0 bsCVmax: 9 alpha: 7 pcMeasCh: 1 
$GPGGA,070843.184,,,,,0,00,,,M,0.0,M,,0000*53
$GPGSA,M,1,,,,,,,,,,,,,,,*12
$GPRMC,070843.184,V,,,,,,,301217,,,N*4E
$GPGGA,070844.184,,,,,0,00,,,M,0.0,M,,0000*54
$GPGSA,M,1,,,,,,,,,,,,,,,*12
arfcn: 82 bsic: 4 rxLev: -94 ber: 0.00 mcc: 208 mnc: 10 lac: 6001 cellId: 13590 cellStatus: CELL_FORBIDDEN numArfcn: 3 arfcn: 78 80 82 numChannels: 13 array: 77 79 81 83 85 86 87 113 115 117 118 119 124 pbcch: 0 nom: 2 rac: 61 spgc: 0 pat: 6 nco: 0 t3168: 1000 t3192: 500 drxmax: 2 ctrlAck: 0 bsCVmax: 9 alpha: 7 pcMeasCh: 1 
$GPRMC,070844.184,V,,,,,,,301217,,,N*49
$GPGGA,070845.184,,,,,0,00,,,M,0.0,M,,0000*55
$GPGSA,M,1,,,,,,,,,,,,,,,*12
$GPGSV,3,1,11,01,75,091,46,03,66,217,36,08,12,157,31,11,59,135,40*75
$GPGSV,3,2,11,14,33,062,36,17,40,304,37,19,20,313,31,22,81,134,36*7E
$GPGSV,3,3,11,23,11,175,33,28,23,248,29,32,21,042,28*4B
$GPRMC,070845.184,V,,,,,,,301217,,,N*48
$GPGGA,070846.179,,,,,0,00,,,M,0.0,M,,0000*54
$GPGSA,M,1,,,,,,,,,,,,,,,*12
$GPRMC,070846.179,V,,,,,,,301217,,,N*49
$GPGGA,070847.184,,,,,0,00,,,M,0.0,M,,0000*57
$GPGSA,M,1,,,,,,,,,,,,,,,*12
$GPRMC,070847.184,V,,,,,,,301217,,,N*4A
arfcn: 115 bsic: 8 rxLev: -94 ber: 0.04 mcc: 208 mnc: 10 lac: 6001 cellId: 30875 cellStatus: CELL_FORBIDDEN numArfcn: 2 arfcn: 111 115 numChannels: 16 array: 77 78 79 80 81 82 83 85 87 113 114 117 118 120 122 124 pbcch: 0 nom: 2 rac: 61 spgc: 0 pat: 6 nco: 0 t3168: 1000 t3192: 500 drxmax: 2 ctrlAck: 0 bsCVmax: 9 alpha: 7 pcMeasCh: 1 
$GPGGA,070848.184,,,,,0,00,,,M,0.0,M,,0000*58
$GPGSA,M,1,,,,,,,,,,,,,,,*12
$GPRMC,070848.184,V,,,,,,,301217,,,N*45
$GPGGA,070849.184,,,,,0,00,,,M,0.0,M,,0000*59
$GPGSA,M,1,,,,,,,,,,,,,,,*12
$GPRMC,070849.184,V,,,,,,,301217,,,N*44
arfcn: 5 bsic: 43 rxLev: -94 ber: 0.00 mcc: 208 mnc: 01 lac: 10300 cellId: 57179 cellStatus: CELL_FORBIDDEN numArfcn: 13 arfcn: 5 17 18 19 20 21 22 23 24 25 47 48 49 numChannels: 14 array: 1 2 3 4 5 6 7 8 9 11 12 13 14 15 pbcch: 0 nom: 2 rac: 1 spgc: 1 pat: 6 nco: 0 t3168: 1000 t3192: 500 drxmax: 4 ctrlAck: 1 bsCVmax: 9 alpha: 7 pcMeasCh: 0 
arfcn: 66 rxLev: -95
arfcn: 79 rxLev: -95
arfcn: 68 rxLev: -95
arfcn: 63 rxLev: -95
arfcn: 977 rxLev: -96
arfcn: 123 rxLev: -97
$GPGGA,070850.179,,,,,0,00,,,M,0.0,M,,0000*53
arfcn: 122 rxLev: -97
$GPGSA,M,1,,,,,,,,,,,,,,,*12
arfcn: 80 rxLev: -97
arfcn: 13 rxLev: -97
$GPGSV,3,1,11,01,75,091,46,08,12,157,34,11,59,135,40,14,33,062,35*75
arfcn: 983 rxLev: -97
$GPGSV,3,2,11,17,40,304,38,19,20,313,32,22,81,134,36,23,11,175,34*73
$GPGSV,3,3,11,28,23,248,30,32,21,042,31,03,66,217,*4E
$GPRMC,070850.179,V,,,,,,,301217,,,N*4E
$GPGGA,070851.179,,,,,0,00,,,M,0.0,M,,0000*52
$GPGSA,M,1,,,,,,,,,,,,,,,*12
$GPRMC,070851.179,V,,,,,,,301217,,,N*4F
$GPGGA,070852.179,,,,,0,00,,,M,0.0,M,,0000*51
$GPGSA,M,1,,,,,,,,,,,,,,,*12
$GPRMC,070852.179,V,,,,,,,301217,,,N*4C
$GPGGA,070853.179,,,,,0,00,,,M,0.0,M,,0000*50
$GPGSA,M,1,,,,,,,,,,,,,,,*12
$GPRMC,070853.179,V,,,,,,,301217,,,N*4D
arfcn: 1017 bsic: 9 rxLev: -97 ber: 0.00 mcc: 208 mnc: 20 lac: 284 cellId: 22570 cellStatus: CELL_SUITABLE numArfcn: 1 arfcn: 1017 numChannels: 20 array: 787 789 881 885 975 978 980 981 982 983 985 987 1011 1014 1015 1016 1018 1020 1021 1022 pbcch: 0 nom: 2 rac: 6 spgc: 0 pat: 6 nco: 0 t3168: 1500 t3192: 500 drxmax: 0 ctrlAck: 0 bsCVmax: 8 alpha: 6 pcMeasCh: 1 
arfcn: 73 rxLev: -98
arfcn: 120 rxLev: -98
$GPGGA,070854.184,,,,,0,04,8.1,,M,0.0,M,,0000*76
arfcn: 976 rxLev: -98
$GPGSA,M,1,,,,,,,,,,,,,,,*12
$GPRMC,070854.184,V,,,,,,,301217,,,N*48
$GPGGA,070855.179,,,,,0,04,2.9,,M,0.0,M,,0000*77
$GPGSA,M,1,,,,,,,,,,,,,,,*12
$GPGSV,3,1,12,01,79,065,46,11,67,141,40,28,19,257,31,23,16,182,35*7C
$GPGSV,3,2,12,03,66,241,28,08,18,164,34,14,35,060,41,17,33,310,45*75
$GPGSV,3,3,12,19,14,318,34,22,89,118,36,32,21,043,30,33,33,198,*70
$GPRMC,070855.179,V,,,,,,,301217,,,N*4B
$GPGGA,070856.179,,,,,0,04,2.9,,M,0.0,M,,0000*74
$GPGSA,M,1,,,,,,,,,,,,,,,*12
$GPRMC,070856.179,V,,,,,,,301217,,,N*48
$GPGGA,070857.000,,,,,0,04,2.9,,M,0.0,M,,0000*7A
$GPGSA,M,1,,,,,,,,,,,,,,,*12
$GPRMC,070857.000,V,,,,,,,301217,,,N*46
$GPGGA,070858.000,4758.3814,N,00124.1265,W,1,04,2.9,150.1,M,48.1,M,,0000*4C
$GPGSA,M,3,01,11,28,23,,,,,,,,,4.2,2.9,3.0*3A
arfcn: 1022 bsic: 45 rxLev: -98 ber: 0.01 mcc: 208 mnc: 20 lac: 284 cellId: 38538 cellStatus: CELL_SUITABLE numArfcn: 1 arfcn: 1022 numChannels: 23 array: 788 876 881 884 975 976 979 980 981 982 984 986 987 1011 1012 1013 1014 1015 1017 1018 1020 1021 1022 pbcch: 0 nom: 2 rac: 6 spgc: 0 pat: 6 nco: 0 t3168: 1500 t3192: 500 drxmax: 0 ctrlAck: 0 bsCVmax: 8 alpha: 6 pcMeasCh: 1 
$GPRMC,070858.000,A,4758.3814,N,00124.1265,W,23.56,11.16,301217,,,A*7A
arfcn: 982 rxLev: -98
arfcn: 978 rxLev: -99
arfcn: 979 rxLev: -99
arfcn: 121 rxLev: -99
arfcn: 77 rxLev: -99
$GPGGA,070859.000,4758.3878,N,00124.1249,W,1,04,2.9,151.2,M,48.1,M,,0000*4B
$GPGSA,M,3,01,11,28,23,,,,,,,,,4.2,2.9,3.0*3A
$GPRMC,070859.000,A,4758.3878,N,00124.1249,W,24.20,10.57,301217,,,A*7D
$GPGGA,070900.000,4758.4012,N,00124.1019,W,1,04,2.9,100.6,M,48.1,M,,0000*42
$GPGSA,M,3,01,11,28,23,,,,,,,,,4.2,2.9,3.0*3A
$GPGSV,3,1,12,01,79,065,46,11,67,141,40,28,19,257,32,23,16,182,36*7C
$GPGSV,3,2,12,03,66,241,37,08,18,164,32,14,35,060,38,17,33,310,39*78
$GPGSV,3,3,12,19,14,318,29,22,89,115,30,32,20,043,32,33,33,198,29*7F
$GPRMC,070900.000,A,4758.4012,N,00124.1019,W,24.20,9.54,301217,,,A*4F
$GPGGA,070901.000,4758.4088,N,00124.0978,W,1,04,2.9,94.6,M,48.1,M,,0000*73
$GPGSA,M,3,01,11,28,23,,,,,,,,,4.2,2.9,3.0*3A
$GPRMC,070901.000,A,4758.4088,N,00124.0978,W,23.92,7.23,301217,,,A*42
$GPGGA,070902.000,4758.4159,N,00124.0972,W,1,04,2.9,93.4,M,48.1,M,,0000*72
$GPGSA,M,3,01,11,28,23,,,,,,,,,4.2,2.9,3.0*3A
$GPRMC,070902.000,A,4758.4159,N,00124.0972,W,23.60,358.76,301217,,,A*42
$GPGGA,070903.000,4758.4232,N,00124.0976,W,1,04,2.9,90.0,M,48.1,M,,0000*7E
$GPGSA,M,3,01,11,28,23,,,,,,,,,4.2,2.9,3.0*3A
$GPRMC,070903.000,A,4758.4232,N,00124.0976,W,23.64,348.43,301217,,,A*4A
$GPGGA,070904.000,4758.4296,N,00124.1005,W,1,04,2.9,88.5,M,48.1,M,,0000*77
$GPGSA,M,3,01,11,28,23,,,,,,,,,4.2,2.9,3.0*3A
$GPRMC,070904.000,A,4758.4296,N,00124.1005,W,22.84,341.45,301217,,,A*4F
$GPGGA,070905.000,4758.4350,N,00124.1058,W,1,04,2.9,88.7,M,48.1,M,,0000*77
arfcn: 12 bsic: 8 rxLev: -99 ber: 0.00 mcc: 208 mnc: 01 lac: 10300 cellId: 57177 cellStatus: CELL_FORBIDDEN numArfcn: 13 arfcn: 12 17 18 19 20 21 22 23 24 25 47 48 49 numChannels: 15 array: 1 2 3 4 5 6 7 9 10 11 12 13 14 15 519 pbcch: 0 nom: 2 rac: 1 spgc: 1 pat: 6 nco: 0 t3168: 1000 t3192: 500 drxmax: 4 ctrlAck: 1 bsCVmax: 9 alpha: 7 pcMeasCh: 0 
$GPGSA,M,3,01,11,28,23,,,,,,,,,4.2,2.9,3.0*3A
$GPGSV,3,1,12,01,79,065,33,11,67,141,37,28,19,257,32,23,16,182,30*78
$GPGSV,3,2,12,03,66,241,46,08,18,164,32,14,35,060,31,17,33,310,45*7C
$GPGSV,3,3,12,19,14,318,36,22,89,115,32,32,20,043,34,33,33,198,31*7C
$GPRMC,070905.000,A,4758.4350,N,00124.1058,W,23.00,333.13,301217,,,A*46
$GPGGA,070906.000,4758.4399,N,00124.1132,W,1,04,2.9,89.5,M,48.1,M,,0000*7F
$GPGSA,M,3,01,11,28,23,,,,,,,,,4.2,2.9,3.0*3A
$GPRMC,070906.000,A,4758.4399,N,00124.1132,W,24.45,324.83,301217,,,A*44
$GPGGA,070907.000,4758.4460,N,00124.1204,W,1,04,2.9,86.7,M,48.1,M,,0000*74
$GPGSA,M,3,01,11,28,23,,,,,,,,,4.2,2.9,3.0*3A
$GPRMC,070907.000,A,4758.4460,N,00124.1204,W,26.61,318.58,301217,,,A*4F
arfcn: 14 bsic: 40 rxLev: -99 ber: 1.05 mcc: 208 mnc: 01 lac: 10300 cellId: 8418 cellStatus: CELL_FORBIDDEN numArfcn: 13 arfcn: 14 17 18 19 20 21 22 23 24 25 47 48 49 numChannels: 15 array: 1 2 3 4 5 6 7 9 10 11 12 13 14 15 517 pbcch: 0 nom: 2 rac: 1 spgc: 1 pat: 6 nco: 0 t3168: 1000 t3192: 500 drxmax: 4 ctrlAck: 1 bsCVmax: 9 alpha: 7 pcMeasCh: 0 
arfcn: 8 rxLev: -99
$GPGGA,070908.000,4758.4518,N,00124.1292,W,1,04,2.9,85.9,M,48.1,M,,0000*77
$GPGSA,M,3,01,11,28,23,,,,,,,,,4.2,2.9,3.0*3A
$GPRMC,070908.000,A,4758.4518,N,00124.1292,W,27.63,313.80,301217,,,A*4C
$GPGGA,070909.000,4758.4573,N,00124.1384,W,1,04,2.9,85.4,M,48.1,M,,0000*70
$GPGSA,M,3,01,11,28,23,,,,,,,,,4.2,2.9,3.0*3A
$GPRMC,070909.000,A,4758.4573,N,00124.1384,W,28.61,312.72,301217,,,A*47
$GPGGA,070910.000,4758.4628,N,00124.1479,W,1,04,2.9,85.4,M,48.1,M,,0000*70
$GPGSA,M,3,01,11,28,23,,,,,,,,,4.2,2.9,3.0*3A
$GPGSV,3,1,12,01,79,065,39,11,67,141,35,28,19,257,34,23,16,182,36*70
$GPGSV,3,2,12,03,66,241,46,08,18,164,34,14,35,060,40,17,33,310,46*7F
$GPGSV,3,3,12,19,14,318,38,22,89,115,36,32,20,043,29,33,33,198,31*7A
$GPRMC,070910.000,A,4758.4628,N,00124.1479,W,29.90,312.17,301217,,,A*4B
$GPGGA,070911.000,4758.4687,N,00124.1574,W,1,04,2.9,84.8,M,48.1,M,,0000*75
arfcn: 7 bsic: 16 rxLev: -99 ber: 1.03 mcc: 208 mnc: 01 lac: 10300 cellId: 16875 cellStatus: CELL_FORBIDDEN numArfcn: 13 arfcn: 7 17 18 19 20 21 22 23 24 25 47 48 49 numChannels: 14 array: 1 2 3 4 5 6 7 8 9 10 11 12 13 15 pbcch: 0 nom: 2 rac: 1 spgc: 1 pat: 6 nco: 0 t3168: 1000 t3192: 500 drxmax: 4 ctrlAck: 1 bsCVmax: 9 alpha: 7 pcMeasCh: 0 
arfcn: 61 rxLev: -99
$GPGSA,M,3,01,11,28,23,,,,,,,,,4.2,2.9,3.0*3A
arfcn: 74 rxLev: -99
arfcn: 83 rxLev: -99
$GPRMC,070911.000,A,4758.4687,N,00124.1574,W,30.87,311.99,301217,,,A*48
arfcn: 93 rxLev: -99
arfcn: 94 rxLev: -99
arfcn: 95 rxLev: -99
arfcn: 980 rxLev: -99
$GPGGA,070912.000,4758.4746,N,00124.1672,W,1,04,2.9,84.7,M,48.1,M,,0000*70
$GPGSA,M,3,01,11,28,23,,,,,,,,,4.2,2.9,3.0*3A
$GPRMC,070912.000,A,4758.4746,N,00124.1672,W,31.34,312.75,301217,,,A*4A
$GPGGA,070913.000,4758.4807,N,00124.1771,W,1,04,2.9,84.7,M,48.1,M,,0000*79
$GPGSA,M,3,01,11,28,23,,,,,,,,,4.2,2.9,3.0*3A
$GPRMC,070913.000,A,4758.4807,N,00124.1771,W,31.61,312.88,301217,,,A*41
$GPGGA,070914.000,4758.4867,N,00124.1869,W,1,04,2.9,84.9,M,48.1,M,,0000*70
$GPGSA,M,3,01,11,28,23,,,,,,,,,4.2,2.9,3.0*3A
$GPRMC,070914.000,A,4758.4867,N,00124.1869,W,31.65,312.85,301217,,,A*4F
arfcn: 987 bsic: 46 rxLev: -99 ber: 0.00 mcc: 208 mnc: 20 lac: 284 cellId: 22571 cellStatus: CELL_SUITABLE numArfcn: 2 arfcn: 987 1010 numChannels: 24 array: 787 789 792 794 881 885 975 976 977 978 980 981 982 983 987 1013 1014 1015 1016 1017 1018 1020 1021 1022 pbcch: 0 nom: 2 rac: 6 spgc: 0 pat: 6 nco: 0 t3168: 1500 t3192: 500 drxmax: 0 ctrlAck: 0 bsCVmax: 8 alpha: 6 pcMeasCh: 1 
arfcn: 609 rxLev: -99
arfcn: 729 rxLev: -100
arfcn: 993 rxLev: -100
arfcn: 994 rxLev: -100
arfcn: 92 rxLev: -100
arfcn: 76 rxLev: -100
$GPGGA,070915.000,4758.4926,N,00124.1968,W,1,04,2.9,85.4,M,48.1,M,,0000*79
$GPGSA,M,3,01,11,28,23,,,,,,,,,4.2,2.9,3.0*3A
$GPGSV,3,1,12,01,79,065,39,11,67,141,36,28,19,257,33,23,16,182,36*74
$GPGSV,3,2,12,03,66,241,46,08,18,164,35,14,35,060,40,17,33,310,46*7E
$GPGSV,3,3,12,19,14,318,38,22,89,108,36,32,20,043,29,33,33,198,33*74
$GPRMC,070915.000,A,4758.4926,N,00124.1968,W,31.57,313.00,301217,,,A*47
$GPGGA,070916.000,4758.4985,N,00124.2067,W,1,04,2.9,86.2,M,48.1,M,,0000*73
$GPGSA,M,3,01,11,28,23,,,,,,,,,4.2,2.9,3.0*3A
$GPRMC,070916.000,A,4758.4985,N,00124.2067,W,31.65,314.35,301217,,,A*48
arfcn: 78 bsic: 7 rxLev: -100 ber: 14.09 mcc: FFF mnc: FF lac: 65535 cellId: 0 cellStatus: CELL_OTHER numArfcn: 0 arfcn: numChannels: 0 array:
$GPGGA,070917.000,4758.5048,N,00124.2160,W,1,04,2.9,86.7,M,48.1,M,,0000*78
arfcn: 118 rxLev: -100
$GPGSA,M,3,01,11,28,23,,,,,,,,,4.2,2.9,3.0*3A
arfcn: 96 rxLev: -100
arfcn: 62 rxLev: -100
$GPRMC,070917.000,A,4758.5048,N,00124.2160,W,31.70,317.59,301217,,,A*4B
arfcn: 97 rxLev: -100
arfcn: 98 rxLev: -100
arfcn: 75 rxLev: -100
arfcn: 64 rxLev: -100
arfcn: 91 rxLev: -100
arfcn: 1002 rxLev: -100
arfcn: 1004 rxLev: -100
arfcn: 1005 rxLev: -100
$GPGGA,070918.000,4758.5131,N,00124.2239,W,1,06,3.0,83.2,M,48.1,M,,0000*7D
arfcn: 991 rxLev: -100
$GPGSA,M,3,01,11,28,23,22,17,,,,,,,4.6,3.0,3.5*35
arfcn: 981 rxLev: -100
arfcn: 849 rxLev: -100
$GPRMC,070918.000,A,4758.5131,N,00124.2239,W,32.08,320.74,301217,,,A*43
arfcn: 990 rxLev: -101
arfcn: 992 rxLev: -101
arfcn: 1003 rxLev: -101
arfcn: 1006 rxLev: -101
arfcn: 995 rxLev: -101
arfcn: 996 rxLev: -101
arfcn: 1000 rxLev: -101
arfcn: 1001 rxLev: -101
$GPGGA,070919.000,4758.5202,N,00124.2323,W,1,06,3.0,83.4,M,48.1,M,,0000*73
arfcn: 1021 rxLev: -101
$GPGSA,M,3,22,01,11,17,28,23,,,,,,,4.6,3.0,3.5*35
arfcn: 65 rxLev: -101
arfcn: 119 rxLev: -101
$GPRMC,070919.000,A,4758.5202,N,00124.2323,W,32.40,323.42,301217,,,A*41
arfcn: 60 rxLev: -101
arfcn: 58 rxLev: -101
arfcn: 59 rxLev: -101
$GPGGA,070920.000,4758.5274,N,00124.2402,W,1,06,3.0,84.2,M,48.1,M,,0000*7D
$GPGSA,M,3,22,01,11,17,28,23,,,,,,,4.6,3.0,3.5*35
$GPGSV,3,1,12,22,89,105,36,01,79,066,37,11,67,141,25,17,33,310,46*77
$GPGSV,3,2,12,28,19,257,32,23,16,182,30,03,66,241,36,08,18,164,23*74
$GPGSV,3,3,12,14,35,060,37,19,14,318,38,32,20,043,29,33,33,198,31*7A
$GPRMC,070920.000,A,4758.5274,N,00124.2402,W,32.72,325.43,301217,,,A*48
$GPGGA,070921.000,4758.5351,N,00124.2478,W,1,06,3.0,84.3,M,48.1,M,,0000*76
$GPGSA,M,3,22,01,11,17,28,23,,,,,,,4.6,3.0,3.5*35
$GPRMC,070921.000,A,4758.5351,N,00124.2478,W,33.02,326.70,301217,,,A*47
$GPGGA,070922.000,4758.5429,N,00124.2553,W,1,06,3.0,84.8,M,48.1,M,,0000*7E
$GPGSA,M,3,22,01,11,17,28,23,,,,,,,4.6,3.0,3.5*35
$GPRMC,070922.000,A,4758.5429,N,00124.2553,W,33.06,329.74,301217,,,A*4B
arfcn: 4 bsic: 7 rxLev: -101 ber: 18.01 mcc: 208 mnc: 01 lac: 10301 cellId: 8415 cellStatus: CELL_FORBIDDEN numArfcn: 0 arfcn: numChannels: 0 array:
arfcn: 1 rxLev: -101
arfcn: 29 rxLev: -101
arfcn: 33 rxLev: -101
arfcn: 99 rxLev: -101
arfcn: 104 rxLev: -101
arfcn: 105 rxLev: -101
arfcn: 108 rxLev: -101
$GPGGA,070923.000,4758.5509,N,00124.2618,W,1,06,3.0,85.7,M,48.1,M,,0000*7E
arfcn: 70 rxLev: -101
$GPGSA,M,3,22,01,11,17,28,23,,,,,,,4.6,3.0,3.5*35
arfcn: 72 rxLev: -101
arfcn: 90 rxLev: -101
$GPRMC,070923.000,A,4758.5509,N,00124.2618,W,33.04,335.25,301217,,,A*4E
arfcn: 86 rxLev: -101
arfcn: 998 rxLev: -101
arfcn: 999 rxLev: -101
arfcn: 997 rxLev: -101
arfcn: 1007 rxLev: -101
arfcn: 1008 rxLev: -101
$GPGGA,070924.000,4758.5629,N,00124.2574,W,1,07,1.2,73.6,M,48.1,M,,0000*78
$GPGSA,M,3,22,01,11,17,28,23,14,,,,,,2.0,1.2,1.6*31
$GPRMC,070924.000,A,4758.5629,N,00124.2574,W,33.35,341.76,301217,,,A*46
$GPGGA,070925.000,4758.5724,N,00124.2596,W,1,07,1.2,71.9,M,48.1,M,,0000*74
$GPGSA,M,3,22,01,11,14,17,28,23,,,,,,2.0,1.2,1.6*31
$GPGSV,3,1,12,22,89,103,36,01,79,066,37,11,67,141,31,14,35,060,38*7C
$GPGSV,3,2,12,17,33,310,43,28,19,257,37,23,16,182,32,03,66,241,38*7D
$GPGSV,3,3,12,08,18,164,28,19,14,318,36,32,20,043,41,33,33,198,*71
$GPRMC,070925.000,A,4758.5724,N,00124.2596,W,33.87,347.17,301217,,,A*4F
$GPGGA,070926.000,4758.5819,N,00124.2614,W,1,07,1.2,71.2,M,48.1,M,,0000*74
$GPGSA,M,3,22,01,11,14,17,28,23,,,,,,2.0,1.2,1.6*31
$GPRMC,070926.000,A,4758.5819,N,00124.2614,W,34.14,351.93,301217,,,A*42
$GPGGA,070927.000,4758.5914,N,00124.2628,W,1,07,1.2,71.1,M,48.1,M,,0000*75
$GPGSA,M,3,22,01,11,14,17,28,23,,,,,,2.0,1.2,1.6*31
$GPRMC,070927.000,A,4758.5914,N,00124.2628,W,34.44,354.12,301217,,,A*49
arfcn: 87 bsic: 34 rxLev: -102 ber: 0.03 mcc: 208 mnc: 10 lac: 30514 cellId: 20354 cellStatus: CELL_FORBIDDEN numArfcn: 2 arfcn: 84 87 numChannels: 15 array: 77 78 79 80 81 82 83 86 113 114 115 117 120 123 124 pbcch: 0 nom: 2 rac: 1 spgc: 0 pat: 6 nco: 0 t3168: 1500 t3192: 500 drxmax: 0 ctrlAck: 0 bsCVmax: 8 alpha: 6 pcMeasCh: 1 
arfcn: 69 rxLev: -102
arfcn: 107 rxLev: -102
arfcn: 100 rxLev: -102
arfcn: 103 rxLev: -102
$GPGGA,070928.000,4758.6011,N,00124.2634,W,1,07,1.2,70.2,M,48.1,M,,0000*7A
$GPGSA,M,3,22,01,11,14,17,28,23,,,,,,2.0,1.2,1.6*31
$GPRMC,070928.000,A,4758.6011,N,00124.2634,W,34.65,354.70,301217,,,A*43
$GPGGA,070929.000,4758.6109,N,00124.2642,W,1,07,1.2,69.4,M,48.1,M,,0000*7C
$GPGSA,M,3,22,01,11,14,17,28,23,,,,,,2.0,1.2,1.6*31
$GPRMC,070929.000,A,4758.6109,N,00124.2642,W,34.76,354.72,301217,,,A*4B
$GPGGA,070930.000,4758.6206,N,00124.2649,W,1,08,1.2,68.6,M,48.1,M,,0000*7F
$GPGSA,M,3,22,01,11,14,17,28,23,03,,,,,1.8,1.2,1.4*3B
$GPGSV,3,1,12,22,89,100,36,01,79,066,39,11,66,141,34,14,35,060,31*7C
$GPGSV,3,2,12,17,34,310,36,28,19,257,31,23,16,182,21,03,66,241,37*73
$GPGSV,3,3,12,08,18,164,30,19,14,318,36,32,20,043,38,33,33,198,27*73
$GPRMC,070930.000,A,4758.6206,N,00124.2649,W,34.54,354.62,301217,,,A*45
$GPGGA,070931.000,4758.6303,N,00124.2659,W,1,09,1.1,68.3,M,48.1,M,,0000*7C
$GPGSA,M,3,22,01,11,03,14,17,28,23,08,,,,1.7,1.1,1.3*38
$GPRMC,070931.000,A,4758.6303,N,00124.2659,W,34.44,354.46,301217,,,A*46
arfcn: 113 bsic: 61 rxLev: -102 ber: 0.00 mcc: 208 mnc: 10 lac: 30514 cellId: 20153 cellStatus: CELL_FORBIDDEN numArfcn: 1 arfcn: 113 numChannels: 19 array: 77 78 79 80 81 82 83 85 86 87 114 115 116 117 118 119 121 122 124 pbcch: 0 nom: 2 rac: 1 spgc: 0 pat: 6 nco: 0 t3168: 1500 t3192: 500 drxmax: 0 ctrlAck: 0 bsCVmax: 8 alpha: 6 pcMeasCh: 1 
arfcn: 32 rxLev: -102
arfcn: 34 rxLev: -102
$GPGGA,070932.000,4758.6400,N,00124.2671,W,1,09,1.1,68.3,M,48.1,M,,0000*71
arfcn: 35 rxLev: -102
arfcn: 40 rxLev: -102
$GPGSA,M,3,22,01,11,03,14,17,28,08,23,,,,1.7,1.1,1.3*38
arfcn: 28 rxLev: -102
arfcn: 30 rxLev: -102
$GPRMC,070932.000,A,4758.6400,N,00124.2671,W,34.30,354.50,301217,,,A*4F
arfcn: 27 rxLev: -102
$GPGGA,070933.000,4758.6496,N,00124.2681,W,1,09,1.1,68.1,M,48.1,M,,0000*72
$GPGSA,M,3,22,01,11,03,14,17,28,08,23,,,,1.7,1.1,1.3*38
$GPRMC,070933.000,A,4758.6496,N,00124.2681,W,34.37,355.21,301217,,,A*4E
$GPGGA,070934.000,4758.6592,N,00124.2689,W,1,09,1.1,67.8,M,48.1,M,,0000*7E
$GPGSA,M,3,22,01,11,03,14,17,28,08,23,,,,1.7,1.1,1.3*38
arfcn: 6 bsic: 50 rxLev: -102 ber: 15.09 mcc: FFF mnc: FF lac: 65535 cellId: 0 cellStatus: CELL_OTHER numArfcn: 0 arfcn: numChannels: 0 array:
arfcn: 9 rxLev: -102
$GPRMC,070934.000,A,4758.6592,N,00124.2689,W,34.64,356.71,301217,,,A*44
$GPGGA,070935.000,4758.6687,N,00124.2690,W,1,09,1.1,67.5,M,48.1,M,,0000*7D
$GPGSA,M,3,22,01,11,03,14,17,28,08,23,,,,1.7,1.1,1.3*38
$GPGSV,3,1,12,22,89,099,29,01,79,066,23,11,66,141,34,03,66,241,36*7E
$GPGSV,3,2,12,14,35,060,30,17,34,310,44,28,19,257,38,08,18,164,28*7F
$GPGSV,3,3,12,23,16,182,25,19,14,318,31,32,20,043,39,33,33,198,30*78
$GPRMC,070935.000,A,4758.6687,N,00124.2690,W,34.58,359.75,301217,,,A*4E
$GPGGA,070936.000,4758.6783,N,00124.2682,W,1,08,1.2,67.1,M,48.1,M,,0000*7E
$GPGSA,M,3,22,01,11,03,14,17,08,23,,,,,1.9,1.2,1.4*38
$GPRMC,070936.000,A,4758.6783,N,00124.2682,W,34.86,4.10,301217,,,A*40
$GPGGA,070937.000,4758.6881,N,00124.2659,W,1,08,1.2,66.6,M,48.1,M,,0000*72
$GPGSA,M,3,22,01,11,03,14,17,08,23,,,,,1.9,1.2,1.4*38
$GPRMC,070937.000,A,4758.6881,N,00124.2659,W,35.38,7.90,301217,,,A*45
arfcn: 11 bsic: 30 rxLev: -102 ber: 18.06 mcc: 208 mnc: 01 lac: 10300 cellId: 12921 cellStatus: CELL_FORBIDDEN numArfcn: 0 arfcn: numChannels: 0 array:
arfcn: 15 rxLev: -102
arfcn: 31 rxLev: -102
arfcn: 44 rxLev: -102
arfcn: 36 rxLev: -102
arfcn: 56 rxLev: -102
$GPGGA,070938.000,4758.6980,N,00124.2632,W,1,09,1.1,65.9,M,48.1,M,,0000*7E
arfcn: 57 rxLev: -102
$GPGSA,M,3,22,01,11,03,14,17,28,08,23,,,,1.7,1.1,1.3*38
arfcn: 102 rxLev: -102
arfcn: 101 rxLev: -102
$GPRMC,070938.000,A,4758.6980,N,00124.2632,W,36.11,9.01,301217,,,A*49
arfcn: 106 rxLev: -102
arfcn: 109 rxLev: -102
arfcn: 71 rxLev: -102
$GPGGA,070939.000,4758.7080,N,00124.2605,W,1,09,1.1,65.5,M,48.1,M,,0000*7F
$GPGSA,M,3,22,01,11,03,14,17,28,08,23,,,,1.7,1.1,1.3*38
$GPRMC,070939.000,A,4758.7080,N,00124.2605,W,36.30,9.60,301217,,,A*40
$GPGGA,070940.000,4758.7179,N,00124.2578,W,1,09,1.1,65.1,M,48.1,M,,0000*7B
$GPGSA,M,3,22,01,11,03,14,17,28,08,23,,,,1.7,1.1,1.3*38
$GPGSV,3,1,12,22,89,099,35,01,79,066,39,11,66,141,34,03,66,241,37*79
$GPGSV,3,2,12,14,35,060,39,17,34,310,44,28,19,257,23,08,18,164,33*76
$GPGSV,3,3,12,23,16,182,29,19,14,318,25,32,20,043,33,33,33,198,27*7D
$GPRMC,070940.000,A,4758.7179,N,00124.2578,W,35.80,9.60,301217,,,A*48
$GPGGA,070941.000,4758.7277,N,00124.2554,W,1,09,1.1,64.7,M,48.1,M,,0000*7E
$GPGSA,M,3,22,01,11,03,14,17,28,08,23,,,,1.7,1.1,1.3*38
$GPRMC,070941.000,A,4758.7277,N,00124.2554,W,35.43,8.90,301217,,,A*4B
$GPGGA,070942.000,4758.7374,N,00124.2534,W,1,09,1.1,64.4,M,48.1,M,,0000*7A
$GPGSA,M,3,22,01,11,03,14,17,28,08,23,,,,1.7,1.1,1.3*38
$GPRMC,070942.000,A,4758.7374,N,00124.2534,W,35.09,7.20,301217,,,A*46
$GPGGA,070943.000,4758.7470,N,00124.2523,W,1,09,1.1,64.1,M,48.1,M,,0000*7B
$GPGSA,M,3,22,01,11,03,14,17,28,08,23,,,,1.7,1.1,1.3*38
$GPRMC,070943.000,A,4758.7470,N,00124.2523,W,34.74,2.35,301217,,,A*48
$GPGGA,070944.000,4758.7566,N,00124.2526,W,1,09,1.1,63.7,M,48.1,M,,0000*7E
$GPGSA,M,3,22,01,11,03,14,17,28,08,23,,,,1.7,1.1,1.3*38
$GPRMC,070944.000,A,4758.7566,N,00124.2526,W,34.50,355.55,301217,,,A*4D
$GPGGA,070945.000,4758.7661,N,00124.2548,W,1,09,1.1,63.3,M,48.1,M,,0000*77
$GPGSA,M,3,22,01,11,03,14,17,28,08,23,,,,1.7,1.1,1.3*38
$GPGSV,3,1,12,22,89,095,40,01,79,066,38,11,66,141,34,03,66,241,36*77
$GPGSV,3,2,12,14,35,060,35,17,34,309,40,28,19,257,31,08,17,164,34*7D
$GPGSV,3,3,12,23,16,182,29,19,14,318,35,32,20,043,37,33,33,198,29*76
$GPRMC,070945.000,A,4758.7661,N,00124.2548,W,35.05,349.46,301217,,,A*4E
$GPGGA,070946.000,4758.7756,N,00124.2585,W,1,09,1.1,62.7,M,48.1,M,,0000*75
$GPGSA,M,3,22,01,11,03,14,17,28,08,23,,,,1.7,1.1,1.3*38
$GPRMC,070946.000,A,4758.7756,N,00124.2585,W,35.45,343.92,301217,,,A*4E
arfcn: 1019 bsic: 21 rxLev: -102 ber: 9.03 mcc: 208 mnc: 20 lac: 413 cellId: 20231 cellStatus: CELL_OTHER numArfcn: 1 arfcn: 1019 numChannels: 0 array: pbcch: 0 nom: 2 rac: 1 spgc: 0 pat: 6 nco: 0 t3168: 1500 t3192: 500 drxmax: 0 ctrlAck: 0 bsCVmax: 8 alpha: 6 pcMeasCh: 1 
arfcn: 988 rxLev: -103
$GPGGA,070947.000,4758.7850,N,00124.2634,W,1,09,1.1,62.3,M,48.1,M,,0000*70
arfcn: 985 rxLev: -103
$GPGSA,M,3,22,01,11,03,14,17,28,08,23,,,,1.7,1.1,1.3*38
arfcn: 89 rxLev: -103
arfcn: 37 rxLev: -103
$GPRMC,070947.000,A,4758.7850,N,00124.2634,W,36.00,341.21,301217,,,A*47
arfcn: 39 rxLev: -103
arfcn: 45 rxLev: -103
arfcn: 41 rxLev: -103
arfcn: 43 rxLev: -103
arfcn: 42 rxLev: -103
arfcn: 38 rxLev: -103
arfcn: 53 rxLev: -103
$GPGGA,070948.000,4758.7945,N,00124.2686,W,1,09,1.1,62.1,M,48.1,M,,0000*71
arfcn: 54 rxLev: -103
arfcn: 55 rxLev: -103
$GPGSA,M,3,22,01,11,03,14,17,28,08,23,,,,1.7,1.1,1.3*38
arfcn: 3 rxLev: -103
arfcn: 117 rxLev: -103
$GPRMC,070948.000,A,4758.7945,N,00124.2686,W,36.20,340.59,301217,,,A*48
arfcn: 984 rxLev: -103
arfcn: 989 rxLev: -103
$GPGGA,070949.000,4758.8038,N,00124.2740,W,1,09,1.1,62.3,M,48.1,M,,0000*75
$GPGSA,M,3,22,01,11,03,14,17,28,08,23,,,,1.7,1.1,1.3*38
$GPRMC,070949.000,A,4758.8038,N,00124.2740,W,36.47,339.50,301217,,,A*48
$GPGGA,070950.000,4758.8132,N,00124.2796,W,1,09,1.1,62.5,M,48.1,M,,0000*7B
$GPGSA,M,3,22,01,11,03,14,17,28,08,23,,,,1.7,1.1,1.3*38
$GPGSV,3,1,12,22,89,095,39,01,79,066,38,11,66,141,36,03,66,241,26*7A
$GPGSV,3,2,12,14,35,060,34,17,34,309,38,28,19,257,37,08,17,164,26*76
$GPGSV,3,3,12,23,16,182,38,19,14,318,27,32,20,043,27,33,33,198,28*75
$GPRMC,070950.000,A,4758.8132,N,00124.2796,W,36.37,338.58,301217,,,A*4E
$GPGGA,070951.000,4758.8225,N,00124.2852,W,1,09,1.1,62.6,M,48.1,M,,0000*7B
$GPGSA,M,3,22,01,11,03,14,17,28,08,23,,,,1.7,1.1,1.3*38
$GPRMC,070951.000,A,4758.8225,N,00124.2852,W,35.86,339.19,301217,,,A*40
$GPGGA,070952.000,4758.8316,N,00124.2911,W,1,09,1.1,62.7,M,48.1,M,,0000*7E
$GPGSA,M,3,22,01,11,03,14,17,28,08,23,,,,1.7,1.1,1.3*38
$GPRMC,070952.000,A,4758.8316,N,00124.2911,W,35.47,335.68,301217,,,A*43
$GPGGA,070953.000,4758.8402,N,00124.2982,W,1,09,1.1,63.2,M,48.1,M,,0000*73
$GPGSA,M,3,22,01,11,03,14,17,28,08,23,,,,1.7,1.1,1.3*38
$GPRMC,070953.000,A,4758.8402,N,00124.2982,W,35.43,331.08,301217,,,A*4C
$GPGGA,070954.000,4758.8484,N,00124.3063,W,1,09,1.1,63.6,M,48.1,M,,0000*79
$GPGSA,M,3,22,01,11,03,14,17,28,08,23,,,,1.7,1.1,1.3*38
$GPRMC,070954.000,A,4758.8484,N,00124.3063,W,35.78,326.53,301217,,,A*42
arfcn: 1016 bsic: 44 rxLev: -103 ber: 0.00 mcc: 208 mnc: 20 lac: 413 cellId: 20366 cellStatus: CELL_OTHER numArfcn: 2 arfcn: 981 1016 numChannels: 20 array: 787 795 877 975 976 978 979 980 981 982 983 985 986 987 1012 1013 1018 1019 1021 1022 pbcch: 0 nom: 2 rac: 1 spgc: 0 pat: 6 nco: 0 t3168: 1500 t3192: 500 drxmax: 0 ctrlAck: 0 bsCVmax: 8 alpha: 6 pcMeasCh: 1 
$GPGGA,070955.000,4758.8566,N,00124.3151,W,1,09,1.1,63.5,M,48.1,M,,0000*76
$GPGSA,M,3,22,01,11,03,14,17,28,08,23,,,,1.7,1.1,1.3*38
$GPGSV,3,1,12,22,89,095,40,01,79,066,39,11,66,141,34,03,66,241,34*74
$GPGSV,3,2,12,14,35,060,35,17,34,309,46,28,19,257,36,08,17,164,27*7E
$GPGSV,3,3,12,23,16,182,26,19,14,318,38,32,20,043,39,33,33,198,23*70
$GPRMC,070955.000,A,4758.8566,N,00124.3151,W,36.27,322.50,301217,,,A*40
$GPGGA,070956.000,4758.8644,N,00124.3249,W,1,09,1.1,63.5,M,48.1,M,,0000*7C
$GPGSA,M,3,22,01,11,03,14,17,28,08,23,,,,1.7,1.1,1.3*38
$GPRMC,070956.000,A,4758.8644,N,00124.3249,W,36.89,319.18,301217,,,A*4A
$GPGGA,070957.000,4758.8722,N,00124.3354,W,1,09,1.1,63.8,M,48.1,M,,0000*7C
$GPGSA,M,3,22,01,11,03,14,17,28,08,23,,,,1.7,1.1,1.3*38
$GPRMC,070957.000,A,4758.8722,N,00124.3354,W,37.23,317.01,301217,,,A*40
arfcn: 1013 bsic: 9 rxLev: -104 ber: 1.08 mcc: 208 mnc: 20 lac: 413 cellId: 20151 cellStatus: CELL_OTHER numArfcn: 2 arfcn: 1013 1023 numChannels: 20 array: 787 975 976 977 978 981 982 983 984 985 986 987 1011 1012 1014 1015 1016 1017 1018 1021 pbcch: 0 nom: 2 rac: 1 spgc: 0 pat: 6 nco: 0 t3168: 1500 t3192: 500 drxmax: 0 ctrlAck: 0 bsCVmax: 8 alpha: 6 pcMeasCh: 1 
arfcn: 789 rxLev: -104
$GPGGA,070958.000,4758.8798,N,00124.3463,W,1,09,1.1,64.0,M,48.1,M,,0000*7E
$GPGSA,M,3,22,01,11,03,14,17,28,08,23,,,,1.7,1.1,1.3*38
$GPRMC,070958.000,A,4758.8798,N,00124.3463,W,37.50,315.93,301217,,,A*40
$GPGGA,070959.000,4758.8873,N,00124.3574,W,1,09,1.1,64.1,M,48.1,M,,0000*73
$GPGSA,M,3,22,01,11,03,14,17,28,08,23,,,,1.7,1.1,1.3*38
$GPRMC,070959.000,A,4758.8873,N,00124.3574,W,37.57,315.80,301217,,,A*49
arfcn: 986 bsic: 35 rxLev: -104 ber: 19.02 mcc: FFF mnc: FF lac: 65535 cellId: 0 cellStatus: CELL_OTHER numArfcn: 1 arfcn: 986 numChannels: 0 array:
arfcn: 116 rxLev: -104
$GPGGA,071000.000,4758.8944,N,00124.3693,W,1,10,1.0,64.9,M,48.1,M,,0000*79
arfcn: 110 rxLev: -104
$GPGSA,M,3,22,01,11,03,14,17,28,08,23,19,,,1.5,1.0,1.2*32
arfcn: 2 rxLev: -104
arfcn: 18 rxLev: -104
$GPGSV,3,1,12,22,89,089,35,01,79,067,39,11,66,142,36,03,66,241,45*7D
arfcn: 51 rxLev: -104
$GPGSV,3,2,12,14,35,060,41,17,34,309,46,28,19,257,28,08,17,164,35*71
arfcn: 52 rxLev: -104
arfcn: 19 rxLev: -104
$GPGSV,3,3,12,23,16,182,34,19,14,318,38,32,20,043,26,33,33,198,27*79
$GPRMC,071000.000,A,4758.8944,N,00124.3693,W,37.56,315.72,301217,,,A*4E
$GPGGA,071001.000,4758.9016,N,00124.3809,W,1,10,1.0,65.4,M,48.1,M,,0000*76
$GPGSA,M,3,22,01,03,11,14,17,28,08,23,19,,,1.5,1.0,1.2*32
$GPRMC,071001.000,A,4758.9016,N,00124.3809,W,37.41,315.60,301217,,,A*48
$GPGGA,071002.000,4758.9088,N,00124.3922,W,1,10,1.0,65.8,M,48.1,M,,0000*76
$GPGSA,M,3,22,01,03,11,14,17,28,08,23,19,,,1.5,1.0,1.2*32
$GPRMC,071002.000,A,4758.9088,N,00124.3922,W,37.14,315.58,301217,,,A*4F
$GPGGA,071003.000,4758.9161,N,00124.4033,W,1,10,1.0,66.0,M,48.1,M,,0000*74
$GPGSA,M,3,22,01,03,11,14,17,28,08,23,19,,,1.5,1.0,1.2*32
$GPRMC,071003.000,A,4758.9161,N,00124.4033,W,36.99,315.71,301217,,,A*49
$GPGGA,071004.000,4758.9233,N,00124.4143,W,1,10,1.0,66.1,M,48.1,M,,0000*70
$GPGSA,M,3,22,01,03,11,14,17,28,08,23,19,,,1.5,1.0,1.2*32
$GPRMC,071004.000,A,4758.9233,N,00124.4143,W,36.83,315.53,301217,,,A*47
arfcn: 10 bsic: 55 rxLev: -104 ber: 0.00 mcc: 208 mnc: 01 lac: 10300 cellId: 18224 cellStatus: CELL_FORBIDDEN numArfcn: 13 arfcn: 10 17 18 19 20 21 22 23 24 25 47 48 49 numChannels: 10 array: 2 4 6 7 9 10 12 13 14 15 pbcch: 0 nom: 2 rac: 1 spgc: 1 pat: 6 nco: 0 t3168: 1000 t3192: 500 drxmax: 4 ctrlAck: 1 bsCVmax: 9 alpha: 7 pcMeasCh: 0 
arfcn: 88 rxLev: -104
arfcn: 84 rxLev: -105
$GPGGA,071005.000,4758.9305,N,00124.4252,W,1,10,1.0,66.1,M,48.1,M,,0000*76
$GPGSA,M,3,22,01,03,11,14,17,28,08,23,19,,,1.5,1.0,1.2*32
$GPGSV,3,1,12,22,89,089,34,01,79,067,37,03,66,241,44,11,66,142,35*70
$GPGSV,3,2,12,14,35,060,41,17,34,309,46,28,19,257,26,08,17,164,25*7E
$GPGSV,3,3,12,23,16,182,29,19,14,318,38,32,20,043,23,33,33,198,28*7F
$GPRMC,071005.000,A,4758.9305,N,00124.4252,W,36.59,315.46,301217,,,A*42
$GPGGA,071006.000,4758.9377,N,00124.4359,W,1,10,1.0,66.3,M,48.1,M,,0000*78
$GPGSA,M,3,22,01,03,11,14,17,28,08,23,19,,,1.5,1.0,1.2*32
$GPRMC,071006.000,A,4758.9377,N,00124.4359,W,36.25,315.55,301217,,,A*47
$GPGGA,071007.000,4758.9449,N,00124.4465,W,1,10,1.0,66.2,M,48.1,M,,0000*7A
$GPGSA,M,3,22,01,03,11,14,17,28,08,23,19,,,1.5,1.0,1.2*32
$GPRMC,071007.000,A,4758.9449,N,00124.4465,W,36.04,315.77,301217,,,A*47
$GPGGA,071008.000,4758.9520,N,00124.4570,W,1,10,1.0,66.1,M,48.1,M,,0000*7D
$GPGSA,M,3,22,01,03,11,14,17,28,08,23,19,,,1.5,1.0,1.2*32
$GPRMC,071008.000,A,4758.9520,N,00124.4570,W,35.90,315.89,301217,,,A*4C
arfcn: 85 bsic: 30 rxLev: -105 ber: 0.00 mcc: 208 mnc: 10 lac: 30514 cellId: 20242 cellStatus: CELL_FORBIDDEN numArfcn: 1 arfcn: 85 numChannels: 19 array: 76 77 78 79 81 82 83 85 86 87 113 114 115 116 117 118 121 122 124 pbcch: 0 nom: 2 rac: 1 spgc: 0 pat: 6 nco: 0 t3168: 1500 t3192: 500 drxmax: 0 ctrlAck: 0 bsCVmax: 8 alpha: 6 pcMeasCh: 1 
arfcn: 114 rxLev: -105
arfcn: 16 rxLev: -105
arfcn: 50 rxLev: -105
arfcn: 48 rxLev: -105
$GPGGA,071009.000,4758.9592,N,00124.4674,W,1,10,1.0,66.1,M,48.1,M,,0000*72
arfcn: 46 rxLev: -105
arfcn: 666 rxLev: -105
$GPGSA,M,3,22,01,03,11,14,17,28,08,23,19,,,1.5,1.0,1.2*32
arfcn: 606 rxLev: -105
$GPRMC,071009.000,A,4758.9592,N,00124.4674,W,35.84,315.80,301217,,,A*4F
arfcn: 607 rxLev: -105
arfcn: 547 rxLev: -105
arfcn: 549 rxLev: -105
arfcn: 1018 rxLev: -105
arfcn: 1009 rxLev: -105
arfcn: 26 rxLev: -105
arfcn: 17 rxLev: -106
arfcn: 49 rxLev: -106
arfcn: 1010 rxLev: -106
$GPGGA,071010.000,4758.9663,N,00124.4778,W,1,10,1.0,65.9,M,48.1,M,,0000*71
arfcn: 1011 rxLev: -106
$GPGSA,M,3,22,01,03,11,14,17,28,08,23,19,,,1.5,1.0,1.2*32
arfcn: 1012 rxLev: -106
arfcn: 1015 rxLev: -106
$GPGSV,3,1,12,22,89,089,35,01,79,067,37,03,66,241,44,11,66,142,35*71
arfcn: 1020 rxLev: -106
arfcn: 1023 rxLev: -106
$GPGSV,3,2,12,14,35,060,37,17,34,309,46,28,19,257,27,08,17,164,27*7C
arfcn: 545 rxLev: -106
arfcn: 605 rxLev: -106
$GPGSV,3,3,12,23,16,182,30,19,14,318,38,32,20,043,23,33,33,198,28*77
arfcn: 665 rxLev: -106
arfcn: 727 rxLev: -106
$GPRMC,071010.000,A,4758.9663,N,00124.4778,W,35.62,315.93,301217,,,A*4D
arfcn: 47 rxLev: -106
arfcn: 25 rxLev: -106
$GPGGA,071011.000,4758.9733,N,00124.4882,W,1,10,1.0,65.7,M,48.1,M,,0000*70
$GPGSA,M,3,22,01,03,11,14,17,28,08,23,19,,,1.5,1.0,1.2*32
arfcn: 111 rxLev: -106
arfcn: 112 rxLev: -107
$GPRMC,071011.000,A,4758.9733,N,00124.4882,W,35.42,314.77,301217,,,A*4B
arfcn: 24 rxLev: -107
arfcn: 22 rxLev: -107
arfcn: 23 rxLev: -107
arfcn: 611 rxLev: -107
arfcn: 1014 rxLev: -107
arfcn: 546 rxLev: -107
arfcn: 725 rxLev: -107
arfcn: 608 rxLev: -107
arfcn: 599 rxLev: -107
$GPGGA,071012.000,4758.9800,N,00124.4989,W,1,10,1.0,65.2,M,48.1,M,,0000*73
arfcn: 21 rxLev: -107
arfcn: 0 rxLev: -107
$GPGSA,M,3,22,01,03,11,14,17,28,08,23,19,,,1.5,1.0,1.2*32
arfcn: 20 rxLev: -108
arfcn: 603 rxLev: -108
Network survey ended
$GPRMC,071012.000,A,4758.9800,N,00124.4989,W,35.38,311.36,301217,,,A*40
Survey end at #CCLK: "17/12/30,08:10:13+04"
Survey duration: 98 seconds, 23 bases detected over 193 freqs scanned.
$GPGGA,071013.000,4758.9861,N,00124.5104,W,1,10,1.0,64.8,M,48.1,M,,0000*72
$GPGSA,M,3,22,01,03,11,14,17,28,08,23,19,,,1.5,1.0,1.2*32
$GPRMC,071013.000,A,4758.9861,N,00124.5104,W,35.55,306.27,301217,,,A*47
$GPGGA,071014.000,4758.9916,N,00124.5226,W,1,10,1.0,64.7,M,48.1,M,,0000*78
$GPGSA,M,3,22,01,03,11,14,17,28,08,23,19,,,1.5,1.0,1.2*32
Survey start at #CCLK: "17/12/30,08:10:14+04"
at#csurv
Network survey started ...
$GPRMC,071014.000,A,4758.9916,N,00124.5226,W,35.41,302.70,301217,,,A*41
$GPGGA,071015.000,4758.9965,N,00124.5355,W,1,10,1.0,64.5,M,48.1,M,,0000*7A
$GPGSA,M,3,22,01,03,11,14,17,28,08,23,19,,,1.5,1.0,1.2*32
$GPGSV,3,1,12,22,88,086,41,01,79,068,39,03,66,242,40,11,66,142,35*7A
$GPGSV,3,2,12,14,35,060,29,17,34,309,29,28,19,257,21,08,17,164,25*7E
$GPGSV,3,3,12,23,16,182,26,19,14,318,21,32,20,043,26,33,33,198,26*73
$GPRMC,071015.000,A,4758.9965,N,00124.5355,W,36.09,298.17,301217,,,A*4D
$GPGGA,071016.000,4759.0010,N,00124.5489,W,1,10,1.0,64.0,M,48.1,M,,0000*79
$GPGSA,M,3,22,01,03,11,14,17,28,08,23,19,,,1.5,1.0,1.2*32
$GPRMC,071016.000,A,4759.0010,N,00124.5489,W,36.15,296.21,301217,,,A*4D
$GPGGA,071017.000,4759.0054,N,00124.5624,W,1,10,1.0,63.6,M,48.1,M,,0000*7C
$GPGSA,M,3,22,01,03,11,14,17,28,08,23,19,,,1.5,1.0,1.2*32
$GPRMC,071017.000,A,4759.0054,N,00124.5624,W,36.45,295.77,301217,,,A*4C
$GPGGA,071018.000,4759.0098,N,00124.5759,W,1,10,1.0,62.9,M,48.1,M,,0000*76
$GPGSA,M,3,22,01,03,11,14,17,28,08,23,19,,,1.5,1.0,1.2*32
$GPRMC,071018.000,A,4759.0098,N,00124.5759,W,36.15,296.19,301217,,,A*46
$GPGGA,071019.000,4759.0142,N,00124.5891,W,1,10,1.0,62.2,M,48.1,M,,0000*71
$GPGSA,M,3,22,01,03,11,14,17,28,08,23,19,,,1.5,1.0,1.2*32
$GPRMC,071019.000,A,4759.0142,N,00124.5891,W,36.12,297.56,301217,,,A*47
$GPGGA,071020.000,4759.0186,N,00124.6022,W,1,10,1.0,62.5,M,48.1,M,,0000*77
$GPGSA,M,3,22,01,03,11,14,17,28,08,23,19,,,1.5,1.0,1.2*32
$GPGSV,3,1,12,22,88,086,30,01,79,068,37,03,66,242,42,11,66,142,26*72
$GPGSV,3,2,12,14,35,060,33,17,34,309,29,28,19,257,27,08,17,164,26*70
$GPGSV,3,3,12,23,16,182,25,19,14,318,36,32,20,043,33,33,33,198,*76
$GPRMC,071020.000,A,4759.0186,N,00124.6022,W,35.67,299.49,301217,,,A*47
$GPGGA,071021.000,4759.0237,N,00124.6148,W,1,10,1.0,62.5,M,48.1,M,,0000*72
$GPGSA,M,3,22,01,03,11,14,17,28,08,23,19,,,1.5,1.0,1.2*32
$GPRMC,071021.000,A,4759.0237,N,00124.6148,W,36.12,303.81,301217,,,A*45
$GPGGA,071022.000,4759.0295,N,00124.6269,W,1,10,1.0,62.6,M,48.1,M,,0000*7A
$GPGSA,M,3,22,01,03,11,14,17,28,08,23,19,,,1.5,1.0,1.2*32
$GPRMC,071022.000,A,4759.0295,N,00124.6269,W,36.30,308.63,301217,,,A*49
$GPGGA,071023.000,4759.0365,N,00124.6376,W,1,10,1.0,62.6,M,48.1,M,,0000*7A
$GPGSA,M,3,22,01,03,11,14,17,28,08,23,19,,,1.5,1.0,1.2*32
$GPRMC,071023.000,A,4759.0365,N,00124.6376,W,36.48,315.52,301217,,,A*48
arfcn: 79 bsic: 56 rxLev: -76 ber: 0.00 mcc: 208 mnc: 10 lac: 30514 cellId: 20244 cellStatus: CELL_FORBIDDEN numArfcn: 1 arfcn: 79 numChannels: 19 array: 76 77 78 79 81 82 83 85 86 87 113 114 115 117 118 119 121 122 124 pbcch: 0 nom: 2 rac: 1 spgc: 0 pat: 6 nco: 0 t3168: 1500 t3192: 500 drxmax: 0 ctrlAck: 0 bsCVmax: 8 alpha: 6 pcMeasCh: 1 
arfcn: 975 bsic: 60 rxLev: -76 ber: 0.00 mcc: 208 mnc: 20 lac: 413 cellId: 20247 cellStatus: CELL_SUITABLE numArfcn: 1 arfcn: 975 numChannels: 20 array: 977 978 979 980 981 982 983 984 985 987 1011 1013 1014 1015 1017 1018 1019 1020 1021 1022 pbcch: 0 nom: 2 rac: 1 spgc: 0 pat: 6 nco: 0 t3168: 1500 t3192: 500 drxmax: 0 ctrlAck: 0 bsCVmax: 8 alpha: 6 pcMeasCh: 1 
$GPGGA,071024.000,4759.0441,N,00124.6480,W,1,10,1.0,62.8,M,48.1,M,,0000*7C
$GPGSA,M,3,22,01,03,11,14,17,28,08,23,19,,,1.5,1.0,1.2*32
$GPRMC,071024.000,A,4759.0441,N,00124.6480,W,36.90,319.61,301217,,,A*49
$GPGGA,071025.000,4759.0522,N,00124.6579,W,1,10,1.0,63.1,M,48.1,M,,0000*76
$GPGSA,M,3,22,01,03,11,14,17,28,08,23,19,,,1.5,1.0,1.2*32
$GPGSV,3,1,12,22,88,086,38,01,79,068,39,03,66,242,42,11,66,142,36*75
$GPGSV,3,2,12,14,35,060,34,17,34,309,47,28,19,257,24,08,17,164,24*7E
$GPGSV,3,3,12,23,16,182,27,19,14,318,37,32,20,043,31,33,33,198,*77
$GPRMC,071025.000,A,4759.0522,N,00124.6579,W,37.32,321.57,301217,,,A*4C
$GPGGA,071026.000,4759.0605,N,00124.6677,W,1,10,1.0,63.0,M,48.1,M,,0000*7F
$GPGSA,M,3,22,01,03,11,14,17,28,08,23,19,,,1.5,1.0,1.2*32
$GPRMC,071026.000,A,4759.0605,N,00124.6677,W,37.71,321.77,301217,,,A*41
arfcn: 1 bsic: 55 rxLev: -80 ber: 0.00 mcc: 208 mnc: 01 lac: 10300 cellId: 28262 cellStatus: CELL_FORBIDDEN numArfcn: 13 arfcn: 1 17 18 19 20 21 22 23 24 25 47 48 49 numChannels: 17 array: 1 2 3 4 5 6 7 8 9 10 11 12 13 14 15 517 519 pbcch: 0 nom: 2 rac: 1 spgc: 1 pat: 6 nco: 0 t3168: 1000 t3192: 500 drxmax: 4 ctrlAck: 1 bsCVmax: 9 alpha: 7 pcMeasCh: 0 
$GPGGA,071027.000,4759.0688,N,00124.6774,W,1,10,1.0,63.0,M,48.1,M,,0000*79
$GPGSA,M,3,22,01,03,11,14,17,28,08,23,19,,,1.5,1.0,1.2*32
$GPRMC,071027.000,A,4759.0688,N,00124.6774,W,38.03,321.84,301217,,,A*41
$GPGGA,071028.000,4759.0772,N,00124.6872,W,1,10,1.0,62.9,M,48.1,M,,0000*73
$GPGSA,M,3,22,01,03,11,14,17,28,08,23,19,,,1.5,1.0,1.2*32
$GPRMC,071028.000,A,4759.0772,N,00124.6872,W,38.06,321.76,301217,,,A*4B
$GPGGA,071029.000,4759.0855,N,00124.6970,W,1,10,1.0,63.0,M,48.1,M,,0000*73
$GPGSA,M,3,22,01,03,11,14,17,28,08,23,19,,,1.5,1.0,1.2*32
$GPRMC,071029.000,A,4759.0855,N,00124.6970,W,38.03,321.57,301217,,,A*45
$GPGGA,071030.000,4759.0939,N,00124.7067,W,1,11,0.8,63.0,M,48.1,M,,0000*76
$GPGSA,M,3,22,01,03,11,14,17,28,08,23,19,32,,1.3,0.8,1.0*3E
$GPGSV,3,1,12,22,88,082,37,01,79,068,37,03,66,242,41,11,66,142,36*73
$GPGSV,3,2,12,14,35,060,34,17,34,309,47,28,19,256,28,08,17,164,35*73
$GPGSV,3,3,12,23,16,182,28,19,14,318,37,32,20,043,34,33,33,198,29*76
$GPRMC,071030.000,A,4759.0939,N,00124.7067,W,37.78,321.51,301217,,,A*4D
$GPGGA,071031.000,4759.1022,N,00124.7163,W,1,11,0.8,63.1,M,48.1,M,,0000*71
$GPGSA,M,3,22,01,03,11,14,17,32,28,08,23,19,,1.3,0.8,1.0*3E
$GPRMC,071031.000,A,4759.1022,N,00124.7163,W,37.17,321.47,301217,,,A*45
$GPGGA,071032.000,4759.1103,N,00124.7259,W,1,11,0.8,63.3,M,48.1,M,,0000*78
arfcn: 983 bsic: 10 rxLev: -85 ber: 0.00 mcc: 208 mnc: 20 lac: 413 cellId: 20166 cellStatus: CELL_SUITABLE numArfcn: 1 arfcn: 983 numChannels: 20 array: 975 976 977 978 979 980 981 982 984 985 986 987 1011 1013 1014 1015 1016 1017 1019 1021 pbcch: 0 nom: 2 rac: 1 spgc: 0 pat: 6 nco: 0 t3168: 1500 t3192: 500 drxmax: 0 ctrlAck: 0 bsCVmax: 8 alpha: 6 pcMeasCh: 1 
$GPGSA,M,3,22,01,03,11,14,17,32,28,08,23,19,,1.3,0.8,1.0*3E
$GPRMC,071032.000,A,4759.1103,N,00124.7259,W,37.08,321.09,301217,,,A*4A
$GPGGA,071033.000,4759.1184,N,00124.7354,W,1,11,0.8,63.4,M,48.1,M,,0000*7D
$GPGSA,M,3,22,01,03,11,14,17,32,28,08,23,19,,1.3,0.8,1.0*3E
$GPRMC,071033.000,A,4759.1184,N,00124.7354,W,36.99,321.26,301217,,,A*4C
$GPGGA,071034.000,4759.1266,N,00124.7449,W,1,11,0.8,63.7,M,48.1,M,,0000*7D
$GPGSA,M,3,22,01,03,11,14,17,32,28,08,23,19,,1.3,0.8,1.0*3E
$GPRMC,071034.000,A,4759.1266,N,00124.7449,W,37.14,320.77,301217,,,A*4E
arfcn: 14 bsic: 40 rxLev: -85 ber: 0.00 mcc: 208 mnc: 01 lac: 10300 cellId: 8418 cellStatus: CELL_FORBIDDEN numArfcn: 13 arfcn: 14 17 18 19 20 21 22 23 24 25 47 48 49 numChannels: 15 array: 1 2 3 4 5 6 7 9 10 11 12 13 14 15 517 pbcch: 0 nom: 2 rac: 1 spgc: 1 pat: 6 nco: 0 t3168: 1000 t3192: 500 drxmax: 4 ctrlAck: 1 bsCVmax: 9 alpha: 7 pcMeasCh: 0 
$GPGGA,071035.000,4759.1346,N,00124.7549,W,1,11,0.8,64.2,M,48.1,M,,0000*7C
$GPGSA,M,3,22,01,03,11,14,17,32,28,08,23,19,,1.3,0.8,1.0*3E
$GPGSV,3,1,12,22,88,082,37,01,79,068,36,03,66,242,43,11,66,142,36*70
$GPGSV,3,2,12,14,35,060,34,17,34,309,48,32,20,043,36,28,19,256,33*7C
$GPGSV,3,3,12,08,17,164,33,23,16,182,32,19,14,318,37,33,33,198,34*7F
$GPRMC,071035.000,A,4759.1346,N,00124.7549,W,37.61,318.69,301217,,,A*4B
$GPGGA,071036.000,4759.1423,N,00124.7656,W,1,11,0.8,64.7,M,48.1,M,,0000*73
$GPGSA,M,3,22,01,03,11,14,17,32,28,08,23,19,,1.3,0.8,1.0*3E
$GPRMC,071036.000,A,4759.1423,N,00124.7656,W,38.00,315.28,301217,,,A*41
$GPGGA,071037.000,4759.1497,N,00124.7772,W,1,11,0.8,65.5,M,48.1,M,,0000*79
$GPGSA,M,3,22,01,03,11,14,17,32,28,08,23,19,,1.3,0.8,1.0*3E
$GPRMC,071037.000,A,4759.1497,N,00124.7772,W,38.48,312.11,301217,,,A*49
arfcn: 113 bsic: 61 rxLev: -85 ber: 0.00 mcc: 208 mnc: 10 lac: 30514 cellId: 20153 cellStatus: CELL_FORBIDDEN numArfcn: 1 arfcn: 113 numChannels: 19 array: 77 78 79 80 81 82 83 85 86 87 114 115 116 117 118 119 121 122 124 pbcch: 0 nom: 2 rac: 1 spgc: 0 pat: 6 nco: 0 t3168: 1500 t3192: 500 drxmax: 0 ctrlAck: 0 bsCVmax: 8 alpha: 6 pcMeasCh: 1 
arfcn: 93 rxLev: -91
arfcn: 990 rxLev: -91
arfcn: 999 rxLev: -91
$GPGGA,071038.000,4759.1567,N,00124.7894,W,1,11,0.8,66.5,M,48.1,M,,0000*7C
arfcn: 998 rxLev: -92
arfcn: 1000 rxLev: -92
$GPGSA,M,3,22,01,03,11,14,17,32,28,08,23,19,,1.3,0.8,1.0*3E
arfcn: 997 rxLev: -92
arfcn: 991 rxLev: -92
$GPRMC,071038.000,A,4759.1567,N,00124.7894,W,38.49,309.72,301217,,,A*41
arfcn: 92 rxLev: -92
arfcn: 67 rxLev: -92
arfcn: 121 rxLev: -92
$GPGGA,071039.000,4759.1635,N,00124.8019,W,1,11,0.8,67.7,M,48.1,M,,0000*78
$GPGSA,M,3,22,01,03,11,14,17,32,28,08,23,19,,1.3,0.8,1.0*3E
$GPRMC,071039.000,A,4759.1635,N,00124.8019,W,38.49,308.94,301217,,,A*4F
$GPGGA,071040.000,4759.1703,N,00124.8143,W,1,11,0.8,68.8,M,48.1,M,,0000*7C
$GPGSA,M,3,22,01,03,11,14,17,32,28,08,23,19,,1.3,0.8,1.0*3E
arfcn: 122 bsic: 39 rxLev: -92 ber: 2.05 mcc: FFF mnc: FF lac: 65535 cellId: 0 cellStatus: CELL_OTHER numArfcn: 0 arfcn: numChannels: 0 array:
$GPGSV,3,1,12,22,88,082,44,01,79,068,39,03,66,242,36,11,66,142,38*77
arfcn: 104 rxLev: -92
arfcn: 107 rxLev: -92
$GPGSV,3,2,12,14,35,060,35,17,34,309,46,32,20,043,26,28,19,256,29*79
arfcn: 105 rxLev: -92
arfcn: 109 rxLev: -92
$GPGSV,3,3,12,08,17,164,28,23,16,182,32,19,14,318,37,33,33,198,30*71
$GPRMC,071040.000,A,4759.1703,N,00124.8143,W,38.62,309.26,301217,,,A*4A
arfcn: 94 rxLev: -92
arfcn: 91 rxLev: -92
arfcn: 95 rxLev: -93
$GPGGA,071041.000,4759.1770,N,00124.8268,W,1,11,0.8,69.7,M,48.1,M,,0000*7D
arfcn: 108 rxLev: -93
arfcn: 106 rxLev: -93
$GPGSA,M,3,22,01,03,11,14,17,32,28,08,23,19,,1.3,0.8,1.0*3E
arfcn: 100 rxLev: -93
arfcn: 124 rxLev: -93
$GPRMC,071041.000,A,4759.1770,N,00124.8268,W,38.54,308.96,301217,,,A*4A
arfcn: 976 rxLev: -93
arfcn: 992 rxLev: -93
arfcn: 993 rxLev: -93
arfcn: 995 rxLev: -93
arfcn: 1001 rxLev: -93
arfcn: 1006 rxLev: -93
arfcn: 1007 rxLev: -93
arfcn: 1008 rxLev: -93
arfcn: 1002 rxLev: -93
$GPGGA,071042.000,4759.1838,N,00124.8391,W,1,11,0.8,70.5,M,48.1,M,,0000*70
arfcn: 1003 rxLev: -93
$GPGSA,M,3,22,01,03,11,14,17,32,28,08,23,19,,1.3,0.8,1.0*3E
arfcn: 1005 rxLev: -93
arfcn: 994 rxLev: -93
$GPRMC,071042.000,A,4759.1838,N,00124.8391,W,38.22,309.06,301217,,,A*44
arfcn: 996 rxLev: -93
arfcn: 80 rxLev: -93
$GPGGA,071043.000,4759.1904,N,00124.8512,W,1,11,0.8,71.1,M,48.1,M,,0000*77
$GPGSA,M,3,22,01,03,11,14,17,32,28,08,23,19,,1.3,0.8,1.0*3E
$GPRMC,071043.000,A,4759.1904,N,00124.8512,W,37.57,309.51,301217,,,A*49
$GPGGA,071044.000,4759.1971,N,00124.8630,W,1,11,0.8,71.7,M,48.1,M,,0000*77
$GPGSA,M,3,22,01,03,11,14,17,32,28,08,23,19,,1.3,0.8,1.0*3E
$GPRMC,071044.000,A,4759.1971,N,00124.8630,W,37.01,311.10,301217,,,A*40
$GPGGA,071045.000,4759.2041,N,00124.8742,W,1,11,0.8,72.1,M,48.1,M,,0000*7E
$GPGSA,M,3,22,01,03,11,14,17,32,28,08,23,19,,1.3,0.8,1.0*3E
$GPGSV,3,1,12,22,88,080,36,01,79,069,32,03,67,242,43,11,66,142,40*76
$GPGSV,3,2,12,14,35,060,39,17,34,309,45,32,20,043,26,28,19,256,28*77
$GPGSV,3,3,12,08,17,164,34,23,17,182,24,19,14,318,38,33,33,198,27*73
$GPRMC,071045.000,A,4759.2041,N,00124.8742,W,36.51,313.94,301217,,,A*46
$GPGGA,071046.000,4759.2113,N,00124.8848,W,1,11,0.8,72.4,M,48.1,M,,0000*7B
$GPGSA,M,3,22,01,03,11,14,17,32,28,08,23,19,,1.3,0.8,1.0*3E
arfcn: 85 bsic: 30 rxLev: -94 ber: 0.00 mcc: 208 mnc: 10 lac: 30514 cellId: 20242 cellStatus: CELL_FORBIDDEN numArfcn: 1 arfcn: 85 numChannels: 19 array: 76 77 78 79 81 82 83 85 86 87 113 114 115 116 117 118 121 122 124 pbcch: 0 nom: 2 rac: 1 spgc: 0 pat: 6 nco: 0 t3168: 1500 t3192: 500 drxmax: 0 ctrlAck: 0 bsCVmax: 8 alpha: 6 pcMeasCh: 1 
arfcn: 68 rxLev: -94
arfcn: 78 rxLev: -94
$GPRMC,071046.000,A,4759.2113,N,00124.8848,W,36.46,316.83,301217,,,A*43
$GPGGA,071047.000,4759.2191,N,00124.8944,W,1,11,0.8,72.4,M,48.1,M,,0000*7D
$GPGSA,M,3,22,01,03,11,14,17,32,28,08,23,19,,1.3,0.8,1.0*3E
$GPRMC,071047.000,A,4759.2191,N,00124.8944,W,36.48,322.31,301217,,,A*45
$GPGGA,071048.000,4759.2277,N,00124.9027,W,1,11,0.8,72.0,M,48.1,M,,0000*70
$GPGSA,M,3,22,01,03,11,14,17,32,28,08,23,19,,1.3,0.8,1.0*3E
$GPRMC,071048.000,A,4759.2277,N,00124.9027,W,36.86,327.46,301217,,,A*4B
$GPGGA,071049.000,4759.2372,N,00124.9092,W,1,11,0.8,71.0,M,48.1,M,,0000*78
$GPGSA,M,3,22,01,03,11,14,17,32,28,08,23,19,,1.3,0.8,1.0*3E
$GPRMC,071049.000,A,4759.2372,N,00124.9092,W,38.17,334.78,301217,,,A*49
$GPGGA,071050.000,4759.2472,N,00124.9154,W,1,11,0.8,70.6,M,48.1,M,,0000*7B
arfcn: 118 bsic: 13 rxLev: -94 ber: 0.00 mcc: 208 mnc: 10 lac: 30514 cellId: 20322 cellStatus: CELL_FORBIDDEN numArfcn: 1 arfcn: 118 numChannels: 12 array: 76 77 78 79 80 82 85 86 87 113 121 124 pbcch: 0 nom: 2 rac: 1 spgc: 0 pat: 6 nco: 0 t3168: 1500 t3192: 500 drxmax: 0 ctrlAck: 0 bsCVmax: 8 alpha: 6 pcMeasCh: 1 
arfcn: 8 rxLev: -94
arfcn: 1004 rxLev: -94
$GPGSA,M,3,22,01,03,11,14,17,32,28,08,23,19,,1.3,0.8,1.0*3E
arfcn: 1021 rxLev: -94
$GPGSV,3,1,12,22,88,080,36,01,79,069,38,03,67,242,32,11,66,142,31*7C
arfcn: 1013 rxLev: -94
$GPGSV,3,2,12,14,35,060,35,17,34,309,43,32,20,043,30,28,19,256,26*74
$GPGSV,3,3,12,08,17,164,19,23,17,182,26,19,14,318,24,33,33,198,25*71
$GPRMC,071050.000,A,4759.2472,N,00124.9154,W,38.95,338.16,301217,,,A*43
$GPGGA,071051.000,4759.2574,N,00124.9212,W,1,11,0.8,70.2,M,48.1,M,,0000*78
$GPGSA,M,3,22,01,03,11,14,17,32,28,08,23,19,,1.3,0.8,1.0*3E
$GPRMC,071051.000,A,4759.2574,N,00124.9212,W,39.51,338.77,301217,,,A*4A
$GPGGA,071052.000,4759.2677,N,00124.9271,W,1,11,0.8,69.8,M,48.1,M,,0000*7C
$GPGSA,M,3,22,01,03,11,14,17,32,28,08,23,19,,1.3,0.8,1.0*3E
$GPRMC,071052.000,A,4759.2677,N,00124.9271,W,39.91,338.52,301217,,,A*47
$GPGGA,071053.000,4759.2781,N,00124.9331,W,1,11,0.8,69.6,M,48.1,M,,0000*7E
$GPGSA,M,3,22,01,03,11,14,17,32,28,08,23,19,,1.3,0.8,1.0*3E
$GPRMC,071053.000,A,4759.2781,N,00124.9331,W,40.38,338.36,301217,,,A*44
arfcn: 982 bsic: 52 rxLev: -94 ber: 0.00 mcc: 208 mnc: 20 lac: 413 cellId: 20329 cellStatus: CELL_SUITABLE numArfcn: 1 arfcn: 982 numChannels: 20 array: 787 880 975 976 977 979 980 981 983 984 986 987 1011 1013 1014 1017 1018 1019 1021 1022 pbcch: 0 nom: 2 rac: 1 spgc: 0 pat: 6 nco: 0 t3168: 1500 t3192: 500 drxmax: 0 ctrlAck: 0 bsCVmax: 8 alpha: 6 pcMeasCh: 1 
$GPGGA,071054.000,4759.2887,N,00124.9392,W,1,11,0.8,69.4,M,48.1,M,,0000*7B
$GPGSA,M,3,22,01,03,11,14,17,32,28,08,23,19,,1.3,0.8,1.0*3E
$GPRMC,071054.000,A,4759.2887,N,00124.9392,W,40.79,338.54,301217,,,A*42
$GPGGA,071055.000,4759.2995,N,00124.9455,W,1,11,0.8,69.1,M,48.1,M,,0000*71
$GPGSA,M,3,22,01,03,11,14,17,32,28,08,23,19,,1.3,0.8,1.0*3E
$GPGSV,3,1,12,22,88,080,38,01,79,069,36,03,67,242,36,11,66,142,32*7B
$GPGSV,3,2,12,14,35,060,27,17,34,309,39,32,20,043,24,28,19,256,27*7E
$GPGSV,3,3,12,08,17,164,27,23,17,182,21,19,14,318,16,33,33,198,25*7A
$GPRMC,071055.000,A,4759.2995,N,00124.9455,W,42.49,338.54,301217,,,A*4C
$GPGGA,071056.000,4759.3108,N,00124.9519,W,1,11,0.8,68.8,M,48.1,M,,0000*7E
$GPGSA,M,3,22,01,03,11,14,17,32,28,08,23,19,,1.3,0.8,1.0*3E
$GPRMC,071056.000,A,4759.3108,N,00124.9519,W,43.98,338.45,301217,,,A*46
arfcn: 978 bsic: 11 rxLev: -94 ber: 0.00 mcc: 208 mnc: 20 lac: 413 cellId: 20173 cellStatus: CELL_SUITABLE numArfcn: 1 arfcn: 978 numChannels: 19 array: 975 976 979 981 982 983 984 985 987 1011 1013 1014 1015 1016 1017 1018 1019 1020 1021 pbcch: 0 nom: 2 rac: 1 spgc: 0 pat: 6 nco: 0 t3168: 1500 t3192: 500 drxmax: 0 ctrlAck: 0 bsCVmax: 8 alpha: 6 pcMeasCh: 1 
arfcn: 101 rxLev: -94
arfcn: 96 rxLev: -94
arfcn: 99 rxLev: -94
arfcn: 98 rxLev: -95
arfcn: 97 rxLev: -95
$GPGGA,071057.000,4759.3223,N,00124.9585,W,1,11,0.8,68.4,M,48.1,M,,0000*7C
arfcn: 102 rxLev: -95
arfcn: 103 rxLev: -95
$GPGSA,M,3,22,01,03,11,14,17,32,28,08,23,19,,1.3,0.8,1.0*3E
arfcn: 66 rxLev: -95
$GPRMC,071057.000,A,4759.3223,N,00124.9585,W,44.40,338.71,301217,,,A*4D
$GPGGA,071058.000,4759.3338,N,00124.9650,W,1,11,0.8,67.9,M,48.1,M,,0000*71
$GPGSA,M,3,22,01,03,11,14,17,32,28,08,23,19,,1.3,0.8,1.0*3E
$GPRMC,071058.000,A,4759.3338,N,00124.9650,W,44.04,338.84,301217,,,A*48
arfcn: 15 bsic: 31 rxLev: -95 ber: 0.00 mcc: 208 mnc: 01 lac: 10300 cellId: 5375 cellStatus: CELL_FORBIDDEN numArfcn: 13 arfcn: 15 17 18 19 20 21 22 23 24 25 47 48 49 numChannels: 14 array: 1 2 3 5 6 7 9 10 11 12 13 14 15 16 pbcch: 0 nom: 2 rac: 1 spgc: 1 pat: 6 nco: 0 t3168: 1000 t3192: 500 drxmax: 4 ctrlAck: 1 bsCVmax: 9 alpha: 7 pcMeasCh: 0 
$GPGGA,071059.000,4759.3452,N,00124.9714,W,1,11,0.8,67.4,M,48.1,M,,0000*77
$GPGSA,M,3,22,01,03,11,14,17,32,28,08,23,19,,1.3,0.8,1.0*3E
$GPRMC,071059.000,A,4759.3452,N,00124.9714,W,43.64,338.88,301217,,,A*4E
$GPGGA,071100.000,4759.3566,N,00124.9778,W,1,11,0.8,67.1,M,48.1,M,,0000*73
$GPGSA,M,3,22,01,03,11,14,17,32,28,08,23,19,,1.3,0.8,1.0*3E
$GPGSV,3,1,12,22,88,080,38,01,79,069,35,03,67,242,36,11,66,142,32*78
$GPGSV,3,2,12,14,35,060,31,17,34,309,40,32,20,043,21,28,19,256,39*7D
$GPGSV,3,3,12,08,17,164,24,23,17,182,34,19,14,318,33,33,33,198,28*77
$GPRMC,071100.000,A,4759.3566,N,00124.9778,W,43.24,338.91,301217,,,A*43
$GPGGA,071101.000,4759.3680,N,00124.9842,W,1,11,0.8,66.7,M,48.1,M,,0000*78
$GPGSA,M,3,22,01,03,11,14,17,32,28,08,23,19,,1.3,0.8,1.0*3E
arfcn: 979 bsic: 25 rxLev: -95 ber: 0.00 mcc: 208 mnc: 20 lac: 413 cellId: 20178 cellStatus: CELL_SUITABLE numArfcn: 1 arfcn: 979 numChannels: 19 array: 975 976 977 978 981 982 983 984 985 987 1011 1013 1014 1015 1017 1019 1020 1021 1022 pbcch: 0 nom: 2 rac: 1 spgc: 0 pat: 6 nco: 0 t3168: 1500 t3192: 500 drxmax: 0 ctrlAck: 0 bsCVmax: 8 alpha: 6 pcMeasCh: 1 
$GPRMC,071101.000,A,4759.3680,N,00124.9842,W,43.22,338.71,301217,,,A*47
$GPGGA,071102.000,4759.3793,N,00124.9907,W,1,11,0.8,66.6,M,48.1,M,,0000*79
$GPGSA,M,3,22,01,03,11,14,17,32,28,08,23,19,,1.3,0.8,1.0*3E
$GPRMC,071102.000,A,4759.3793,N,00124.9907,W,43.12,338.75,301217,,,A*40
$GPGGA,071103.000,4759.3905,N,00124.9973,W,1,11,0.8,66.5,M,48.1,M,,0000*79
$GPGSA,M,3,22,01,03,11,14,17,32,28,08,23,19,,1.3,0.8,1.0*3E
$GPRMC,071103.000,A,4759.3905,N,00124.9973,W,43.13,337.52,301217,,,A*48
$GPGGA,071104.000,4759.4016,N,00125.0043,W,1,11,0.8,66.3,M,48.1,M,,0000*76
$GPGSA,M,3,22,01,03,11,14,17,32,28,08,23,19,,1.3,0.8,1.0*3E
$GPRMC,071104.000,A,4759.4016,N,00125.0043,W,43.01,334.78,301217,,,A*49
$GPGGA,071105.000,4759.4123,N,00125.0123,W,1,11,0.8,66.3,M,48.1,M,,0000*77
$GPGSA,M,3,22,01,03,11,14,17,32,28,08,23,19,,1.3,0.8,1.0*3E
$GPGSV,3,1,12,22,88,080,38,01,79,069,35,03,67,242,36,11,66,142,31*7B
$GPGSV,3,2,12,14,35,060,38,17,34,309,42,32,20,043,36,28,19,256,31*78
$GPGSV,3,3,12,08,17,164,31,23,17,182,36,19,14,318,30,33,33,198,34*7F
$GPRMC,071105.000,A,4759.4123,N,00125.0123,W,42.83,331.18,301217,,,A*40
$GPGGA,071106.000,4759.4225,N,00125.0213,W,1,11,0.8,66.3,M,48.1,M,,0000*71
$GPGSA,M,3,22,01,03,11,14,17,32,28,08,23,19,,1.3,0.8,1.0*3E
$GPRMC,071106.000,A,4759.4225,N,00125.0213,W,42.57,327.77,301217,,,A*41
arfcn: 1019 bsic: 17 rxLev: -95 ber: 8.03 mcc: FFF mnc: FF lac: 65535 cellId: 0 cellStatus: CELL_OTHER numArfcn: 1 arfcn: 1019 numChannels: 18 array: 975 976 978 979 980 981 982 983 984 985 987 1011 1013 1014 1015 1016 1017 1021
$GPGGA,071107.000,4759.4324,N,00125.0311,W,1,11,0.8,66.4,M,48.1,M,,0000*74
$GPGSA,M,3,22,01,03,11,14,17,32,28,08,23,19,,1.3,0.8,1.0*3E
$GPRMC,071107.000,A,4759.4324,N,00125.0311,W,42.52,325.09,301217,,,A*4D
$GPGGA,071108.000,4759.4419,N,00125.0415,W,1,11,0.8,66.4,M,48.1,M,,0000*71
$GPGSA,M,3,22,01,03,11,14,17,32,28,08,23,19,,1.3,0.8,1.0*3E
$GPRMC,071108.000,A,4759.4419,N,00125.0415,W,42.38,322.69,301217,,,A*45
$GPGGA,071109.000,4759.4512,N,00125.0522,W,1,11,0.8,66.2,M,48.1,M,,0000*79
$GPGSA,M,3,22,01,03,11,14,17,32,28,08,23,19,,1.3,0.8,1.0*3E
$GPRMC,071109.000,A,4759.4512,N,00125.0522,W,42.11,321.86,301217,,,A*42
$GPGGA,071110.000,4759.4604,N,00125.0629,W,1,11,0.8,66.0,M,48.1,M,,0000*7F
$GPGSA,M,3,22,01,03,11,14,17,32,28,08,23,19,,1.3,0.8,1.0*3E
arfcn: 1022 bsic: 45 rxLev: -96 ber: 8.02 mcc: 208 mnc: 20 lac: 284 cellId: 38538 cellStatus: CELL_SUITABLE numArfcn: 1 arfcn: 1022 numChannels: 23 array: 788 876 881 884 975 976 979 980 981 982 984 986 987 1011 1012 1013 1014 1015 1017 1018 1020 1021 1022 pbcch: 0 nom: 2 rac: 6 spgc: 0 pat: 6 nco: 0 t3168: 1500 t3192: 500 drxmax: 0 ctrlAck: 0 bsCVmax: 8 alpha: 6 pcMeasCh: 1 
arfcn: 2 rxLev: -96
$GPGSV,3,1,12,22,88,080,37,01,79,069,35,03,67,242,42,11,66,142,27*70
$GPGSV,3,2,12,14,35,060,35,17,34,309,48,32,20,043,37,28,19,256,25*7B
arfcn: 77 rxLev: -96
arfcn: 73 rxLev: -96
$GPGSV,3,3,12,08,17,164,32,23,17,182,33,19,14,318,32,33,33,198,24*7A
$GPRMC,071110.000,A,4759.4604,N,00125.0629,W,41.92,322.05,301217,,,A*46
$GPGGA,071111.000,4759.4695,N,00125.0736,W,1,11,0.8,65.8,M,48.1,M,,0000*72
$GPGSA,M,3,22,01,03,11,14,17,32,28,08,23,19,,1.3,0.8,1.0*3E
$GPRMC,071111.000,A,4759.4695,N,00125.0736,W,41.62,321.93,301217,,,A*43
$GPGGA,071112.000,4759.4786,N,00125.0843,W,1,11,0.8,65.5,M,48.1,M,,0000*72
$GPGSA,M,3,22,01,03,11,14,17,32,28,08,23,19,,1.3,0.8,1.0*3E
$GPRMC,071112.000,A,4759.4786,N,00125.0843,W,41.30,321.56,301217,,,A*40
$GPGGA,071113.000,4759.4876,N,00125.0948,W,1,11,0.8,65.3,M,48.1,M,,0000*7F
$GPGSA,M,3,22,01,03,11,14,17,32,28,08,23,19,,1.3,0.8,1.0*3E
$GPRMC,071113.000,A,4759.4876,N,00125.0948,W,40.97,321.86,301217,,,A*4A
arfcn: 83 bsic: 28 rxLev: -96 ber: 0.00 mcc: 208 mnc: 10 lac: 30514 cellId: 20154 cellStatus: CELL_FORBIDDEN numArfcn: 1 arfcn: 83 numChannels: 19 array: 76 78 79 80 81 82 84 85 86 87 113 115 117 118 119 121 122 123 124 pbcch: 0 nom: 2 rac: 1 spgc: 0 pat: 6 nco: 0 t3168: 1500 t3192: 500 drxmax: 0 ctrlAck: 0 bsCVmax: 8 alpha: 6 pcMeasCh: 1 
arfcn: 123 rxLev: -96
arfcn: 977 rxLev: -97
$GPGGA,071114.000,4759.4965,N,00125.1053,W,1,11,0.8,65.0,M,48.1,M,,0000*7A
$GPGSA,M,3,22,01,03,11,14,17,32,28,23,08,19,,1.3,0.8,1.0*3E
$GPRMC,071114.000,A,4759.4965,N,00125.1053,W,40.59,321.87,301217,,,A*4F
$GPGGA,071115.000,4759.5053,N,00125.1156,W,1,11,0.8,64.8,M,48.1,M,,0000*7B
$GPGSA,M,3,22,01,03,11,14,17,32,28,23,08,19,,1.3,0.8,1.0*3E
$GPGSV,3,1,12,22,88,076,37,01,79,070,39,03,67,242,41,11,66,142,29*70
$GPGSV,3,2,12,14,35,059,31,17,34,309,49,32,20,042,36,28,19,256,28*79
$GPGSV,3,3,12,23,17,182,33,08,17,164,37,19,14,318,34,33,33,198,24*79
$GPRMC,071115.000,A,4759.5053,N,00125.1156,W,40.15,321.87,301217,,,A*4F
$GPGGA,071116.000,4759.5140,N,00125.1258,W,1,11,0.8,64.6,M,48.1,M,,0000*78
$GPGSA,M,3,22,01,03,11,14,17,32,28,23,08,19,,1.3,0.8,1.0*3E
$GPRMC,071116.000,A,4759.5140,N,00125.1258,W,39.60,321.94,301217,,,A*4C
$GPGGA,071117.000,4759.5225,N,00125.1359,W,1,11,0.8,64.4,M,48.1,M,,0000*7B
$GPGSA,M,3,22,01,03,11,14,17,32,28,23,08,19,,1.3,0.8,1.0*3E
$GPRMC,071117.000,A,4759.5225,N,00125.1359,W,38.84,321.81,301217,,,A*42
$GPGGA,071118.000,4759.5309,N,00125.1459,W,1,11,0.8,64.2,M,48.1,M,,0000*7A
$GPGSA,M,3,22,01,03,11,14,17,32,28,23,08,19,,1.3,0.8,1.0*3E
$GPRMC,071118.000,A,4759.5309,N,00125.1459,W,38.03,321.08,301217,,,A*4B
$GPGGA,071119.000,4759.5390,N,00125.1557,W,1,11,0.8,64.0,M,48.1,M,,0000*76
$GPGSA,M,3,22,01,03,11,14,17,32,28,23,08,19,,1.3,0.8,1.0*3E
$GPRMC,071119.000,A,4759.5390,N,00125.1557,W,37.41,321.28,301217,,,A*4E
$GPGGA,071120.000,4759.5470,N,00125.1653,W,1,11,0.8,63.7,M,48.1,M,,0000*72
$GPGSA,M,3,22,01,03,11,14,17,32,28,23,08,19,,1.3,0.8,1.0*3E
$GPGSV,3,1,12,22,88,076,37,01,79,070,40,03,67,242,36,11,66,142,30*76
$GPGSV,3,2,12,14,35,059,31,17,34,309,48,32,20,042,35,28,19,256,28*7B
$GPGSV,3,3,12,23,17,182,33,08,17,164,29,19,14,318,34,39,31,144,*79
$GPRMC,071120.000,A,4759.5470,N,00125.1653,W,36.96,321.33,301217,,,A*4B
$GPGGA,071121.000,4759.5550,N,00125.1748,W,1,11,0.8,63.5,M,48.1,M,,0000*79
$GPGSA,M,3,22,01,03,11,14,17,32,28,23,08,19,,1.3,0.8,1.0*3E
$GPRMC,071121.000,A,4759.5550,N,00125.1748,W,36.39,321.50,301217,,,A*42
arfcn: 117 bsic: 59 rxLev: -97 ber: 0.00 mcc: 208 mnc: 10 lac: 30514 cellId: 20167 cellStatus: CELL_FORBIDDEN numArfcn: 1 arfcn: 117 numChannels: 19 array: 77 78 79 80 81 82 83 85 86 87 113 114 115 117 118 119 121 122 124 pbcch: 0 nom: 2 rac: 1 spgc: 0 pat: 6 nco: 0 t3168: 1500 t3192: 500 drxmax: 0 ctrlAck: 0 bsCVmax: 8 alpha: 6 pcMeasCh: 1 
arfcn: 6 rxLev: -97
$GPGGA,071122.000,4759.5628,N,00125.1841,W,1,11,0.8,63.2,M,48.1,M,,0000*77
arfcn: 981 rxLev: -97
$GPGSA,M,3,22,01,03,11,14,17,32,28,23,08,19,,1.3,0.8,1.0*3E
$GPRMC,071122.000,A,4759.5628,N,00125.1841,W,35.92,321.99,301217,,,A*4C
$GPGGA,071123.000,4759.5707,N,00125.1931,W,1,11,0.8,62.8,M,48.1,M,,0000*77
$GPGSA,M,3,22,01,03,11,14,17,32,28,23,08,19,,1.3,0.8,1.0*3E
$GPRMC,071123.000,A,4759.5707,N,00125.1931,W,35.38,323.38,301217,,,A*4E
$GPGGA,071124.000,4759.5787,N,00125.2014,W,1,11,0.8,62.5,M,48.1,M,,0000*78
$GPGSA,M,3,22,01,03,11,14,17,32,28,23,08,19,,1.3,0.8,1.0*3E
arfcn: 985 bsic: 37 rxLev: -97 ber: 0.02 mcc: 208 mnc: 20 lac: 413 cellId: 20297 cellStatus: CELL_SUITABLE numArfcn: 1 arfcn: 985 numChannels: 21 array: 787 789 791 796 883 885 975 976 978 980 981 982 986 987 1011 1014 1015 1016 1017 1020 1021 pbcch: 0 nom: 2 rac: 1 spgc: 0 pat: 6 nco: 0 t3168: 1500 t3192: 500 drxmax: 0 ctrlAck: 0 bsCVmax: 8 alpha: 6 pcMeasCh: 1 
$GPRMC,071124.000,A,4759.5787,N,00125.2014,W,35.38,326.65,301217,,,A*41
arfcn: 63 rxLev: -97
arfcn: 120 rxLev: -97
arfcn: 81 rxLev: -97
arfcn: 86 rxLev: -97
$GPGGA,071125.000,4759.5872,N,00125.2088,W,1,11,0.8,62.1,M,48.1,M,,0000*7D
$GPGSA,M,3,22,01,03,11,14,17,32,28,23,08,19,,1.3,0.8,1.0*3E
$GPGSV,3,1,12,22,88,076,37,01,79,070,31,03,67,242,35,11,66,142,30*73
$GPGSV,3,2,12,14,35,059,36,17,34,309,42,32,20,042,34,28,19,256,29*76
$GPGSV,3,3,12,23,17,182,25,08,17,164,30,19,14,318,34,39,31,144,*76
$GPRMC,071125.000,A,4759.5872,N,00125.2088,W,35.38,331.95,301217,,,A*49
$GPGGA,071126.000,4759.5961,N,00125.2149,W,1,11,0.8,61.8,M,48.1,M,,0000*7B
$GPGSA,M,3,22,01,03,11,14,17,32,28,23,08,19,,1.3,0.8,1.0*3E
$GPRMC,071126.000,A,4759.5961,N,00125.2149,W,35.61,338.01,301217,,,A*4D
$GPGGA,071127.000,4759.6053,N,00125.2202,W,1,11,0.8,61.5,M,48.1,M,,0000*70
$GPGSA,M,3,22,01,03,11,14,17,32,28,23,08,19,,1.3,0.8,1.0*3E
$GPRMC,071127.000,A,4759.6053,N,00125.2202,W,35.61,339.81,301217,,,A*42
$GPGGA,071128.000,4759.6145,N,00125.2252,W,1,11,0.8,60.9,M,48.1,M,,0000*71
$GPGSA,M,3,22,01,03,11,14,17,32,28,23,08,19,,1.3,0.8,1.0*3E
$GPRMC,071128.000,A,4759.6145,N,00125.2252,W,35.43,339.90,301217,,,A*4E
arfcn: 115 bsic: 35 rxLev: -98 ber: 0.01 mcc: 208 mnc: 10 lac: 6001 cellId: 49644 cellStatus: CELL_FORBIDDEN numArfcn: 2 arfcn: 115 120 numChannels: 16 array: 78 79 80 81 82 83 86 87 113 115 117 118 119 121 122 124 pbcch: 0 nom: 2 rac: 61 spgc: 0 pat: 6 nco: 0 t3168: 1000 t3192: 500 drxmax: 2 ctrlAck: 0 bsCVmax: 9 alpha: 7 pcMeasCh: 1 
$GPGGA,071129.000,4759.6237,N,00125.2302,W,1,11,0.8,60.4,M,48.1,M,,0000*7F
$GPGSA,M,3,22,01,03,11,14,17,32,28,23,08,19,,1.3,0.8,1.0*3E
$GPRMC,071129.000,A,4759.6237,N,00125.2302,W,35.24,339.11,301217,,,A*45
