$GPGSA,M,3,12,15,19,17,13,25,,,,,,,2.6,1.5,2.1*31
$GPRMC,152245.000,A,4806.8672,N,00139.4263,W,0.12,300.16,090218,,,A*75
Survey start at #CCLK: "18/02/09,16:22:45+04"
at#csurv
Network survey started ...
$GPGGA,152246.000,4806.8672,N,00139.4265,W,1,05,1.7,17.5,M,48.3,M,,0000*78
$GPGSA,M,3,15,19,17,13,25,,,,,,,,3.4,1.7,2.9*3B
$GPRMC,152246.000,A,4806.8672,N,00139.4265,W,0.70,300.16,090218,,,A*74
$GPGGA,152247.000,4806.8671,N,00139.4269,W,1,05,1.7,17.6,M,48.3,M,,0000*75
$GPGSA,M,3,15,19,17,13,25,,,,,,,,3.4,1.7,2.9*3B
$GPRMC,152247.000,A,4806.8671,N,00139.4269,W,0.80,300.16,090218,,,A*75
$GPGGA,152248.000,4806.8669,N,00139.4271,W,1,05,1.7,17.8,M,48.3,M,,0000*74
$GPGSA,M,3,15,19,17,13,25,,,,,,,,3.4,1.7,2.9*3B
$GPRMC,152248.000,A,4806.8669,N,00139.4271,W,0.81,300.16,090218,,,A*7B
$GPGGA,152249.000,4806.8666,N,00139.4271,W,1,05,1.7,17.8,M,48.3,M,,0000*7A
$GPGSA,M,3,15,19,17,13,25,,,,,,,,3.4,1.7,2.9*3B
$GPGSV,3,1,12,15,48,169,14,19,35,089,23,17,31,062,26,13,22,142,15*70
$GPGSV,3,2,12,25,10,226,10,12,48,216,04,20,03,206,04,24,78,316,24*7E
$GPGSV,3,3,12,34,00,000,,10,25,293,,18,24,259,,32,07,315,*73
$GPRMC,152249.000,A,4806.8666,N,00139.4271,W,1.02,300.16,090218,,,A*7F
$GPGGA,152250.000,4806.8665,N,00139.4271,W,1,05,1.7,17.6,M,48.3,M,,0000*7F
$GPGSA,M,3,15,19,17,13,25,,,,,,,,3.4,1.7,2.9*3B
$GPRMC,152250.000,A,4806.8665,N,00139.4271,W,0.68,300.16,090218,,,A*79
$GPGGA,152251.000,4806.8664,N,00139.4270,W,1,05,1.7,17.4,M,48.3,M,,0000*7C
$GPGSA,M,3,15,19,17,13,25,,,,,,,,3.4,1.7,2.9*3B
$GPRMC,152251.000,A,4806.8664,N,00139.4270,W,0.42,300.16,090218,,,A*70
$GPGGA,152252.000,4806.8663,N,00139.4273,W,1,05,1.7,17.0,M,48.3,M,,0000*7F
$GPGSA,M,3,15,19,17,13,25,,,,,,,,3.4,1.7,2.9*3B
$GPRMC,152252.000,A,4806.8663,N,00139.4273,W,0.47,300.16,090218,,,A*72
arfcn: 981 bsic: 46 rxLev: -51 ber: 0.00 mcc: 208 mnc: 20 lac: 418 cellId: 21807 cellStatus: CELL_SUITABLE numArfcn: 1 arfcn: 981 numChannels: 16 array: 979 982 983 985 1012 1014 1017 1019 1020 787 790 791 793 796 882 884 pbcch: 0 nom: 2 rac: 6 spgc: 0 pat: 6 nco: 0 t3168: 1500 t3192: 500 drxmax: 0 ctrlAck: 0 bsCVmax: 8 alpha: 6 pcMeasCh: 1 
arfcn: 991 rxLev: -63
arfcn: 992 rxLev: -63
arfcn: 994 rxLev: -63
arfcn: 996 rxLev: -63
arfcn: 1000 rxLev: -63
arfcn: 999 rxLev: -64
$GPGGA,152253.000,4806.8663,N,00139.4276,W,1,05,1.7,16.8,M,48.3,M,,0000*72
arfcn: 995 rxLev: -64
$GPGSA,M,3,15,19,17,13,25,,,,,,,,3.4,1.7,2.9*3B
arfcn: 997 rxLev: -64
arfcn: 1003 rxLev: -64
$GPRMC,152253.000,A,4806.8663,N,00139.4276,W,0.41,300.16,090218,,,A*70
arfcn: 1004 rxLev: -64
arfcn: 1006 rxLev: -64
arfcn: 990 rxLev: -64
arfcn: 993 rxLev: -64
arfcn: 1005 rxLev: -64
arfcn: 1008 rxLev: -64
arfcn: 998 rxLev: -64
arfcn: 1001 rxLev: -64
arfcn: 1002 rxLev: -64
$GPGGA,152254.000,4806.8668,N,00139.4283,W,1,05,1.7,16.6,M,48.3,M,,0000*7A
arfcn: 1007 rxLev: -65
$GPGSA,M,3,15,19,17,13,25,,,,,,,,3.4,1.7,2.9*3B
$GPGSV,3,1,12,15,48,169,15,19,35,089,23,17,31,062,26,13,22,142,15*71
$GPGSV,3,2,12,25,10,226,08,12,48,216,04,24,78,316,24,34,00,000,*71
$GPGSV,3,3,12,10,25,293,,18,24,259,,32,07,315,,20,03,206,*71
$GPRMC,152254.000,A,4806.8668,N,00139.4283,W,0.58,300.16,090218,,,A*7E
$GPGGA,152255.000,4806.8672,N,00139.4291,W,1,04,5.1,16.6,M,48.3,M,,0000*70
$GPGSA,M,3,15,19,17,13,,,,,,,,,8.3,5.1,6.5*3A
$GPRMC,152255.000,A,4806.8672,N,00139.4291,W,0.51,300.16,090218,,,A*7E
$GPGGA,152256.000,4806.8676,N,00139.4299,W,1,04,5.1,16.4,M,48.3,M,,0000*7D
$GPGSA,M,3,15,19,17,13,,,,,,,,,8.3,5.1,6.5*3A
$GPRMC,152256.000,A,4806.8676,N,00139.4299,W,0.90,300.16,090218,,,A*7C
arfcn: 985 bsic: 44 rxLev: -65 ber: 0.00 mcc: 208 mnc: 20 lac: 418 cellId: 21808 cellStatus: CELL_SUITABLE numArfcn: 1 arfcn: 985 numChannels: 25 array: 787 788 790 793 795 796 879 884 975 977 978 979 980 981 982 983 1011 1012 1014 1015 1017 1019 1020 1021 1022 pbcch: 0 nom: 2 rac: 6 spgc: 0 pat: 6 nco: 0 t3168: 1500 t3192: 500 drxmax: 0 ctrlAck: 0 bsCVmax: 8 alpha: 6 pcMeasCh: 1 
arfcn: 982 rxLev: -69
$GPGGA,152257.000,4806.8675,N,00139.4306,W,1,04,5.1,16.8,M,48.3,M,,0000*74
arfcn: 980 rxLev: -70
$GPGSA,M,3,15,19,17,13,,,,,,,,,8.3,5.1,6.5*3A
$GPRMC,152257.000,A,4806.8675,N,00139.4306,W,0.84,300.16,090218,,,A*7C
$GPGGA,152258.000,4806.8679,N,00139.4313,W,1,04,5.1,16.9,M,48.3,M,,0000*72
$GPGSA,M,3,15,19,17,13,,,,,,,,,8.3,5.1,6.5*3A
$GPRMC,152258.000,A,4806.8679,N,00139.4313,W,0.92,300.16,090218,,,A*7C
arfcn: 85 bsic: 0 rxLev: -70 ber: 0.00 mcc: 208 mnc: 10 lac: 49415 cellId: 44814 cellStatus: CELL_FORBIDDEN numArfcn: 2 arfcn: 85 119 numChannels: 20 array: 76 77 78 79 80 82 83 85 86 114 115 116 117 118 119 120 121 122 123 124 pbcch: 0 nom: 2 rac: 31 spgc: 0 pat: 6 nco: 0 t3168: 1000 t3192: 500 drxmax: 4 ctrlAck: 1 bsCVmax: 9 alpha: 10 pcMeasCh: 0 
$GPGGA,152259.000,4806.8677,N,00139.4310,W,1,05,1.7,17.0,M,48.3,M,,0000*75
$GPGSA,M,3,15,19,17,13,25,,,,,,,,3.4,1.7,2.9*3B
$GPGSV,3,1,12,15,48,169,16,19,35,089,24,17,31,062,27,13,22,142,15*74
$GPGSV,3,2,12,25,10,226,08,12,48,216,04,24,78,316,24,34,00,000,*71
$GPGSV,3,3,12,10,25,293,,18,24,259,,32,07,315,,20,03,206,*71
$GPRMC,152259.000,A,4806.8677,N,00139.4310,W,0.40,300.16,090218,,,A*7F
$GPGGA,152300.000,4806.8672,N,00139.4302,W,1,05,1.7,17.1,M,48.3,M,,0000*7F
$GPGSA,M,3,15,19,17,13,25,,,,,,,,3.4,1.7,2.9*3B
$GPRMC,152300.000,A,4806.8672,N,00139.4302,W,1.09,300.16,090218,,,A*78
arfcn: 80 bsic: 47 rxLev: -71 ber: 0.00 mcc: 208 mnc: 10 lac: 49415 cellId: 23568 cellStatus: CELL_FORBIDDEN numArfcn: 2 arfcn: 80 89 numChannels: 19 array: 76 77 78 80 82 83 84 85 113 114 115 116 117 118 119 120 122 123 124 pbcch: 0 nom: 2 rac: 31 spgc: 0 pat: 6 nco: 0 t3168: 1000 t3192: 500 drxmax: 4 ctrlAck: 1 bsCVmax: 9 alpha: 10 pcMeasCh: 0 
$GPGGA,152301.000,4806.8663,N,00139.4290,W,1,05,1.7,17.3,M,48.3,M,,0000*76
$GPGSA,M,3,15,19,17,13,25,,,,,,,,3.4,1.7,2.9*3B
$GPRMC,152301.000,A,4806.8663,N,00139.4290,W,2.17,34.32,090218,,,A*4D
$GPGGA,152302.000,4806.8659,N,00139.4281,W,1,05,1.7,17.1,M,48.3,M,,0000*7E
$GPGSA,M,3,15,19,17,13,25,,,,,,,,3.4,1.7,2.9*3B
$GPRMC,152302.000,A,4806.8659,N,00139.4281,W,1.70,56.89,090218,,,A*41
arfcn: 12 bsic: 0 rxLev: -72 ber: 0.00 mcc: 208 mnc: 01 lac: 10300 cellId: 6467 cellStatus: CELL_FORBIDDEN numArfcn: 13 arfcn: 12 17 18 19 20 21 22 23 24 25 47 48 49 numChannels: 15 array: 1 2 3 8 9 10 14 512 513 514 515 518 605 606 608 pbcch: 0 nom: 2 rac: 1 spgc: 0 pat: 6 nco: 0 t3168: 1000 t3192: 500 drxmax: 2 ctrlAck: 0 bsCVmax: 9 alpha: 5 pcMeasCh: 1 
arfcn: 989 rxLev: -72
arfcn: 1009 rxLev: -73
$GPGGA,152303.000,4806.8653,N,00139.4272,W,1,05,1.7,17.0,M,48.3,M,,0000*78
$GPGSA,M,3,15,19,17,13,25,,,,,,,,3.4,1.7,2.9*3B
$GPRMC,152303.000,A,4806.8653,N,00139.4272,W,2.19,77.08,090218,,,A*40
$GPGGA,152304.000,4806.8646,N,00139.4262,W,1,05,1.7,17.0,M,48.3,M,,0000*7A
$GPGSA,M,3,15,19,17,13,25,,,,,,,,3.4,1.7,2.9*3B
$GPGSV,3,1,12,15,48,169,15,19,35,089,23,17,31,062,27,13,22,142,10*75
$GPGSV,3,2,12,25,10,226,09,12,48,216,04,24,78,316,24,34,00,000,*70
$GPGSV,3,3,12,10,25,293,,18,24,259,,32,07,315,,20,03,206,*71
arfcn: 124 bsic: 2 rxLev: -75 ber: 0.00 mcc: 208 mnc: 10 lac: 49415 cellId: 43517 cellStatus: CELL_FORBIDDEN numArfcn: 2 arfcn: 112 124 numChannels: 14 array: 76 77 78 80 82 85 114 115 117 118 120 121 122 124 pbcch: 0 nom: 2 rac: 31 spgc: 0 pat: 6 nco: 0 t3168: 1000 t3192: 500 drxmax: 4 ctrlAck: 1 bsCVmax: 9 alpha: 10 pcMeasCh: 0 
$GPRMC,152304.000,A,4806.8646,N,00139.4262,W,2.17,88.70,090218,,,A*43
$GPGGA,152305.000,4806.8642,N,00139.4256,W,1,05,1.7,16.9,M,48.3,M,,0000*70
$GPGSA,M,3,15,19,17,13,25,,,,,,,,3.4,1.7,2.9*3B
$GPRMC,152305.000,A,4806.8642,N,00139.4256,W,2.08,93.47,090218,,,A*41
$GPGGA,152306.000,4806.8635,N,00139.4246,W,1,05,1.7,16.9,M,48.3,M,,0000*72
$GPGSA,M,3,15,19,17,13,25,,,,,,,,3.4,1.7,2.9*3B
$GPRMC,152306.000,A,4806.8635,N,00139.4246,W,2.23,97.59,090218,,,A*41
$GPGGA,152307.000,4806.8632,N,00139.4239,W,1,05,1.7,16.5,M,48.3,M,,0000*70
$GPGSA,M,3,15,19,17,13,25,,,,,,,,3.4,1.7,2.9*3B
arfcn: 8 bsic: 48 rxLev: -76 ber: 0.00 mcc: 208 mnc: 01 lac: 10300 cellId: 6473 cellStatus: CELL_FORBIDDEN numArfcn: 13 arfcn: 8 17 18 19 20 21 22 23 24 25 47 48 49 numChannels: 18 array: 1 2 3 4 5 10 12 13 14 15 512 513 514 515 516 517 605 610 pbcch: 0 nom: 2 rac: 1 spgc: 0 pat: 6 nco: 0 t3168: 1000 t3192: 500 drxmax: 2 ctrlAck: 0 bsCVmax: 9 alpha: 5 pcMeasCh: 1 
arfcn: 795 rxLev: -79
$GPRMC,152307.000,A,4806.8632,N,00139.4239,W,1.92,101.34,090218,,,A*73
$GPGGA,152308.000,4806.8629,N,00139.4236,W,1,05,1.7,16.3,M,48.3,M,,0000*7C
$GPGSA,M,3,15,19,17,13,25,,,,,,,,3.4,1.7,2.9*3B
$GPRMC,152308.000,A,4806.8629,N,00139.4236,W,1.58,104.31,090218,,,A*7F
arfcn: 10 bsic: 45 rxLev: -80 ber: 8.05 mcc: FFF mnc: FF lac: 65535 cellId: 0 cellStatus: CELL_OTHER numArfcn: 0 arfcn: numChannels: 0 array:
$GPGGA,152309.000,4806.8626,N,00139.4235,W,1,04,5.8,16.4,M,48.3,M,,0000*7C
$GPGSA,M,3,15,19,17,25,,,,,,,,,9.2,5.8,7.2*30
$GPGSV,3,1,12,15,48,169,16,19,35,089,23,17,31,062,27,25,10,226,11*72
$GPGSV,3,2,12,13,22,142,08,24,78,316,23,34,00,000,,12,48,216,*77
$GPGSV,3,3,12,10,25,293,,18,24,259,,32,07,315,,20,03,206,*71
$GPRMC,152309.000,A,4806.8626,N,00139.4235,W,0.35,104.31,090218,,,A*78
$GPGGA,152310.000,4806.8629,N,00139.4238,W,1,04,5.8,16.5,M,48.3,M,,0000*77
$GPGSA,M,3,15,19,17,25,,,,,,,,,9.2,5.8,7.2*30
$GPRMC,152310.000,A,4806.8629,N,00139.4238,W,0.92,104.31,090218,,,A*7F
arfcn: 5 bsic: 1 rxLev: -81 ber: 0.00 mcc: 208 mnc: 01 lac: 10300 cellId: 40079 cellStatus: CELL_FORBIDDEN numArfcn: 13 arfcn: 5 17 18 19 20 21 22 23 24 25 47 48 49 numChannels: 20 array: 1 2 3 4 5 8 9 10 11 13 14 15 16 512 513 518 604 606 608 610 pbcch: 0 nom: 2 rac: 1 spgc: 0 pat: 6 nco: 0 t3168: 1000 t3192: 500 drxmax: 2 ctrlAck: 0 bsCVmax: 9 alpha: 5 pcMeasCh: 1 
arfcn: 34 rxLev: -81
arfcn: 35 rxLev: -81
arfcn: 37 rxLev: -81
$GPGGA,152311.000,4806.8633,N,00139.4247,W,1,04,5.8,16.6,M,48.3,M,,0000*76
$GPGSA,M,3,15,19,17,25,,,,,,,,,9.2,5.8,7.2*30
$GPRMC,152311.000,A,4806.8633,N,00139.4247,W,0.52,104.31,090218,,,A*71
$GPGGA,152312.000,4806.8633,N,00139.4249,W,1,04,5.8,16.9,M,48.3,M,,0000*74
$GPGSA,M,3,15,19,17,25,,,,,,,,,9.2,5.8,7.2*30
$GPRMC,152312.000,A,4806.8633,N,00139.4249,W,0.36,104.31,090218,,,A*7E
$GPGGA,152313.000,4806.8629,N,00139.4247,W,1,04,5.8,17.1,M,48.3,M,,0000*79
$GPGSA,M,3,15,19,17,25,,,,,,,,,9.3,5.8,7.2*31
$GPRMC,152313.000,A,4806.8629,N,00139.4247,W,1.31,108.19,090218,,,A*7A
arfcn: 1017 bsic: 33 rxLev: -81 ber: 0.00 mcc: 208 mnc: 20 lac: 418 cellId: 20104 cellStatus: CELL_SUITABLE numArfcn: 3 arfcn: 986 987 1017 numChannels: 20 array: 788 790 885 975 976 978 979 980 981 982 986 987 1011 1012 1015 1017 1019 1020 1021 1022 pbcch: 0 nom: 2 rac: 7 spgc: 0 pat: 6 nco: 0 t3168: 1500 t3192: 500 drxmax: 4 ctrlAck: 1 bsCVmax: 8 alpha: 6 pcMeasCh: 1 
arfcn: 793 rxLev: -81
$GPGGA,152314.000,4806.8623,N,00139.4242,W,1,04,5.8,17.1,M,48.3,M,,0000*71
$GPGSA,M,3,15,19,17,25,,,,,,,,,9.3,5.8,7.2*31
$GPGSV,3,1,12,15,48,169,17,19,35,089,23,17,31,062,26,25,10,226,12*71
$GPGSV,3,2,12,13,22,142,05,24,78,316,23,35,00,000,,12,48,216,*7B
$GPGSV,3,3,12,10,25,293,,18,24,259,,32,07,315,,20,03,206,*71
$GPRMC,152314.000,A,4806.8623,N,00139.4242,W,1.66,116.15,090218,,,A*73
$GPGGA,152315.000,4806.8623,N,00139.4244,W,1,04,5.8,17.1,M,48.3,M,,0000*76
$GPGSA,M,3,15,19,17,25,,,,,,,,,9.3,5.8,7.2*31
$GPRMC,152315.000,A,4806.8623,N,00139.4244,W,0.40,116.15,090218,,,A*71
$GPGGA,152316.000,4806.8629,N,00139.4253,W,1,04,5.8,17.2,M,48.3,M,,0000*7A
$GPGSA,M,3,15,19,17,25,,,,,,,,,9.3,5.8,7.2*31
$GPRMC,152316.000,A,4806.8629,N,00139.4253,W,0.49,116.15,090218,,,A*77
$GPGGA,152317.000,4806.8632,N,00139.4256,W,1,05,1.7,17.2,M,48.3,M,,0000*7E
$GPGSA,M,3,15,19,17,13,25,,,,,,,,3.4,1.7,2.9*3B
$GPRMC,152317.000,A,4806.8632,N,00139.4256,W,0.48,116.15,090218,,,A*78
arfcn: 605 bsic: 33 rxLev: -81 ber: 0.00 mcc: 208 mnc: 01 lac: 10300 cellId: 27588 cellStatus: CELL_FORBIDDEN numArfcn: 22 arfcn: 525 526 527 528 529 530 531 532 533 534 535 587 588 589 590 591 592 593 594 595 596 597 numChannels: 18 array: 1 3 5 8 12 15 512 513 514 515 516 517 518 604 605 606 607 609 pbcch: 0 nom: 2 rac: 1 spgc: 0 pat: 6 nco: 0 t3168: 1000 t3192: 500 drxmax: 2 ctrlAck: 0 bsCVmax: 9 alpha: 5 pcMeasCh: 1 
arfcn: 36 rxLev: -81
arfcn: 33 rxLev: -81
arfcn: 28 rxLev: -82
arfcn: 29 rxLev: -82
arfcn: 986 rxLev: -82
arfcn: 859 rxLev: -82
arfcn: 851 rxLev: -83
$GPGGA,152318.000,4806.8641,N,00139.4267,W,1,04,5.8,17.1,M,48.3,M,,0000*7E
arfcn: 30 rxLev: -83
$GPGSA,M,3,15,19,17,25,,,,,,,,,9.3,5.8,7.3*30
$GPRMC,152318.000,A,4806.8641,N,00139.4267,W,1.95,84.32,090218,,,A*4F
$GPGGA,152319.000,4806.8644,N,00139.4273,W,1,04,5.8,17.1,M,48.3,M,,0000*7F
$GPGSA,M,3,15,19,17,25,,,,,,,,,9.3,5.8,7.3*30
$GPGSV,3,1,12,15,48,169,17,19,35,089,24,17,31,062,24,25,10,226,11*77
$GPGSV,3,2,12,13,22,142,08,24,78,316,23,35,00,000,,12,48,216,*76
$GPGSV,3,3,12,10,25,293,,18,24,259,,32,07,315,,20,03,206,*71
$GPRMC,152319.000,A,4806.8644,N,00139.4273,W,2.12,66.22,090218,,,A*4F
$GPGGA,152320.000,4806.8643,N,00139.4278,W,1,04,5.8,17.1,M,48.3,M,,0000*79
$GPGSA,M,3,15,19,17,25,,,,,,,,,9.3,5.8,7.3*30
$GPRMC,152320.000,A,4806.8643,N,00139.4278,W,1.91,54.57,090218,,,A*42
$GPGGA,152321.000,4806.8641,N,00139.4283,W,1,04,5.8,17.2,M,48.3,M,,0000*7D
$GPGSA,M,3,15,19,17,25,,,,,,,,,9.3,5.8,7.3*30
$GPRMC,152321.000,A,4806.8641,N,00139.4283,W,1.53,46.06,090218,,,A*4C
arfcn: 978 bsic: 19 rxLev: -83 ber: 0.00 mcc: 208 mnc: 20 lac: 418 cellId: 18480 cellStatus: CELL_SUITABLE numArfcn: 2 arfcn: 978 1023 numChannels: 24 array: 788 790 794 880 883 975 976 977 979 980 981 982 983 985 986 1011 1012 1014 1016 1017 1018 1019 1020 1021 pbcch: 0 nom: 2 rac: 6 spgc: 0 pat: 6 nco: 0 t3168: 1500 t3192: 500 drxmax: 4 ctrlAck: 1 bsCVmax: 8 alpha: 6 pcMeasCh: 1 
arfcn: 852 rxLev: -83
arfcn: 834 rxLev: -83
arfcn: 861 rxLev: -83
arfcn: 873 rxLev: -83
arfcn: 792 rxLev: -83
arfcn: 797 rxLev: -84
arfcn: 799 rxLev: -84
$GPGGA,152322.000,4806.8633,N,00139.4281,W,1,04,5.8,17.3,M,48.3,M,,0000*78
arfcn: 858 rxLev: -84
$GPGSA,M,3,15,19,17,25,,,,,,,,,9.3,5.8,7.3*30
arfcn: 867 rxLev: -84
arfcn: 869 rxLev: -84
$GPRMC,152322.000,A,4806.8633,N,00139.4281,W,1.41,35.93,090218,,,A*43
arfcn: 853 rxLev: -84
arfcn: 849 rxLev: -84
arfcn: 840 rxLev: -84
arfcn: 27 rxLev: -84
arfcn: 32 rxLev: -84
arfcn: 38 rxLev: -84
$GPGGA,152323.000,4806.8632,N,00139.4282,W,1,04,5.8,17.2,M,48.3,M,,0000*7A
$GPGSA,M,3,15,19,17,25,,,,,,,,,9.3,5.8,7.3*30
$GPRMC,152323.000,A,4806.8632,N,00139.4282,W,0.79,35.93,090218,,,A*4A
$GPGGA,152324.000,4806.8628,N,00139.4278,W,1,04,5.8,16.9,M,48.3,M,,0000*79
$GPGSA,M,3,15,19,17,25,,,,,,,,,9.4,5.8,7.3*37
$GPGSV,3,1,12,15,48,169,17,19,35,089,23,17,31,062,25,25,10,226,11*71
$GPGSV,3,2,12,13,22,142,05,24,78,316,23,35,00,000,,12,48,216,*7B
$GPGSV,3,3,12,10,25,293,,18,24,259,,32,07,315,,20,03,206,*71
$GPRMC,152324.000,A,4806.8628,N,00139.4278,W,1.73,64.75,090218,,,A*44
$GPGGA,152325.000,4806.8619,N,00139.4272,W,1,04,5.8,16.8,M,48.3,M,,0000*71
$GPGSA,M,3,15,19,17,25,,,,,,,,,9.4,5.8,7.3*37
$GPRMC,152325.000,A,4806.8619,N,00139.4272,W,2.26,90.38,090218,,,A*4C
arfcn: 515 bsic: 34 rxLev: -84 ber: 0.00 mcc: 208 mnc: 01 lac: 10300 cellId: 27586 cellStatus: CELL_FORBIDDEN numArfcn: 16 arfcn: 519 520 521 522 523 524 525 526 596 597 598 599 600 601 602 603 numChannels: 9 array: 1 8 12 512 513 516 605 606 607 pbcch: 0 nom: 2 rac: 1 spgc: 0 pat: 6 nco: 0 t3168: 1000 t3192: 500 drxmax: 2 ctrlAck: 0 bsCVmax: 9 alpha: 5 pcMeasCh: 1 
arfcn: 984 rxLev: -84
$GPGGA,152326.000,4806.8610,N,00139.4268,W,1,04,5.8,16.8,M,48.3,M,,0000*70
$GPGSA,M,3,15,19,17,25,,,,,,,,,9.4,5.8,7.3*37
arfcn: 31 rxLev: -84
arfcn: 838 rxLev: -84
$GPRMC,152326.000,A,4806.8610,N,00139.4268,W,3.19,110.77,090218,,,A*72
arfcn: 844 rxLev: -84
arfcn: 848 rxLev: -84
arfcn: 846 rxLev: -84
arfcn: 850 rxLev: -84
arfcn: 854 rxLev: -84
arfcn: 805 rxLev: -84
arfcn: 807 rxLev: -84
arfcn: 817 rxLev: -84
arfcn: 821 rxLev: -84
$GPGGA,152327.000,4806.8605,N,00139.4266,W,1,05,1.7,16.9,M,48.3,M,,0000*70
arfcn: 803 rxLev: -85
$GPGSA,M,3,15,19,17,13,25,,,,,,,,3.4,1.7,2.9*3B
arfcn: 798 rxLev: -85
arfcn: 801 rxLev: -85
$GPRMC,152327.000,A,4806.8605,N,00139.4266,W,2.58,116.40,090218,,,A*7F
arfcn: 794 rxLev: -85
arfcn: 835 rxLev: -85
arfcn: 836 rxLev: -85
arfcn: 837 rxLev: -85
arfcn: 830 rxLev: -85
arfcn: 822 rxLev: -85
arfcn: 823 rxLev: -85
arfcn: 39 rxLev: -85
$GPGGA,152328.000,4806.8599,N,00139.4261,W,1,04,5.9,17.1,M,48.3,M,,0000*7C
arfcn: 40 rxLev: -85
$GPGSA,M,3,15,19,17,25,,,,,,,,,9.4,5.9,7.3*36
arfcn: 43 rxLev: -85
$GPRMC,152328.000,A,4806.8599,N,00139.4261,W,1.82,119.53,090218,,,A*78
$GPGGA,152329.000,4806.8596,N,00139.4247,W,1,04,5.9,16.8,M,48.3,M,,0000*7E
$GPGSA,M,3,15,19,17,25,,,,,,,,,9.4,5.9,7.3*36
$GPGSV,3,1,12,15,48,169,18,19,35,089,23,17,31,062,25,25,10,226,10*7F
$GPGSV,3,2,12,13,22,142,04,24,78,316,23,35,00,000,,12,48,216,*7A
$GPGSV,3,3,12,10,25,293,,18,24,259,,32,07,315,,20,03,206,*71
arfcn: 120 bsic: 59 rxLev: -85 ber: 0.00 mcc: 208 mnc: 10 lac: 49415 cellId: 13571 cellStatus: CELL_FORBIDDEN numArfcn: 2 arfcn: 111 120 numChannels: 14 array: 76 77 79 80 83 84 85 114 115 116 117 120 122 124 pbcch: 0 nom: 2 rac: 31 spgc: 0 pat: 6 nco: 0 t3168: 1000 t3192: 500 drxmax: 4 ctrlAck: 1 bsCVmax: 9 alpha: 10 pcMeasCh: 0 
arfcn: 93 rxLev: -85
arfcn: 94 rxLev: -85
$GPRMC,152329.000,A,4806.8596,N,00139.4247,W,2.57,119.77,090218,,,A*7F
$GPGGA,152330.000,4806.8600,N,00139.4236,W,1,04,5.9,16.6,M,48.3,M,,0000*72
$GPGSA,M,3,15,19,17,25,,,,,,,,,9.4,5.9,7.4*31
$GPRMC,152330.000,A,4806.8600,N,00139.4236,W,1.89,118.50,090218,,,A*79
$GPGGA,152331.000,4806.8607,N,00139.4232,W,1,04,5.9,16.7,M,48.3,M,,0000*71
$GPGSA,M,3,15,19,17,25,,,,,,,,,9.4,5.9,7.4*31
$GPRMC,152331.000,A,4806.8607,N,00139.4232,W,1.47,116.09,090218,,,A*7B
$GPGGA,152332.000,4806.8616,N,00139.4225,W,1,04,5.9,16.9,M,48.3,M,,0000*7A
$GPGSA,M,3,15,19,17,25,,,,,,,,,9.4,5.9,7.4*31
$GPRMC,152332.000,A,4806.8616,N,00139.4225,W,3.05,110.12,090218,,,A*76
$GPGGA,152333.000,4806.8620,N,00139.4208,W,1,04,5.9,17.2,M,48.3,M,,0000*7B
$GPGSA,M,3,15,19,17,25,,,,,,,,,9.4,5.9,7.4*31
$GPRMC,152333.000,A,4806.8620,N,00139.4208,W,3.61,104.09,090218,,,A*70
arfcn: 1020 bsic: 39 rxLev: -85 ber: 0.00 mcc: 208 mnc: 20 lac: 418 cellId: 38980 cellStatus: CELL_SUITABLE numArfcn: 1 arfcn: 1020 numChannels: 26 array: 787 788 790 791 793 795 796 879 884 885 978 979 981 982 983 985 986 987 1011 1012 1013 1014 1015 1017 1019 1022 pbcch: 0 nom: 2 rac: 6 spgc: 0 pat: 6 nco: 0 t3168: 1500 t3192: 500 drxmax: 0 ctrlAck: 0 bsCVmax: 8 alpha: 6 pcMeasCh: 1 
$GPGGA,152334.000,4806.8624,N,00139.4193,W,1,04,5.9,17.4,M,48.3,M,,0000*7F
$GPGSA,M,3,15,19,17,25,,,,,,,,,9.4,5.9,7.4*31
$GPGSV,3,1,12,15,46,169,17,19,36,087,23,17,31,061,25,25,12,226,08*7B
$GPGSV,3,2,12,13,21,143,04,24,79,321,23,35,00,000,,12,50,217,*75
$GPGSV,3,3,12,10,25,292,,18,23,258,,32,09,315,,20,02,205,*7A
$GPRMC,152334.000,A,4806.8624,N,00139.4193,W,3.81,98.73,090218,,,A*45
$GPGGA,152335.000,4806.8627,N,00139.4177,W,0,00,,17.4,M,48.3,M,,0000*50
$GPGSA,M,1,,,,,,,,,,,,,,,*12
$GPRMC,152335.000,V,4806.8627,N,00139.4177,W,,,090218,,,N*6A
arfcn: 512 bsic: 25 rxLev: -85 ber: 1.04 mcc: 208 mnc: 01 lac: 10300 cellId: 40155 cellStatus: CELL_FORBIDDEN numArfcn: 16 arfcn: 519 520 521 522 523 524 525 526 596 597 598 599 600 601 602 603 numChannels: 16 array: 2 3 5 8 10 11 12 15 16 517 518 604 605 606 609 610 pbcch: 0 nom: 2 rac: 1 spgc: 0 pat: 6 nco: 0 t3168: 1000 t3192: 500 drxmax: 2 ctrlAck: 0 bsCVmax: 9 alpha: 5 pcMeasCh: 1 
arfcn: 95 rxLev: -85
arfcn: 92 rxLev: -85
arfcn: 42 rxLev: -85
arfcn: 41 rxLev: -85
arfcn: 824 rxLev: -85
arfcn: 828 rxLev: -85
arfcn: 847 rxLev: -85
arfcn: 842 rxLev: -85
arfcn: 857 rxLev: -85
$GPGGA,152336.000,4806.8626,N,00139.4152,W,1,04,5.9,17.8,M,48.3,M,,0000*7E
arfcn: 862 rxLev: -85
arfcn: 863 rxLev: -85
$GPGSA,M,3,15,19,17,25,,,,,,,,,9.5,5.9,7.4*30
arfcn: 871 rxLev: -85
arfcn: 874 rxLev: -85
$GPRMC,152336.000,A,4806.8626,N,00139.4152,W,5.02,90.98,090218,,,A*48
arfcn: 875 rxLev: -85
arfcn: 879 rxLev: -85
arfcn: 796 rxLev: -85
arfcn: 800 rxLev: -85
arfcn: 820 rxLev: -85
arfcn: 819 rxLev: -85
arfcn: 809 rxLev: -85
$GPGGA,152337.083,4806.8629,N,00139.4130,W,0,00,,17.8,M,48.3,M,,0000*58
arfcn: 813 rxLev: -86
$GPGSA,M,1,,,,,,,,,,,,,,,*12
arfcn: 818 rxLev: -86
arfcn: 877 rxLev: -86
$GPRMC,152337.083,V,4806.8629,N,00139.4130,W,,,090218,,,N*6E
arfcn: 872 rxLev: -86
arfcn: 864 rxLev: -86
arfcn: 865 rxLev: -86
arfcn: 856 rxLev: -86
arfcn: 860 rxLev: -86
arfcn: 832 rxLev: -86
$GPGGA,152338.000,4806.8633,N,00139.4112,W,0,00,,17.8,M,48.3,M,,0000*57
$GPGSA,M,1,,,,,,,,,,,,,,,*12
$GPRMC,152338.000,V,4806.8633,N,00139.4112,W,,,090218,,,N*61
$GPGGA,152339.082,4806.8637,N,00139.4090,W,0,00,,17.8,M,48.3,M,,0000*53
$GPGSA,M,1,,,,,,,,,,,,,,,*12
$GPGSV,3,1,12,15,46,169,16,17,31,061,25,19,36,087,23,24,79,321,24*7E
$GPGSV,3,2,12,25,12,226,06,35,00,000,,12,50,217,,10,25,292,*74
$GPGSV,3,3,12,18,23,258,,13,21,143,,32,09,315,,20,02,205,*72
$GPRMC,152339.082,V,4806.8637,N,00139.4090,W,,,090218,,,N*65
arfcn: 4 bsic: 54 rxLev: -86 ber: 0.10 mcc: 208 mnc: 01 lac: 10300 cellId: 43768 cellStatus: CELL_FORBIDDEN numArfcn: 13 arfcn: 4 17 18 19 20 21 22 23 24 25 47 48 49 numChannels: 20 array: 1 3 5 6 7 8 12 13 14 513 514 515 517 518 601 605 606 608 609 610 pbcch: 0 nom: 2 rac: 1 spgc: 0 pat: 6 nco: 0 t3168: 1000 t3192: 500 drxmax: 2 ctrlAck: 0 bsCVmax: 9 alpha: 5 pcMeasCh: 1 
arfcn: 96 rxLev: -86
$GPGGA,152340.082,4806.8640,N,00139.4070,W,0,00,,17.8,M,48.3,M,,0000*53
$GPGSA,M,1,,,,,,,,,,,,,,,*12
$GPRMC,152340.082,V,4806.8640,N,00139.4070,W,,,090218,,,N*65
$GPGGA,152341.082,4806.8644,N,00139.4100,W,1,04,5.9,18.0,M,48.3,M,,0000*70
$GPGSA,M,3,15,19,17,25,,,,,,,,,9.5,5.9,7.5*31
$GPRMC,152341.082,A,4806.8644,N,00139.4100,W,2.67,87.64,090218,,,A*40
arfcn: 114 bsic: 6 rxLev: -86 ber: 0.00 mcc: 208 mnc: 10 lac: 49415 cellId: 44202 cellStatus: CELL_FORBIDDEN numArfcn: 2 arfcn: 80 114 numChannels: 20 array: 76 77 78 79 80 84 85 86 113 114 115 116 117 118 119 120 121 122 123 124 pbcch: 0 nom: 2 rac: 31 spgc: 0 pat: 6 nco: 0 t3168: 1000 t3192: 500 drxmax: 4 ctrlAck: 1 bsCVmax: 9 alpha: 10 pcMeasCh: 0 
arfcn: 99 rxLev: -86
arfcn: 98 rxLev: -86
arfcn: 108 rxLev: -86
$GPGGA,152342.087,4806.8656,N,00139.4120,W,1,04,5.9,18.1,M,48.3,M,,0000*76
$GPGSA,M,3,15,19,17,25,,,,,,,,,9.5,5.9,7.5*31
$GPRMC,152342.087,A,4806.8656,N,00139.4120,W,2.06,88.29,090218,,,A*46
$GPGGA,152343.000,4806.8667,N,00139.4141,W,1,04,5.9,18.1,M,48.3,M,,0000*7D
$GPGSA,M,3,15,19,17,25,,,,,,,,,9.5,5.9,7.5*31
arfcn: 78 bsic: 2 rxLev: -86 ber: 0.00 mcc: 208 mnc: 10 lac: 49415 cellId: 45280 cellStatus: CELL_FORBIDDEN numArfcn: 2 arfcn: 78 116 numChannels: 20 array: 76 77 78 79 80 82 83 84 85 86 114 115 116 117 118 120 121 122 123 124 pbcch: 0 nom: 2 rac: 31 spgc: 0 pat: 6 nco: 0 t3168: 1000 t3192: 500 drxmax: 4 ctrlAck: 1 bsCVmax: 9 alpha: 10 pcMeasCh: 0 
$GPRMC,152343.000,A,4806.8667,N,00139.4141,W,1.43,88.62,090218,,,A*40
$GPGGA,152344.000,4806.8673,N,00139.4155,W,1,04,5.9,18.1,M,48.3,M,,0000*7A
$GPGSA,M,3,15,19,17,25,,,,,,,,,9.5,5.9,7.5*31
$GPGSV,3,1,12,15,46,169,17,19,36,087,23,17,31,061,25,25,12,226,14*76
$GPGSV,3,2,12,24,79,321,24,36,00,000,,12,50,217,,10,25,292,*7D
$GPGSV,3,3,12,18,23,258,,13,21,143,,32,09,315,,20,02,205,*72
$GPRMC,152344.000,A,4806.8673,N,00139.4155,W,0.84,88.62,090218,,,A*4D
$GPGGA,152345.000,4806.8671,N,00139.4144,W,1,04,5.9,17.8,M,48.3,M,,0000*7F
$GPGSA,M,3,15,19,17,25,,,,,,,,,9.5,5.9,7.5*31
$GPRMC,152345.000,A,4806.8671,N,00139.4144,W,1.21,91.26,090218,,,A*48
arfcn: 14 bsic: 35 rxLev: -86 ber: 0.00 mcc: 208 mnc: 01 lac: 10300 cellId: 39250 cellStatus: CELL_FORBIDDEN numArfcn: 13 arfcn: 14 17 18 19 20 21 22 23 24 25 47 48 49 numChannels: 14 array: 1 3 4 6 8 10 12 14 512 513 514 517 604 608 pbcch: 0 nom: 2 rac: 1 spgc: 1 pat: 6 nco: 0 t3168: 1000 t3192: 500 drxmax: 4 ctrlAck: 1 bsCVmax: 9 alpha: 7 pcMeasCh: 0 
arfcn: 44 rxLev: -86
arfcn: 45 rxLev: -86
arfcn: 826 rxLev: -86
arfcn: 825 rxLev: -86
arfcn: 876 rxLev: -86
arfcn: 814 rxLev: -86
$GPGGA,152346.000,4806.8680,N,00139.4147,W,1,04,5.9,17.4,M,48.3,M,,0000*7D
arfcn: 812 rxLev: -86
arfcn: 802 rxLev: -86
$GPGSA,M,3,15,19,17,25,,,,,,,,,9.6,5.9,7.5*32
arfcn: 804 rxLev: -87
arfcn: 810 rxLev: -87
$GPRMC,152346.000,A,4806.8680,N,00139.4147,W,1.08,91.26,090218,,,A*4D
arfcn: 808 rxLev: -87
arfcn: 815 rxLev: -87
arfcn: 855 rxLev: -87
arfcn: 827 rxLev: -87
arfcn: 829 rxLev: -87
arfcn: 833 rxLev: -87
arfcn: 843 rxLev: -87
arfcn: 845 rxLev: -87
$GPGGA,152347.000,4806.8703,N,00139.4169,W,1,04,5.9,17.6,M,48.3,M,,0000*78
arfcn: 839 rxLev: -87
arfcn: 841 rxLev: -87
$GPGSA,M,3,15,19,17,25,,,,,,,,,9.6,5.9,7.5*32
arfcn: 91 rxLev: -87
$GPRMC,152347.000,A,4806.8703,N,00139.4169,W,2.09,75.51,090218,,,A*42
arfcn: 107 rxLev: -87
arfcn: 97 rxLev: -87
arfcn: 100 rxLev: -87
$GPGGA,152348.000,4806.8715,N,00139.4178,W,1,04,5.9,17.7,M,48.3,M,,0000*71
$GPGSA,M,3,15,19,17,25,,,,,,,,,9.6,5.9,7.5*32
$GPRMC,152348.000,A,4806.8715,N,00139.4178,W,0.83,75.51,090218,,,A*4A
$GPGGA,152349.000,4806.8720,N,00139.4184,W,1,04,5.9,18.2,M,48.3,M,,0000*7F
$GPGSA,M,3,15,19,17,25,,,,,,,,,9.6,5.9,7.5*32
$GPGSV,3,1,12,15,46,169,17,19,36,087,23,17,31,061,24,25,12,226,15*76
arfcn: 604 bsic: 20 rxLev: -87 ber: 4.01 mcc: 208 mnc: 01 lac: 10300 cellId: 39915 cellStatus: CELL_FORBIDDEN numArfcn: 16 arfcn: 519 520 521 522 523 524 525 526 596 597 598 599 600 601 602 603 numChannels: 13 array: 5 6 10 15 16 512 514 516 517 518 608 609 610 pbcch: 0 nom: 2 rac: 1 spgc: 0 pat: 6 nco: 0 t3168: 1000 t3192: 500 drxmax: 2 ctrlAck: 0 bsCVmax: 9 alpha: 5 pcMeasCh: 1 
$GPGSV,3,2,12,12,50,217,11,24,79,321,23,36,00,000,,10,25,292,*7A
arfcn: 101 rxLev: -87
$GPGSV,3,3,12,18,23,258,,13,21,143,,32,09,315,,20,02,205,*72
arfcn: 102 rxLev: -87
$GPRMC,152349.000,A,4806.8720,N,00139.4184,W,0.82,75.51,090218,,,A*4F
arfcn: 104 rxLev: -87
arfcn: 105 rxLev: -87
arfcn: 106 rxLev: -87
$GPGGA,152350.000,4806.8728,N,00139.4192,W,1,04,5.9,18.6,M,48.3,M,,0000*7C
arfcn: 86 rxLev: -87
$GPGSA,M,3,15,19,17,25,,,,,,,,,9.6,5.9,7.5*32
$GPRMC,152350.000,A,4806.8728,N,00139.4192,W,1.17,74.10,090218,,,A*41
$GPGGA,152351.000,4806.8731,N,00139.4197,W,1,04,5.9,18.5,M,48.3,M,,0000*73
$GPGSA,M,3,15,19,17,25,,,,,,,,,9.6,5.9,7.6*31
$GPRMC,152351.000,A,4806.8731,N,00139.4197,W,0.73,74.10,090218,,,A*4E
arfcn: 76 bsic: 5 rxLev: -87 ber: 0.02 mcc: 208 mnc: 10 lac: 49415 cellId: 44813 cellStatus: CELL_FORBIDDEN numArfcn: 2 arfcn: 76 121 numChannels: 16 array: 76 77 78 79 80 82 84 85 86 113 114 117 118 121 123 124 pbcch: 0 nom: 2 rac: 31 spgc: 0 pat: 6 nco: 0 t3168: 1000 t3192: 500 drxmax: 4 ctrlAck: 1 bsCVmax: 9 alpha: 10 pcMeasCh: 0 
arfcn: 831 rxLev: -87
$GPGGA,152352.000,4806.8732,N,00139.4198,W,1,05,2.7,17.9,M,48.3,M,,0000*77
arfcn: 866 rxLev: -87
$GPGSA,M,3,12,15,19,17,25,,,,,,,,3.8,2.7,2.7*3B
arfcn: 878 rxLev: -87
arfcn: 806 rxLev: -87
$GPRMC,152352.000,A,4806.8732,N,00139.4198,W,1.46,71.60,090218,,,A*44
arfcn: 811 rxLev: -87
arfcn: 791 rxLev: -87
arfcn: 816 rxLev: -88
arfcn: 870 rxLev: -88
arfcn: 868 rxLev: -88
arfcn: 68 rxLev: -88
arfcn: 63 rxLev: -88
$GPGGA,152353.000,4806.8725,N,00139.4184,W,1,05,2.7,16.8,M,48.3,M,,0000*7D
$GPGSA,M,3,12,15,19,17,25,,,,,,,,3.8,2.7,2.7*3B
$GPRMC,152353.000,A,4806.8725,N,00139.4184,W,2.64,74.72,090218,,,A*4B
$GPGGA,152354.000,4806.8717,N,00139.4173,W,1,05,2.7,15.4,M,48.3,M,,0000*7C
$GPGSA,M,3,12,15,19,17,25,,,,,,,,3.8,2.7,2.7*3B
$GPGSV,3,1,12,12,50,217,13,15,46,169,17,19,36,087,23,17,31,061,24*70
$GPGSV,3,2,12,25,12,226,14,24,79,321,24,36,00,000,,10,25,292,*78
$GPGSV,3,3,12,18,23,258,,13,21,143,,32,09,315,,20,02,205,*72
$GPRMC,152354.000,A,4806.8717,N,00139.4173,W,2.11,74.00,090218,,,A*42
$GPGGA,152355.000,4806.8702,N,00139.4157,W,1,05,2.7,14.5,M,48.3,M,,0000*7F
$GPGSA,M,3,12,15,19,17,25,,,,,,,,3.8,2.7,2.7*3B
$GPRMC,152355.000,A,4806.8702,N,00139.4157,W,2.69,76.53,090218,,,A*4A
arfcn: 1014 bsic: 31 rxLev: -88 ber: 1.04 mcc: 208 mnc: 20 lac: 418 cellId: 20649 cellStatus: CELL_SUITABLE numArfcn: 1 arfcn: 1014 numChannels: 25 array: 788 789 790 791 793 795 796 879 884 977 978 979 980 981 982 983 984 985 987 1012 1013 1017 1020 1021 1022 pbcch: 0 nom: 2 rac: 6 spgc: 0 pat: 6 nco: 0 t3168: 1500 t3192: 500 drxmax: 0 ctrlAck: 0 bsCVmax: 8 alpha: 6 pcMeasCh: 1 
arfcn: 62 rxLev: -88
$GPGGA,152356.000,4806.8684,N,00139.4139,W,1,05,2.7,13.1,M,48.3,M,,0000*78
arfcn: 11 rxLev: -88
arfcn: 26 rxLev: -88
$GPGSA,M,3,12,15,19,17,25,,,,,,,,3.8,2.7,2.7*3B
arfcn: 64 rxLev: -88
arfcn: 66 rxLev: -88
$GPRMC,152356.000,A,4806.8684,N,00139.4139,W,3.49,84.50,090218,,,A*43
arfcn: 67 rxLev: -88
arfcn: 79 rxLev: -88
arfcn: 84 rxLev: -88
arfcn: 109 rxLev: -88
arfcn: 103 rxLev: -88
$GPGGA,152357.000,4806.8687,N,00139.4150,W,1,05,2.7,13.0,M,48.3,M,,0000*74
$GPGSA,M,3,12,15,19,17,25,,,,,,,,3.8,2.7,2.7*3B
$GPRMC,152357.000,A,4806.8687,N,00139.4150,W,1.71,86.33,090218,,,A*40
$GPGGA,152358.000,4806.8689,N,00139.4160,W,1,05,2.7,12.5,M,48.3,M,,0000*72
$GPGSA,M,3,12,15,19,17,25,,,,,,,,3.8,2.7,2.7*3B
arfcn: 122 bsic: 3 rxLev: -88 ber: 0.00 mcc: 208 mnc: 10 lac: 49415 cellId: 33517 cellStatus: CELL_FORBIDDEN numArfcn: 3 arfcn: 77 88 122 numChannels: 17 array: 77 78 79 80 82 84 85 86 114 115 117 118 119 120 122 123 124 pbcch: 0 nom: 2 rac: 31 spgc: 0 pat: 6 nco: 0 t3168: 1000 t3192: 500 drxmax: 4 ctrlAck: 1 bsCVmax: 9 alpha: 10 pcMeasCh: 0 
arfcn: 880 rxLev: -88
$GPRMC,152358.000,A,4806.8689,N,00139.4160,W,0.78,86.33,090218,,,A*4A
arfcn: 81 rxLev: -89
arfcn: 65 rxLev: -89
arfcn: 13 rxLev: -89
arfcn: 53 rxLev: -89
arfcn: 514 rxLev: -89
$GPGGA,152359.000,4806.8696,N,00139.4171,W,1,04,6.0,12.8,M,48.3,M,,0000*72
$GPGSA,M,3,15,19,17,25,,,,,,,,,9.7,6.0,7.6*3A
$GPGSV,3,1,12,15,46,169,16,19,36,087,23,17,31,061,24,25,12,226,15*77
$GPGSV,3,2,12,12,50,217,07,24,79,321,24,36,00,000,,10,25,292,*7A
$GPGSV,3,3,12,18,23,258,,13,21,143,,32,09,315,,20,02,205,*72
$GPRMC,152359.000,A,4806.8696,N,00139.4171,W,0.73,86.33,090218,,,A*4E
$GPGGA,152400.000,4806.8698,N,00139.4174,W,1,04,6.0,12.1,M,48.3,M,,0000*7B
$GPGSA,M,3,15,19,17,25,,,,,,,,,9.7,6.0,7.6*3A
$GPRMC,152400.000,A,4806.8698,N,00139.4174,W,1.42,82.08,090218,,,A*41
arfcn: 983 bsic: 21 rxLev: -89 ber: 0.00 mcc: 208 mnc: 20 lac: 418 cellId: 21809 cellStatus: CELL_SUITABLE numArfcn: 1 arfcn: 983 numChannels: 24 array: 788 790 792 793 795 796 878 882 884 976 977 979 981 985 986 987 1012 1013 1014 1016 1017 1019 1020 1022 pbcch: 0 nom: 2 rac: 6 spgc: 0 pat: 6 nco: 0 t3168: 1500 t3192: 500 drxmax: 0 ctrlAck: 0 bsCVmax: 8 alpha: 6 pcMeasCh: 1 
arfcn: 57 rxLev: -89
$GPGGA,152401.000,4806.8694,N,00139.4184,W,1,04,6.0,11.4,M,48.3,M,,0000*7F
arfcn: 69 rxLev: -89
$GPGSA,M,3,15,19,17,25,,,,,,,,,9.7,6.0,7.6*3A
arfcn: 90 rxLev: -89
$GPRMC,152401.000,A,4806.8694,N,00139.4184,W,1.42,72.48,090218,,,A*48
$GPGGA,152402.000,4806.8679,N,00139.4175,W,1,04,6.0,11.6,M,48.3,M,,0000*73
$GPGSA,M,3,15,19,17,25,,,,,,,,,9.7,6.0,7.7*3B
$GPRMC,152402.000,A,4806.8679,N,00139.4175,W,1.30,79.06,090218,,,A*42
arfcn: 117 bsic: 12 rxLev: -89 ber: 0.00 mcc: 208 mnc: 10 lac: 49415 cellId: 3568 cellStatus: CELL_FORBIDDEN numArfcn: 2 arfcn: 82 117 numChannels: 17 array: 76 77 78 79 80 83 84 85 87 113 114 116 117 120 122 123 124 pbcch: 0 nom: 2 rac: 31 spgc: 0 pat: 6 nco: 0 t3168: 1000 t3192: 500 drxmax: 4 ctrlAck: 1 bsCVmax: 9 alpha: 10 pcMeasCh: 0 
$GPGGA,152403.000,4806.8670,N,00139.4171,W,1,05,2.7,11.8,M,48.3,M,,0000*73
arfcn: 881 rxLev: -89
$GPGSA,M,3,12,15,19,17,25,,,,,,,,3.8,2.7,2.7*3B
$GPRMC,152403.000,A,4806.8670,N,00139.4171,W,0.88,79.06,090218,,,A*4C
$GPGGA,152404.000,4806.8668,N,00139.4174,W,1,05,2.7,13.0,M,48.3,M,,0000*72
$GPGSA,M,3,12,15,19,17,25,,,,,,,,3.8,2.7,2.7*3B
$GPGSV,3,1,12,12,50,217,09,15,46,169,16,19,36,087,23,17,31,061,24*7A
$GPGSV,3,2,12,25,12,226,15,24,79,321,24,36,00,000,,10,25,292,*79
$GPGSV,3,3,12,18,23,258,,13,21,143,,32,09,315,,20,02,205,*72
arfcn: 115 bsic: 43 rxLev: -90 ber: 0.00 mcc: 208 mnc: 10 lac: 49415 cellId: 55710 cellStatus: CELL_FORBIDDEN numArfcn: 2 arfcn: 87 115 numChannels: 22 array: 76 77 78 79 80 82 83 84 85 86 113 114 115 116 117 118 119 120 121 122 123 124 pbcch: 0 nom: 2 rac: 31 spgc: 0 pat: 6 nco: 0 t3168: 1000 t3192: 500 drxmax: 4 ctrlAck: 1 bsCVmax: 9 alpha: 10 pcMeasCh: 0 
Survey end at  [aborted]
Survey duration: 79 seconds, 27 bases detected over 200 freqs scanned.
