$GPGSV,3,1,12,22,53,213,16,32,33,076,27,14,32,104,22,27,19,144,12*72
$GPGSV,3,2,12,10,17,050,21,01,60,290,04,33,33,198,,11,71,292,*7D
$GPGSV,3,3,12,08,57,159,,28,32,294,,03,31,218,,17,02,313,*76
$GPRMC,031413.000,A,4806.8625,N,00139.3984,W,0.75,282.82,060218,,,A*7B
Survey start at #CCLK: "18/02/06,04:14:13+04"
at#csurv
Network survey started ...
$GPGGA,031414.000,4806.8626,N,00139.3982,W,1,05,1.7,147.1,M,48.3,M,,0000*49
Survey end at #CCLK: "18/02/06,04:14:13+04"
Survey duration: 0 seconds, 0 bases detected over 0 freqs scanned.
$GPGSA,M,3,22,32,14,27,10,,,,,,,,2.9,1.7,2.4*35
$GPRMC,031414.000,A,4806.8626,N,00139.3982,W,0.78,282.82,060218,,,A*74
$GPGGA,031415.000,4806.8630,N,00139.3981,W,1,04,2.3,147.3,M,48.3,M,,0000*48
$GPGSA,M,3,22,32,14,10,,,,,,,,,3.8,2.3,3.0*32
$GPRMC,031415.000,A,4806.8630,N,00139.3981,W,0.40,282.82,060218,,,A*7A
$GPGGA,031416.000,4806.8633,N,00139.3980,W,1,04,2.3,147.5,M,48.3,M,,0000*4F
$GPGSA,M,3,22,32,14,10,,,,,,,,,3.8,2.3,3.0*32
Survey start at #CCLK: "18/02/06,04:14:15+04"
$GPRMC,031416.000,A,4806.8633,N,00139.3980,W,0.21,282.82,060218,,,A*7C
at#csurv
Network survey started ...
$GPGGA,031417.000,4806.8637,N,00139.3982,W,1,04,2.3,147.8,M,48.3,M,,0000*45
$GPGSA,M,3,22,32,14,10,,,,,,,,,3.8,2.3,3.0*32
$GPRMC,031417.000,A,4806.8637,N,00139.3982,W,0.42,282.82,060218,,,A*7E
$GPGGA,031418.000,4806.8643,N,00139.3987,W,1,04,2.3,147.8,M,48.3,M,,0000*4C
$GPGSA,M,3,22,32,14,10,,,,,,,,,3.8,2.3,3.0*32
$GPGSV,3,1,12,22,53,213,16,32,33,076,27,14,32,104,22,10,17,050,21*7C
$GPGSV,3,2,12,01,60,290,08,27,19,144,04,33,33,198,,11,71,292,*78
$GPGSV,3,3,12,08,57,159,,28,32,294,,03,31,218,,17,02,313,*76
$GPRMC,031418.000,A,4806.8643,N,00139.3987,W,1.18,283.05,060218,,,A*77
$GPGGA,031419.000,4806.8646,N,00139.3992,W,1,04,2.3,147.7,M,48.3,M,,0000*43
$GPGSA,M,3,22,32,14,10,,,,,,,,,3.8,2.3,3.0*32
$GPRMC,031419.000,A,4806.8646,N,00139.3992,W,1.43,281.19,060218,,,A*76
$GPGGA,031420.000,4806.8649,N,00139.3996,W,1,04,2.3,147.8,M,48.3,M,,0000*4D
$GPGSA,M,3,22,32,14,10,,,,,,,,,3.8,2.3,3.0*32
$GPRMC,031420.000,A,4806.8649,N,00139.3996,W,1.56,279.96,060218,,,A*73
$GPGGA,031421.000,4806.8651,N,00139.4002,W,1,04,2.3,147.5,M,48.3,M,,0000*4B
$GPGSA,M,3,22,32,14,10,,,,,,,,,3.8,2.3,3.0*32
$GPRMC,031421.000,A,4806.8651,N,00139.4002,W,1.89,276.60,060218,,,A*7C
arfcn: 981 bsic: 46 rxLev: -53 ber: 0.00 mcc: 208 mnc: 20 lac: 418 cellId: 21807 cellStatus: CELL_SUITABLE numArfcn: 1 arfcn: 981 numChannels: 16 array: 979 982 983 985 1012 1014 1017 1019 1020 787 790 791 793 796 882 884 pbcch: 0 nom: 2 rac: 6 spgc: 0 pat: 6 nco: 0 t3168: 1500 t3192: 500 drxmax: 0 ctrlAck: 0 bsCVmax: 8 alpha: 6 pcMeasCh: 1 
$GPGGA,031422.000,4806.8654,N,00139.4009,W,1,04,2.3,146.7,M,48.3,M,,0000*45
$GPGSA,M,3,22,32,14,10,,,,,,,,,3.8,2.3,3.0*32
$GPRMC,031422.000,A,4806.8654,N,00139.4009,W,1.91,276.88,060218,,,A*7E
$GPGGA,031423.000,4806.8658,N,00139.4013,W,1,04,2.3,146.5,M,48.3,M,,0000*41
$GPGSA,M,3,22,32,14,10,,,,,,,,,3.8,2.3,3.0*32
$GPGSV,3,1,12,22,53,213,16,32,33,076,27,14,32,104,21,10,17,050,22*7C
$GPGSV,3,2,12,01,60,290,07,27,19,144,04,37,27,150,,11,71,292,*72
$GPGSV,3,3,12,08,57,159,,28,32,294,,03,31,218,,17,02,313,*76
$GPRMC,031423.000,A,4806.8658,N,00139.4013,W,1.69,278.67,060218,,,A*70
$GPGGA,031424.000,4806.8660,N,00139.4014,W,1,04,2.3,146.4,M,48.3,M,,0000*4B
$GPGSA,M,3,22,32,14,10,,,,,,,,,3.8,2.3,3.0*32
$GPRMC,031424.000,A,4806.8660,N,00139.4014,W,1.45,278.83,060218,,,A*7F
$GPGGA,031425.000,4806.8663,N,00139.4023,W,1,04,2.3,146.3,M,48.3,M,,0000*4A
$GPGSA,M,3,22,32,14,10,,,,,,,,,3.8,2.3,3.0*32
$GPRMC,031425.000,A,4806.8663,N,00139.4023,W,1.66,278.92,060218,,,A*78
$GPGGA,031426.000,4806.8666,N,00139.4028,W,1,04,2.3,146.2,M,48.3,M,,0000*46
$GPGSA,M,3,22,32,14,10,,,,,,,,,3.8,2.3,3.0*32
$GPRMC,031426.000,A,4806.8666,N,00139.4028,W,1.45,279.05,060218,,,A*7B
$GPGGA,031427.000,4806.8671,N,00139.4036,W,1,04,2.3,146.1,M,48.3,M,,0000*4D
$GPGSA,M,3,22,32,14,10,,,,,,,,,3.8,2.3,3.0*32
$GPRMC,031427.000,A,4806.8671,N,00139.4036,W,1.62,280.74,060218,,,A*76
$GPGGA,031428.000,4806.8675,N,00139.4040,W,1,04,2.3,146.1,M,48.3,M,,0000*47
Survey end at #CCLK: "18/02/06,04:14:27+04"
Survey duration: 11 seconds, 1 bases detected over 1 freqs scanned.
$GPGSA,M,3,22,32,14,10,,,,,,,,,3.8,2.3,3.0*32
$GPGSV,3,1,12,22,53,213,16,32,33,076,27,14,32,104,21,10,17,050,22*7C
$GPGSV,3,2,12,01,60,290,04,37,27,150,,11,71,292,,08,57,159,*7E
$GPGSV,3,3,12,28,32,294,,03,31,218,,27,19,144,,17,02,313,*7D
$GPRMC,031428.000,A,4806.8675,N,00139.4040,W,1.49,283.47,060218,,,A*76
$GPGGA,031429.000,4806.8677,N,00139.4039,W,1,04,2.3,146.0,M,48.3,M,,0000*4B
$GPGSA,M,3,22,32,14,10,,,,,,,,,3.8,2.3,3.0*32
$GPRMC,031429.000,A,4806.8677,N,00139.4039,W,0.87,283.47,060218,,,A*78
Survey start at #CCLK: "18/02/06,04:14:29+04"
at#csurv
Network survey started ...
Survey end at #CCLK: "18/02/06,04:14:29+04"
Survey duration: 0 seconds, 0 bases detected over 0 freqs scanned.
$GPGGA,031430.000,4806.8678,N,00139.4038,W,1,04,2.3,146.0,M,48.3,M,,0000*4D
$GPGSA,M,3,22,32,14,10,,,,,,,,,3.8,2.3,3.0*32
$GPRMC,031430.000,A,4806.8678,N,00139.4038,W,0.46,283.47,060218,,,A*73
$GPGGA,031431.000,4806.8679,N,00139.4036,W,1,04,2.3,145.9,M,48.3,M,,0000*49
$GPGSA,M,3,22,32,14,10,,,,,,,,,3.8,2.3,3.0*32
$GPRMC,031431.000,A,4806.8679,N,00139.4036,W,0.05,283.47,060218,,,A*7A
Survey start at #CCLK: "18/02/06,04:14:31+04"
at#csurv
Network survey started ...
Survey end at #CCLK: "18/02/06,04:14:31+04"
Survey duration: 0 seconds, 0 bases detected over 0 freqs scanned.
