$GPGSA,M,1,,,,,,,,,,,,,,,*12
$GPGSV,3,1,12,10,24,242,23,12,75,073,26,14,29,309,24,15,07,149,17*70
$GPGSV,3,2,12,19,17,039,20,24,47,089,23,25,58,220,24,32,49,299,21*79
$GPGSV,3,3,12,18,10,215,,29,07,168,,31,06,278,,17,04,024,*7A
$GPRMC,195004.272,V,,,,,,,251217,,,N*41
Survey start at #CCLK: "17/12/25,20:50:05+04"
at#csurv
Network survey started ...
Survey end at #CCLK: "17/12/25,20:50:05+04"
Survey duration: 0 seconds, 0 bases detected over 0 freqs scanned.
$GPGGA,195005.276,,,,,0,00,,,M,0.0,M,,0000*5D
$GPGSA,M,1,,,,,,,,,,,,,,,*12
$GPRMC,195005.276,V,,,,,,,251217,,,N*44
$GPGGA,195006.276,,,,,0,00,,,M,0.0,M,,0000*5E
$GPGSA,M,1,,,,,,,,,,,,,,,*12
$GPRMC,195006.276,V,,,,,,,251217,,,N*47
Survey start at #CCLK: "17/12/25,20:50:07+04"
at#csurv
Network survey started ...
$GPGGA,195007.277,,,,,0,00,,,M,0.0,M,,0000*5E
$GPGSA,M,1,,,,,,,,,,,,,,,*12
$GPRMC,195007.277,V,,,,,,,251217,,,N*47
$GPGGA,195008.278,,,,,0,00,,,M,0.0,M,,0000*5E
$GPGSA,M,1,,,,,,,,,,,,,,,*12
$GPRMC,195008.278,V,,,,,,,251217,,,N*47
$GPGGA,195009.276,,,,,0,00,,,M,0.0,M,,0000*51
$GPGSA,M,1,,,,,,,,,,,,,,,*12
$GPGSV,3,1,12,10,24,242,21,12,75,073,23,14,29,309,18,15,07,149,13*7C
$GPGSV,3,2,12,19,17,039,16,24,47,089,25,25,58,220,29,32,49,299,21*77
$GPGSV,3,3,12,18,10,215,,29,07,168,,31,06,278,,17,04,024,*7A
$GPRMC,195009.276,V,,,,,,,251217,,,N*48
$GPGGA,195010.272,,,,,0,00,,,M,0.0,M,,0000*5D
$GPGSA,M,1,,,,,,,,,,,,,,,*12
$GPRMC,195010.272,V,,,,,,,251217,,,N*44
$GPGGA,195011.276,,,,,0,00,,,M,0.0,M,,0000*58
$GPGSA,M,1,,,,,,,,,,,,,,,*12
$GPRMC,195011.276,V,,,,,,,251217,,,N*41
$GPGGA,195012.276,,,,,0,00,,,M,0.0,M,,0000*5B
$GPGSA,M,1,,,,,,,,,,,,,,,*12
$GPRMC,195012.276,V,,,,,,,251217,,,N*42
$GPGGA,195013.276,,,,,0,00,,,M,0.0,M,,0000*5A
$GPGSA,M,1,,,,,,,,,,,,,,,*12
$GPRMC,195013.276,V,,,,,,,251217,,,N*43
$GPGGA,195014.276,,,,,0,00,,,M,0.0,M,,0000*5D
$GPGSA,M,1,,,,,,,,,,,,,,,*12
$GPGSV,3,1,12,10,24,242,24,12,75,073,27,14,29,309,23,15,07,149,12*74
$GPGSV,3,2,12,19,17,039,20,24,47,089,26,25,58,220,26,32,49,299,25*7A
$GPGSV,3,3,12,18,10,215,,29,07,168,,31,06,278,,17,04,024,*7A
$GPRMC,195014.276,V,,,,,,,251217,,,N*44
$GPGGA,195015.276,,,,,0,00,,,M,0.0,M,,0000*5C
$GPGSA,M,1,,,,,,,,,,,,,,,*12
$GPRMC,195015.276,V,,,,,,,251217,,,N*45
$GPGGA,195016.273,,,,,0,00,,,M,0.0,M,,0000*5A
$GPGSA,M,1,,,,,,,,,,,,,,,*12
$GPRMC,195016.273,V,,,,,,,251217,,,N*43
$GPGGA,195017.277,,,,,0,00,,,M,0.0,M,,0000*5F
$GPGSA,M,1,,,,,,,,,,,,,,,*12
$GPRMC,195017.277,V,,,,,,,251217,,,N*46
$GPGGA,195018.276,,,,,0,00,,,M,0.0,M,,0000*51
$GPGSA,M,1,,,,,,,,,,,,,,,*12
$GPRMC,195018.276,V,,,,,,,251217,,,N*48
$GPGGA,195019.276,,,,,0,00,,,M,0.0,M,,0000*50
$GPGSA,M,1,,,,,,,,,,,,,,,*12
$GPGSV,3,1,12,03,00,000,09,06,00,000,19,10,24,242,21,12,75,073,27*7C
$GPGSV,3,2,12,19,17,039,25,24,47,089,31,25,58,220,25,29,07,168,10*71
$GPGSV,3,3,12,31,06,278,17,32,49,299,29,14,29,309,,18,10,215,*7A
$GPRMC,195019.276,V,,,,,,,251217,,,N*49
$GPGGA,195020.276,,,,,0,00,,,M,0.0,M,,0000*5A
$GPGSA,M,1,,,,,,,,,,,,,,,*12
$GPRMC,195020.276,V,,,,,,,251217,,,N*43
$GPGGA,195021.276,,,,,0,00,,,M,0.0,M,,0000*5B
$GPGSA,M,1,,,,,,,,,,,,,,,*12
$GPRMC,195021.276,V,,,,,,,251217,,,N*42
$GPGGA,195022.274,,,,,0,00,,,M,0.0,M,,0000*5A
$GPGSA,M,1,,,,,,,,,,,,,,,*12
$GPRMC,195022.274,V,,,,,,,251217,,,N*43
$GPGGA,195023.276,,,,,0,00,,,M,0.0,M,,0000*59
$GPGSA,M,1,,,,,,,,,,,,,,,*12
$GPRMC,195023.276,V,,,,,,,251217,,,N*40
$GPGGA,195024.276,,,,,0,00,,,M,0.0,M,,0000*5E
$GPGSA,M,1,,,,,,,,,,,,,,,*12
$GPGSV,3,1,12,06,00,000,12,10,24,242,20,12,75,073,27,14,29,309,10*79
$GPGSV,3,2,12,15,07,149,23,17,04,024,20,19,17,039,28,24,47,089,27*7C
$GPGSV,3,3,12,25,58,220,21,31,06,278,12,32,49,299,26,18,10,215,*7D
$GPRMC,195024.276,V,,,,,,,251217,,,N*47
$GPGGA,195025.276,,,,,0,00,,,M,0.0,M,,0000*5F
$GPGSA,M,1,,,,,,,,,,,,,,,*12
arfcn: 1018 bsic: 33 rxLev: -68 ber: 0.00 mcc: 208 mnc: 20 lac: 420 cellId: 20047 cellStatus: CELL_SUITABLE numArfcn: 3 arfcn: 977 987 1018 numChannels: 3 array: 787 879 884 pbcch: 0 nom: 2 rac: 6 spgc: 0 pat: 6 nco: 0 t3168: 1500 t3192: 500 drxmax: 0 ctrlAck: 0 bsCVmax: 8 alpha: 6 pcMeasCh: 1 
$GPRMC,195025.276,V,,,,,,,251217,,,N*46
$GPGGA,195026.287,,,,,0,00,,,M,0.0,M,,0000*52
$GPGSA,M,1,,,,,,,,,,,,,,,*12
$GPRMC,195026.287,V,,,,,,,251217,,,N*4B
arfcn: 123 bsic: 2 rxLev: -72 ber: 0.00 mcc: 208 mnc: 10 lac: 49409 cellId: 55421 cellStatus: CELL_FORBIDDEN numArfcn: 2 arfcn: 79 123 numChannels: 9 array: 77 78 87 113 117 119 120 121 123 pbcch: 0 nom: 2 rac: 30 spgc: 0 pat: 6 nco: 0 t3168: 1000 t3192: 500 drxmax: 4 ctrlAck: 1 bsCVmax: 9 alpha: 10 pcMeasCh: 0 
$GPGGA,195027.278,,,,,0,00,,,M,0.0,M,,0000*53
$GPGSA,M,1,,,,,,,,,,,,,,,*12
$GPRMC,195027.278,V,,,,,,,251217,,,N*4A
$GPGGA,195028.273,,,,,0,00,,,M,0.0,M,,0000*57
$GPGSA,M,1,,,,,,,,,,,,,,,*12
$GPRMC,195028.273,V,,,,,,,251217,,,N*4E
$GPGGA,195029.278,,,,,0,00,,,M,0.0,M,,0000*5D
$GPGSA,M,1,,,,,,,,,,,,,,,*12
arfcn: 77 bsic: 45 rxLev: -74 ber: 0.00 mcc: 208 mnc: 10 lac: 49409 cellId: 55473 cellStatus: CELL_FORBIDDEN numArfcn: 2 arfcn: 77 117 numChannels: 12 array: 76 77 78 85 86 87 113 119 120 121 122 123 pbcch: 0 nom: 2 rac: 30 spgc: 0 pat: 6 nco: 0 t3168: 1000 t3192: 500 drxmax: 4 ctrlAck: 1 bsCVmax: 9 alpha: 10 pcMeasCh: 0 
$GPGSV,3,1,12,10,24,242,24,12,75,073,26,14,29,309,10,15,07,149,26*72
$GPGSV,3,2,12,17,04,024,21,19,17,039,20,24,47,089,31,25,58,220,30*75
$GPGSV,3,3,12,29,07,168,25,32,49,299,22,18,10,215,,31,06,278,*77
$GPRMC,195029.278,V,,,,,,,251217,,,N*44
$GPGGA,195030.278,,,,,0,00,,,M,0.0,M,,0000*55
$GPGSA,M,1,,,,,,,,,,,,,,,*12
$GPRMC,195030.278,V,,,,,,,251217,,,N*4C
$GPGGA,195031.278,,,,,0,00,,,M,0.0,M,,0000*54
$GPGSA,M,1,,,,,,,,,,,,,,,*12
$GPRMC,195031.278,V,,,,,,,251217,,,N*4D
arfcn: 121 bsic: 35 rxLev: -75 ber: 0.00 mcc: 208 mnc: 10 lac: 2901 cellId: 34402 cellStatus: CELL_FORBIDDEN numArfcn: 3 arfcn: 75 84 121 numChannels: 10 array: 77 78 85 86 87 113 117 118 120 124 pbcch: 0 nom: 2 rac: 61 spgc: 0 pat: 6 nco: 0 t3168: 1000 t3192: 500 drxmax: 2 ctrlAck: 0 bsCVmax: 9 alpha: 7 pcMeasCh: 1 
$GPGGA,195032.277,,,,,0,04,,,M,0.0,M,,0000*5C
$GPGSA,M,1,,,,,,,,,,,,,,,*12
$GPRMC,195032.277,V,,,,,,,251217,,,N*41
arfcn: 1 bsic: 33 rxLev: -76 ber: 0.00 mcc: 208 mnc: 01 lac: 6403 cellId: 8086 cellStatus: CELL_FORBIDDEN numArfcn: 13 arfcn: 1 17 18 19 20 21 22 23 24 25 47 48 49 numChannels: 17 array: 5 8 9 10 12 13 14 15 512 515 516 518 604 605 608 609 610 pbcch: 0 nom: 2 rac: 1 spgc: 0 pat: 6 nco: 0 t3168: 1000 t3192: 500 drxmax: 2 ctrlAck: 0 bsCVmax: 9 alpha: 5 pcMeasCh: 1 
arfcn: 985 bsic: 9 rxLev: -77 ber: 0.00 mcc: 208 mnc: 20 lac: 420 cellId: 22634 cellStatus: CELL_SUITABLE numArfcn: 3 arfcn: 985 988 1023 numChannels: 18 array: 975 977 980 982 983 984 985 987 1011 1013 1014 1015 1016 1017 1018 787 879 884 pbcch: 0 nom: 2 rac: 6 spgc: 0 pat: 6 nco: 0 t3168: 1500 t3192: 500 drxmax: 0 ctrlAck: 0 bsCVmax: 8 alpha: 6 pcMeasCh: 1 
$GPGGA,195033.272,,,,,0,04,,,M,0.0,M,,0000*58
$GPGSA,M,1,,,,,,,,,,,,,,,*12
$GPRMC,195033.272,V,,,,,,,251217,,,N*45
$GPGGA,195034.274,,,,,0,05,2.2,,M,0.0,M,,0000*76
$GPGSA,M,1,,,,,,,,,,,,,,,*12
$GPGSV,3,1,12,24,63,107,28,19,26,046,22,15,12,169,,17,10,034,21*73
arfcn: 516 bsic: 2 rxLev: -77 ber: 0.00 mcc: 208 mnc: 01 lac: 6403 cellId: 28403 cellStatus: CELL_FORBIDDEN numArfcn: 16 arfcn: 519 520 521 522 523 524 525 526 596 597 598 599 600 601 602 603 numChannels: 14 array: 1 5 8 9 10 12 13 515 518 604 605 607 608 609 pbcch: 0 nom: 2 rac: 1 spgc: 0 pat: 6 nco: 0 t3168: 1000 t3192: 500 drxmax: 2 ctrlAck: 0 bsCVmax: 9 alpha: 5 pcMeasCh: 1 
$GPGSV,3,2,12,02,07,112,22,10,10,259,23,12,85,319,27,14,18,317,25*7D
$GPGSV,3,3,12,25,45,249,24,29,08,188,21,32,36,304,30,49,35,171,*78
$GPRMC,195034.274,V,,,,,,,251217,,,N*44
$GPGGA,195035.274,,,,,0,05,2.2,,M,0.0,M,,0000*77
$GPGSA,M,1,,,,,,,,,,,,,,,*12
$GPRMC,195035.274,V,,,,,,,251217,,,N*45
$GPGGA,195036.274,,,,,0,05,2.2,,M,0.0,M,,0000*74
arfcn: 120 bsic: 39 rxLev: -81 ber: 0.00 mcc: 208 mnc: 10 lac: 49409 cellId: 4495 cellStatus: CELL_FORBIDDEN numArfcn: 3 arfcn: 111 115 120 numChannels: 14 array: 76 77 80 82 83 85 86 87 113 117 119 120 121 123 pbcch: 0 nom: 2 rac: 30 spgc: 0 pat: 6 nco: 0 t3168: 1000 t3192: 500 drxmax: 4 ctrlAck: 1 bsCVmax: 9 alpha: 10 pcMeasCh: 0 
$GPGSA,M,1,,,,,,,,,,,,,,,*12
$GPRMC,195036.274,V,,,,,,,251217,,,N*46
$GPGGA,195037.000,4715.1319,N,00134.8520,W,1,05,2.2,111.2,M,48.6,M,,0000*4F
$GPGSA,M,3,24,19,15,17,02,,,,,,,,2.7,2.2,1.5*31
$GPRMC,195037.000,A,4715.1319,N,00134.8520,W,0.19,89.37,251217,,,A*4E
$GPGGA,195038.000,4715.1331,N,00134.8545,W,1,05,2.2,111.5,M,48.6,M,,0000*4E
$GPGSA,M,3,24,19,15,17,02,,,,,,,,2.7,2.2,1.5*31
$GPRMC,195038.000,A,4715.1331,N,00134.8545,W,0.97,89.37,251217,,,A*4E
$GPGGA,195039.000,4715.1329,N,00134.8547,W,0,00,,111.8,M,48.6,M,,0000*63
$GPGSA,M,1,,,,,,,,,,,,,,,*12
arfcn: 983 bsic: 28 rxLev: -84 ber: 0.00 mcc: 208 mnc: 20 lac: 420 cellId: 22465 cellStatus: CELL_SUITABLE numArfcn: 1 arfcn: 983 numChannels: 14 array: 975 977 978 980 981 982 983 984 985 987 1012 1014 1015 1019 pbcch: 0 nom: 2 rac: 6 spgc: 0 pat: 6 nco: 0 t3168: 1500 t3192: 500 drxmax: 0 ctrlAck: 0 bsCVmax: 8 alpha: 6 pcMeasCh: 1 
arfcn: 8 rxLev: -84
$GPGSV,3,1,12,02,07,112,07,10,10,259,13,12,85,319,30,14,18,317,24*7D
arfcn: 67 rxLev: -85
$GPGSV,3,2,12,17,10,034,16,19,26,046,22,24,63,107,28,25,45,249,28*7E
arfcn: 996 rxLev: -85
arfcn: 998 rxLev: -85
$GPGSV,3,3,12,29,08,188,13,32,36,304,27,49,35,171,,15,12,169,*79
arfcn: 997 rxLev: -85
arfcn: 991 rxLev: -85
$GPRMC,195039.000,V,4715.1329,N,00134.8547,W,,,251217,,,N*67
arfcn: 1017 rxLev: -85
arfcn: 68 rxLev: -85
$GPGGA,195040.000,,,,,0,05,2.2,,M,0.0,M,,0000*74
$GPGSA,M,1,,,,,,,,,,,,,,,*12
$GPRMC,195040.000,V,,,,,,,251217,,,N*46
$GPGGA,195041.074,,,,,0,05,2.2,,M,0.0,M,,0000*76
$GPGSA,M,1,,,,,,,,,,,,,,,*12
$GPRMC,195041.074,V,,,,,,,251217,,,N*44
arfcn: 82 bsic: 58 rxLev: -85 ber: 2.04 mcc: 208 mnc: 10 lac: 49409 cellId: 24495 cellStatus: CELL_FORBIDDEN numArfcn: 3 arfcn: 75 82 89 numChannels: 12 array: 76 77 81 82 83 86 113 117 119 120 121 122 pbcch: 0 nom: 2 rac: 30 spgc: 0 pat: 6 nco: 0 t3168: 1000 t3192: 500 drxmax: 4 ctrlAck: 1 bsCVmax: 9 alpha: 10 pcMeasCh: 0 
$GPGGA,195042.000,,,,,0,05,2.2,,M,0.0,M,,0000*76
$GPGSA,M,1,,,,,,,,,,,,,,,*12
$GPRMC,195042.000,V,,,,,,,251217,,,N*44
$GPGGA,195043.000,4715.1332,N,00134.8461,W,1,05,2.2,110.2,M,48.6,M,,0000*40
$GPGSA,M,3,24,19,15,17,02,,,,,,,,2.7,2.2,1.5*31
$GPRMC,195043.000,A,4715.1332,N,00134.8461,W,0.76,89.37,251217,,,A*49
$GPGGA,195044.000,4715.1335,N,00134.8460,W,1,05,2.2,110.3,M,48.6,M,,0000*40
$GPGSA,M,3,24,19,15,17,02,,,,,,,,2.7,2.2,1.5*31
$GPGSV,3,1,12,24,63,107,25,19,26,046,22,15,12,169,,17,10,034,20*7F
$GPGSV,3,2,12,02,07,112,17,10,10,259,26,12,85,319,30,14,18,317,24*79
$GPGSV,3,3,12,25,45,249,28,29,08,188,24,32,36,304,27,49,35,171,*77
$GPRMC,195044.000,A,4715.1335,N,00134.8460,W,0.55,89.37,251217,,,A*49
$GPGGA,195045.000,4715.1336,N,00134.8452,W,1,05,2.2,109.9,M,48.6,M,,0000*41
$GPGSA,M,3,24,19,15,17,02,,,,,,,,2.7,2.2,1.5*31
$GPRMC,195045.000,A,4715.1336,N,00134.8452,W,0.98,89.37,251217,,,A*4B
arfcn: 122 bsic: 56 rxLev: -85 ber: 10.06 mcc: 208 mnc: 10 lac: 49409 cellId: 55472 cellStatus: CELL_FORBIDDEN numArfcn: 0 arfcn: numChannels: 0 array: pbcch: 0 nom: 2 rac: 30 spgc: 0 pat: 6 nco: 0 t3168: 1000 t3192: 500 drxmax: 4 ctrlAck: 1 bsCVmax: 9 alpha: 10 pcMeasCh: 0 
arfcn: 100 rxLev: -85
$GPGGA,195046.000,4715.1338,N,00134.8455,W,1,05,2.2,109.4,M,48.6,M,,0000*46
$GPGSA,M,3,24,19,15,17,02,,,,,,,,2.7,2.2,1.5*31
$GPRMC,195046.000,A,4715.1338,N,00134.8455,W,0.51,89.37,251217,,,A*44
$GPGGA,195047.000,4715.1339,N,00134.8453,W,1,05,2.2,109.7,M,48.6,M,,0000*43
$GPGSA,M,3,24,19,15,17,02,,,,,,,,2.7,2.2,1.5*31
$GPRMC,195047.000,A,4715.1339,N,00134.8453,W,0.70,89.37,251217,,,A*41
$GPGGA,195048.000,4715.1340,N,00134.8444,W,1,05,2.2,109.3,M,48.6,M,,0000*40
$GPGSA,M,3,24,19,15,17,02,,,,,,,,2.7,2.2,1.5*31
$GPRMC,195048.000,A,4715.1340,N,00134.8444,W,1.19,92.06,251217,,,A*40
$GPGGA,195049.000,4715.1345,N,00134.8448,W,1,06,1.9,108.8,M,48.6,M,,0000*49
$GPGSA,M,3,24,19,15,06,17,02,,,,,,,2.5,1.9,1.7*3F
$GPGSV,3,1,12,24,63,107,19,19,26,046,21,15,12,169,,06,10,082,13*7E
$GPGSV,3,2,12,17,10,034,20,02,07,112,16,10,10,259,19,12,85,319,21*79
$GPGSV,3,3,12,14,18,317,18,25,45,249,25,32,36,304,14,49,35,171,*7E
$GPRMC,195049.000,A,4715.1345,N,00134.8448,W,0.98,92.06,251217,,,A*40
$GPGGA,195050.000,4715.1348,N,00134.8440,W,1,06,1.9,107.7,M,48.6,M,,0000*44
$GPGSA,M,3,24,19,15,06,17,02,,,,,,,2.5,1.9,1.7*3F
$GPRMC,195050.000,A,4715.1348,N,00134.8440,W,1.67,81.72,251217,,,A*4D
$GPGGA,195051.000,4715.1353,N,00134.8446,W,1,06,1.9,107.9,M,48.6,M,,0000*47
$GPGSA,M,3,24,19,15,06,17,02,,,,,,,2.5,1.9,1.7*3F
$GPRMC,195051.000,A,4715.1353,N,00134.8446,W,1.27,76.97,251217,,,A*47
$GPGGA,195052.000,4715.1360,N,00134.8451,W,1,05,2.5,108.1,M,48.6,M,,0000*49
$GPGSA,M,3,24,19,15,06,02,,,,,,,,3.1,2.5,1.8*3C
$GPRMC,195052.000,A,4715.1360,N,00134.8451,W,1.70,70.84,251217,,,A*44
arfcn: 10 bsic: 21 rxLev: -85 ber: 0.01 mcc: 208 mnc: 01 lac: 6403 cellId: 8079 cellStatus: CELL_FORBIDDEN numArfcn: 13 arfcn: 10 17 18 19 20 21 22 23 24 25 47 48 49 numChannels: 24 array: 1 4 5 6 7 8 9 10 11 12 13 15 512 513 514 515 516 517 604 605 607 608 609 610 pbcch: 0 nom: 2 rac: 1 spgc: 1 pat: 6 nco: 0 t3168: 1000 t3192: 500 drxmax: 4 ctrlAck: 1 bsCVmax: 9 alpha: 7 pcMeasCh: 0 
arfcn: 57 rxLev: -86
$GPGGA,195053.000,4715.1365,N,00134.8459,W,1,06,1.9,107.8,M,48.6,M,,0000*4F
arfcn: 59 rxLev: -86
$GPGSA,M,3,24,19,15,06,17,02,,,,,,,2.5,1.9,1.7*3F
arfcn: 63 rxLev: -86
arfcn: 96 rxLev: -86
$GPRMC,195053.000,A,4715.1365,N,00134.8459,W,1.19,68.54,251217,,,A*43
arfcn: 98 rxLev: -86
arfcn: 99 rxLev: -86
arfcn: 107 rxLev: -86
arfcn: 977 rxLev: -86
arfcn: 69 rxLev: -86
arfcn: 66 rxLev: -86
arfcn: 518 rxLev: -86
arfcn: 1019 rxLev: -86
$GPGGA,195054.000,4715.1369,N,00134.8468,W,1,06,1.9,107.4,M,48.6,M,,0000*4A
arfcn: 64 rxLev: -86
$GPGSA,M,3,24,19,15,06,17,02,,,,,,,2.5,1.9,1.7*3F
arfcn: 93 rxLev: -86
arfcn: 95 rxLev: -86
$GPGSV,3,1,12,24,63,107,23,19,26,046,20,15,12,169,,06,10,082,12*77
$GPGSV,3,2,12,17,10,034,11,02,07,112,15,10,10,259,19,12,85,319,23*7A
$GPGSV,3,3,12,14,18,317,18,25,45,249,26,32,36,304,18,49,35,171,*71
$GPRMC,195054.000,A,4715.1369,N,00134.8468,W,0.90,68.54,251217,,,A*4A
$GPGGA,195055.000,4715.1372,N,00134.8481,W,1,06,1.9,106.9,M,48.6,M,,0000*4A
$GPGSA,M,3,24,19,15,06,17,02,,,,,,,2.5,1.9,1.7*3F
$GPRMC,195055.000,A,4715.1372,N,00134.8481,W,0.74,68.54,251217,,,A*4C
$GPGGA,195056.000,4715.1372,N,00134.8477,W,1,06,1.9,107.3,M,48.6,M,,0000*4B
$GPGSA,M,3,24,19,15,06,17,02,,,,,,,2.5,1.9,1.7*3F
$GPRMC,195056.000,A,4715.1372,N,00134.8477,W,0.51,68.54,251217,,,A*41
arfcn: 117 bsic: 21 rxLev: -86 ber: 0.08 mcc: 208 mnc: 10 lac: 49409 cellId: 55420 cellStatus: CELL_FORBIDDEN numArfcn: 2 arfcn: 112 117 numChannels: 15 array: 78 84 85 86 113 114 115 117 118 119 120 121 122 123 124 pbcch: 0 nom: 2 rac: 30 spgc: 0 pat: 6 nco: 0 t3168: 1000 t3192: 500 drxmax: 4 ctrlAck: 1 bsCVmax: 9 alpha: 10 pcMeasCh: 0 
arfcn: 104 rxLev: -86
arfcn: 101 rxLev: -86
arfcn: 102 rxLev: -86
arfcn: 62 rxLev: -86
arfcn: 60 rxLev: -86
arfcn: 61 rxLev: -86
arfcn: 58 rxLev: -86
arfcn: 56 rxLev: -86
$GPGGA,195057.000,4715.1371,N,00134.8490,W,1,06,1.9,107.9,M,48.6,M,,0000*4A
arfcn: 54 rxLev: -87
arfcn: 55 rxLev: -87
$GPGSA,M,3,24,19,15,06,17,02,,,,,,,2.5,1.9,1.7*3F
arfcn: 103 rxLev: -87
$GPRMC,195057.000,A,4715.1371,N,00134.8490,W,0.56,68.54,251217,,,A*4D
arfcn: 97 rxLev: -87
arfcn: 108 rxLev: -87
arfcn: 124 rxLev: -87
arfcn: 94 rxLev: -87
arfcn: 92 rxLev: -87
arfcn: 65 rxLev: -87
arfcn: 992 rxLev: -87
arfcn: 999 rxLev: -87
arfcn: 1003 rxLev: -87
$GPGGA,195058.000,4715.1371,N,00134.8498,W,1,06,1.9,107.6,M,48.6,M,,0000*42
arfcn: 1004 rxLev: -87
arfcn: 1007 rxLev: -87
$GPGSA,M,3,24,19,15,06,17,02,,,,,,,2.5,1.9,1.7*3F
arfcn: 990 rxLev: -87
$GPRMC,195058.000,A,4715.1371,N,00134.8498,W,0.93,68.54,251217,,,A*43
arfcn: 70 rxLev: -87
arfcn: 91 rxLev: -87
arfcn: 105 rxLev: -87
arfcn: 106 rxLev: -87
arfcn: 39 rxLev: -87
arfcn: 38 rxLev: -88
arfcn: 34 rxLev: -88
arfcn: 41 rxLev: -88
arfcn: 43 rxLev: -88
$GPGGA,195059.000,4715.1370,N,00134.8500,W,1,05,2.2,107.8,M,48.6,M,,0000*47
$GPGSA,M,3,24,19,15,17,02,,,,,,,,2.7,2.2,1.5*31
arfcn: 44 rxLev: -88
arfcn: 53 rxLev: -88
$GPGSV,3,1,12,24,63,107,21,19,26,046,18,15,12,169,,17,10,034,17*76
arfcn: 87 rxLev: -88
arfcn: 71 rxLev: -88
$GPGSV,3,2,12,02,07,112,14,10,10,259,27,12,85,319,23,14,18,317,19*77
arfcn: 993 rxLev: -88
arfcn: 1002 rxLev: -88
$GPGSV,3,3,12,25,45,249,30,29,08,188,11,32,36,304,32,49,35,171,*7C
arfcn: 1000 rxLev: -88
arfcn: 1001 rxLev: -88
$GPRMC,195059.000,A,4715.1370,N,00134.8500,W,0.67,68.54,251217,,,A*48
arfcn: 995 rxLev: -88
arfcn: 608 rxLev: -88
$GPGGA,195100.000,4715.1371,N,00134.8508,W,1,05,2.2,107.9,M,48.6,M,,0000*42
arfcn: 994 rxLev: -88
arfcn: 1005 rxLev: -88
$GPGSA,M,3,24,19,15,17,02,,,,,,,,2.7,2.2,1.5*31
arfcn: 1006 rxLev: -88
arfcn: 1008 rxLev: -88
$GPRMC,195100.000,A,4715.1371,N,00134.8508,W,0.54,68.54,251217,,,A*4C
arfcn: 76 rxLev: -88
arfcn: 109 rxLev: -88
arfcn: 42 rxLev: -88
arfcn: 40 rxLev: -88
arfcn: 35 rxLev: -88
arfcn: 33 rxLev: -88
arfcn: 36 rxLev: -88
arfcn: 37 rxLev: -88
$GPGGA,195101.000,4715.1372,N,00134.8510,W,1,05,2.2,107.8,M,48.6,M,,0000*48
$GPGSA,M,3,24,19,15,17,02,,,,,,,,2.7,2.2,1.5*31
$GPRMC,195101.000,A,4715.1372,N,00134.8510,W,0.39,68.54,251217,,,A*4C
$GPGGA,195102.000,4715.1373,N,00134.8510,W,1,05,2.2,107.1,M,48.6,M,,0000*43
$GPGSA,M,3,24,19,15,17,02,,,,,,,,2.7,2.2,1.5*31
$GPRMC,195102.000,A,4715.1373,N,00134.8510,W,0.19,68.54,251217,,,A*4C
$GPGGA,195103.000,4715.1376,N,00134.8520,W,1,05,2.2,107.1,M,48.6,M,,0000*44
$GPGSA,M,3,24,19,15,17,02,,,,,,,,2.7,2.2,1.5*31
$GPRMC,195103.000,A,4715.1376,N,00134.8520,W,0.61,68.54,251217,,,A*44
$GPGGA,195104.000,4715.1377,N,00134.8530,W,1,05,2.2,107.1,M,48.6,M,,0000*43
$GPGSA,M,3,24,19,15,17,02,,,,,,,,2.7,2.2,1.5*31
$GPGSV,3,1,12,24,63,107,17,19,26,046,11,15,12,169,,17,10,034,15*78
$GPGSV,3,2,12,02,07,112,14,10,10,259,16,12,85,319,19,14,18,317,18*7D
$GPGSV,3,3,12,25,45,249,19,29,08,188,11,32,36,304,18,49,35,171,*7F
$GPRMC,195104.000,A,4715.1377,N,00134.8530,W,0.76,68.54,251217,,,A*45
$GPGGA,195105.000,4715.1378,N,00134.8535,W,1,05,2.2,106.9,M,48.6,M,,0000*41
$GPGSA,M,3,24,19,15,17,02,,,,,,,,2.7,2.2,1.5*31
$GPRMC,195105.000,A,4715.1378,N,00134.8535,W,0.83,68.54,251217,,,A*44
$GPGGA,195106.000,4715.1382,N,00134.8540,W,1,05,2.2,106.7,M,48.6,M,,0000*4B
$GPGSA,M,3,24,19,15,17,02,,,,,,,,2.7,2.2,1.5*31
$GPRMC,195106.000,A,4715.1382,N,00134.8540,W,1.00,68.54,251217,,,A*4A
$GPGGA,195107.000,4715.1386,N,00134.8545,W,1,05,2.2,106.9,M,48.6,M,,0000*45
$GPGSA,M,3,24,19,15,17,02,,,,,,,,2.7,2.2,1.5*31
$GPRMC,195107.000,A,4715.1386,N,00134.8545,W,1.41,49.49,251217,,,A*40
$GPGGA,195108.000,4715.1388,N,00134.8544,W,1,05,2.2,107.2,M,48.6,M,,0000*4F
$GPGSA,M,3,24,19,15,17,02,,,,,,,,2.7,2.2,1.5*31
$GPRMC,195108.000,A,4715.1388,N,00134.8544,W,1.33,38.73,251217,,,A*4A
arfcn: 6 bsic: 31 rxLev: -88 ber: 5.09 mcc: 208 mnc: 01 lac: 6403 cellId: 8083 cellStatus: CELL_FORBIDDEN numArfcn: 13 arfcn: 6 17 18 19 20 21 22 23 24 25 47 48 49 numChannels: 17 array: 2 4 5 6 8 9 10 15 512 513 515 518 604 606 607 608 610 pbcch: 0 nom: 2 rac: 1 spgc: 1 pat: 6 nco: 0 t3168: 1000 t3192: 500 drxmax: 4 ctrlAck: 1 bsCVmax: 9 alpha: 7 pcMeasCh: 0 
arfcn: 119 rxLev: -89
$GPGGA,195109.000,4715.1391,N,00134.8545,W,1,05,2.2,107.0,M,48.6,M,,0000*45
arfcn: 78 rxLev: -89
$GPGSA,M,3,24,19,15,17,02,,,,,,,,2.7,2.2,1.5*31
arfcn: 15 rxLev: -89
arfcn: 28 rxLev: -89
$GPGSV,3,1,12,24,63,107,16,19,26,046,11,15,12,169,,17,10,034,14*78
arfcn: 29 rxLev: -89
$GPGSV,3,2,12,02,07,112,13,10,10,259,15,12,85,319,18,25,45,249,19*79
arfcn: 30 rxLev: -89
arfcn: 31 rxLev: -89
$GPGSV,3,3,12,32,36,304,17,49,35,171,,14,18,317,,06,10,082,*77
$GPRMC,195109.000,A,4715.1391,N,00134.8545,W,1.41,30.70,251217,,,A*4C
arfcn: 45 rxLev: -89
$GPGGA,195110.000,4715.1393,N,00134.8546,W,1,05,2.2,106.8,M,48.6,M,,0000*45
$GPGSA,M,3,24,19,15,17,02,,,,,,,,2.7,2.2,1.5*31
$GPRMC,195110.000,A,4715.1393,N,00134.8546,W,1.25,25.47,251217,,,A*47
$GPGGA,195111.000,4715.1398,N,00134.8555,W,1,05,2.2,106.8,M,48.6,M,,0000*4D
$GPGSA,M,3,24,19,15,17,02,,,,,,,,2.7,2.2,1.5*31
$GPRMC,195111.000,A,4715.1398,N,00134.8555,W,1.86,8.29,251217,,,A*71
arfcn: 980 bsic: 14 rxLev: -89 ber: 12.07 mcc: FFF mnc: FF lac: 65535 cellId: 0 cellStatus: CELL_OTHER numArfcn: 0 arfcn: numChannels: 0 array:
arfcn: 984 rxLev: -90
arfcn: 32 rxLev: -90
arfcn: 110 rxLev: -90
arfcn: 512 rxLev: -90
arfcn: 72 rxLev: -91
$GPGGA,195112.000,4715.1401,N,00134.8562,W,1,05,2.2,106.5,M,48.6,M,,0000*40
arfcn: 52 rxLev: -91
arfcn: 27 rxLev: -91
$GPGSA,M,3,24,19,15,17,02,,,,,,,,2.7,2.2,1.5*31
arfcn: 81 rxLev: -91
$GPRMC,195112.000,A,4715.1401,N,00134.8562,W,2.14,353.15,251217,,,A*7B
arfcn: 90 rxLev: -91
arfcn: 803 rxLev: -91
arfcn: 804 rxLev: -91
arfcn: 806 rxLev: -91
arfcn: 816 rxLev: -91
arfcn: 815 rxLev: -92
arfcn: 819 rxLev: -92
arfcn: 805 rxLev: -92
arfcn: 833 rxLev: -92
$GPGGA,195113.000,4715.1405,N,00134.8572,W,1,05,2.2,106.2,M,48.6,M,,0000*43
arfcn: 976 rxLev: -92
arfcn: 514 rxLev: -92
$GPGSA,M,3,24,19,15,17,02,,,,,,,,2.7,2.2,1.5*31
arfcn: 517 rxLev: -92
arfcn: 1014 rxLev: -92
$GPRMC,195113.000,A,4715.1405,N,00134.8572,W,2.45,337.51,251217,,,A*79
arfcn: 986 rxLev: -92
arfcn: 5 rxLev: -92
arfcn: 831 rxLev: -92
arfcn: 807 rxLev: -92
arfcn: 808 rxLev: -92
arfcn: 809 rxLev: -92
arfcn: 810 rxLev: -92
$GPGGA,195114.000,4715.1407,N,00134.8578,W,1,06,1.9,105.9,M,48.6,M,,0000*4F
arfcn: 820 rxLev: -92
$GPGSA,M,3,24,19,15,06,17,02,,,,,,,2.5,1.9,1.7*3F
arfcn: 821 rxLev: -92
arfcn: 826 rxLev: -92
$GPGSV,3,1,12,24,63,107,17,19,26,046,11,15,12,169,,06,10,082,19*79
arfcn: 817 rxLev: -92
arfcn: 818 rxLev: -92
$GPGSV,3,2,12,17,10,034,12,02,07,112,23,10,10,259,14,12,85,319,18*79
arfcn: 811 rxLev: -92
arfcn: 814 rxLev: -92
$GPGSV,3,3,12,25,45,249,20,32,36,304,21,49,35,171,,14,18,317,*74
arfcn: 812 rxLev: -93
arfcn: 825 rxLev: -93
$GPRMC,195114.000,A,4715.1407,N,00134.8578,W,2.53,323.83,251217,,,A*7B
arfcn: 822 rxLev: -93
arfcn: 832 rxLev: -93
arfcn: 827 rxLev: -93
$GPGGA,195115.000,4715.1409,N,00134.8579,W,1,06,1.9,105.4,M,48.6,M,,0000*4C
arfcn: 828 rxLev: -93
$GPGSA,M,3,24,19,15,06,17,02,,,,,,,2.5,1.9,1.7*3F
arfcn: 835 rxLev: -93
arfcn: 841 rxLev: -93
$GPRMC,195115.000,A,4715.1409,N,00134.8579,W,1.92,320.03,251217,,,A*70
arfcn: 849 rxLev: -93
arfcn: 851 rxLev: -93
arfcn: 2 rxLev: -93
arfcn: 9 rxLev: -93
arfcn: 7 rxLev: -93
arfcn: 843 rxLev: -93
arfcn: 845 rxLev: -93
arfcn: 842 rxLev: -93
$GPGGA,195116.000,4715.1411,N,00134.8582,W,1,05,2.5,105.1,M,48.6,M,,0000*4B
arfcn: 840 rxLev: -93
$GPGSA,M,3,24,19,15,06,02,,,,,,,,3.1,2.5,1.8*3C
arfcn: 836 rxLev: -93
arfcn: 829 rxLev: -93
$GPRMC,195116.000,A,4715.1411,N,00134.8582,W,1.38,319.21,251217,,,A*74
arfcn: 830 rxLev: -93
arfcn: 834 rxLev: -93
arfcn: 859 rxLev: -93
arfcn: 823 rxLev: -93
arfcn: 824 rxLev: -93
arfcn: 813 rxLev: -93
arfcn: 865 rxLev: -94
arfcn: 866 rxLev: -94
$GPGGA,195117.000,4715.1410,N,00134.8584,W,1,05,2.5,104.9,M,48.6,M,,0000*44
arfcn: 837 rxLev: -94
arfcn: 839 rxLev: -94
$GPGSA,M,3,24,19,15,06,02,,,,,,,,3.1,2.5,1.8*3C
arfcn: 846 rxLev: -94
$GPRMC,195117.000,A,4715.1410,N,00134.8584,W,1.06,319.21,251217,,,A*7F
arfcn: 844 rxLev: -94
arfcn: 850 rxLev: -94
arfcn: 847 rxLev: -94
arfcn: 848 rxLev: -94
arfcn: 852 rxLev: -94
arfcn: 853 rxLev: -94
arfcn: 857 rxLev: -94
arfcn: 858 rxLev: -94
arfcn: 0 rxLev: -94
$GPGGA,195118.000,4715.1415,N,00134.8606,W,1,05,2.5,104.7,M,48.6,M,,0000*49
arfcn: 46 rxLev: -94
$GPGSA,M,3,24,19,15,06,02,,,,,,,,3.1,2.5,1.8*3C
arfcn: 989 rxLev: -94
$GPRMC,195118.000,A,4715.1415,N,00134.8606,W,1.96,318.55,251217,,,A*77
arfcn: 666 rxLev: -94
arfcn: 607 rxLev: -94
arfcn: 515 rxLev: -94
arfcn: 73 rxLev: -94
arfcn: 855 rxLev: -94
arfcn: 856 rxLev: -94
arfcn: 838 rxLev: -94
arfcn: 860 rxLev: -94
arfcn: 861 rxLev: -94
$GPGGA,195119.000,4715.1417,N,00134.8609,W,1,05,2.5,104.4,M,48.6,M,,0000*46
arfcn: 862 rxLev: -94
$GPGSA,M,3,24,19,15,06,02,,,,,,,,3.1,2.5,1.8*3C
arfcn: 868 rxLev: -94
arfcn: 869 rxLev: -95
$GPGSV,3,1,12,24,63,107,19,19,26,046,18,15,12,169,,06,10,082,28*7C
arfcn: 863 rxLev: -95
arfcn: 854 rxLev: -95
$GPGSV,3,2,12,02,07,112,18,10,10,259,13,12,85,319,18,25,45,249,18*75
arfcn: 978 rxLev: -95
$GPGSV,3,3,12,32,36,304,09,49,35,171,,14,18,317,,17,10,034,*75
arfcn: 609 rxLev: -95
arfcn: 619 rxLev: -95
$GPRMC,195119.000,A,4715.1417,N,00134.8609,W,1.68,318.81,251217,,,A*73
arfcn: 663 rxLev: -95
arfcn: 660 rxLev: -95
arfcn: 621 rxLev: -95
arfcn: 617 rxLev: -95
$GPGGA,195120.000,4715.1419,N,00134.8613,W,1,05,2.5,104.1,M,48.6,M,,0000*4C
arfcn: 637 rxLev: -95
$GPGSA,M,3,24,19,15,06,02,,,,,,,,3.1,2.5,1.8*3C
arfcn: 639 rxLev: -95
$GPRMC,195120.000,A,4715.1419,N,00134.8613,W,1.57,317.66,251217,,,A*76
arfcn: 1009 rxLev: -95
arfcn: 864 rxLev: -95
arfcn: 867 rxLev: -95
arfcn: 675 rxLev: -95
arfcn: 698 rxLev: -95
arfcn: 700 rxLev: -95
arfcn: 694 rxLev: -96
arfcn: 634 rxLev: -96
$GPGGA,195121.000,4715.1418,N,00134.8610,W,1,05,2.5,104.0,M,48.6,M,,0000*4E
arfcn: 627 rxLev: -96
arfcn: 618 rxLev: -96
$GPGSA,M,3,24,19,15,06,02,,,,,,,,3.1,2.5,1.8*3C
arfcn: 625 rxLev: -96
arfcn: 665 rxLev: -96
$GPRMC,195121.000,A,4715.1418,N,00134.8610,W,1.02,317.66,251217,,,A*75
arfcn: 668 rxLev: -96
arfcn: 653 rxLev: -96
arfcn: 651 rxLev: -96
arfcn: 628 rxLev: -96
arfcn: 632 rxLev: -96
arfcn: 633 rxLev: -96
arfcn: 635 rxLev: -96
arfcn: 636 rxLev: -96
$GPGGA,195122.000,4715.1415,N,00134.8611,W,1,05,2.5,103.9,M,48.6,M,,0000*4F
arfcn: 638 rxLev: -96
arfcn: 982 rxLev: -96
$GPGSA,M,3,24,19,15,06,02,,,,,,,,3.1,2.5,1.8*3C
arfcn: 987 rxLev: -96
arfcn: 604 rxLev: -96
$GPRMC,195122.000,A,4715.1415,N,00134.8611,W,0.93,317.66,251217,,,A*73
arfcn: 83 rxLev: -96
arfcn: 84 rxLev: -96
arfcn: 111 rxLev: -96
arfcn: 51 rxLev: -96
arfcn: 3 rxLev: -96
arfcn: 13 rxLev: -96
arfcn: 26 rxLev: -96
$GPGGA,195123.000,4715.1411,N,00134.8605,W,1,05,2.5,103.7,M,48.6,M,,0000*41
arfcn: 699 rxLev: -96
$GPGSA,M,3,24,19,15,06,02,,,,,,,,3.1,2.5,1.8*3C
arfcn: 674 rxLev: -96
arfcn: 726 rxLev: -96
$GPRMC,195123.000,A,4715.1411,N,00134.8605,W,0.54,317.66,251217,,,A*78
arfcn: 729 rxLev: -97
arfcn: 725 rxLev: -97
arfcn: 731 rxLev: -97
arfcn: 739 rxLev: -97
arfcn: 676 rxLev: -97
arfcn: 689 rxLev: -97
arfcn: 691 rxLev: -97
arfcn: 692 rxLev: -97
arfcn: 14 rxLev: -97
$GPGGA,195124.000,4715.1403,N,00134.8600,W,1,05,2.5,103.6,M,48.6,M,,0000*41
arfcn: 11 rxLev: -97
$GPGSA,M,3,24,19,15,06,02,,,,,,,,3.1,2.5,1.8*3C
arfcn: 4 rxLev: -97
arfcn: 630 rxLev: -97
$GPGSV,3,1,12,24,63,107,19,19,26,046,17,15,12,169,,06,10,082,23*78
arfcn: 631 rxLev: -97
arfcn: 629 rxLev: -97
$GPGSV,3,2,12,02,07,112,17,12,85,319,17,25,45,249,07,49,35,171,*7B
arfcn: 626 rxLev: -97
$GPGSV,3,3,12,32,36,304,,14,18,317,,10,10,259,,17,10,034,*7E
arfcn: 623 rxLev: -97
arfcn: 620 rxLev: -97
$GPRMC,195124.000,A,4715.1403,N,00134.8600,W,1.24,306.54,251217,,,A*7E
arfcn: 652 rxLev: -97
arfcn: 656 rxLev: -97
arfcn: 648 rxLev: -97
$GPGGA,195125.000,4715.1397,N,00134.8588,W,1,05,2.5,103.5,M,48.6,M,,0000*4A
arfcn: 650 rxLev: -97
$GPGSA,M,3,24,19,15,06,02,,,,,,,,3.1,2.5,1.8*3C
arfcn: 670 rxLev: -97
arfcn: 673 rxLev: -97
$GPRMC,195125.000,A,4715.1397,N,00134.8588,W,0.93,306.54,251217,,,A*7B
arfcn: 664 rxLev: -97
arfcn: 662 rxLev: -97
arfcn: 658 rxLev: -97
arfcn: 624 rxLev: -97
arfcn: 1016 rxLev: -97
arfcn: 1020 rxLev: -97
arfcn: 85 rxLev: -97
arfcn: 89 rxLev: -97
arfcn: 75 rxLev: -97
$GPGGA,195126.000,4715.1392,N,00134.8581,W,1,05,2.5,103.4,M,48.6,M,,0000*44
arfcn: 695 rxLev: -97
$GPGSA,M,3,24,19,15,06,02,,,,,,,,3.1,2.5,1.8*3C
arfcn: 697 rxLev: -97
arfcn: 701 rxLev: -97
$GPRMC,195126.000,A,4715.1392,N,00134.8581,W,0.77,306.54,251217,,,A*7E
arfcn: 687 rxLev: -97
arfcn: 733 rxLev: -97
arfcn: 722 rxLev: -97
arfcn: 802 rxLev: -97
arfcn: 724 rxLev: -98
arfcn: 736 rxLev: -98
arfcn: 683 rxLev: -98
arfcn: 685 rxLev: -98
$GPGGA,195127.000,4715.1385,N,00134.8576,W,1,05,2.5,103.3,M,48.6,M,,0000*4C
arfcn: 677 rxLev: -98
$GPGSA,M,3,24,19,15,06,02,,,,,,,,3.0,2.5,1.8*3D
arfcn: 680 rxLev: -98
arfcn: 702 rxLev: -98
$GPRMC,195127.000,A,4715.1385,N,00134.8576,W,1.03,306.54,251217,,,A*73
arfcn: 705 rxLev: -98
arfcn: 690 rxLev: -98
arfcn: 86 rxLev: -98
arfcn: 118 rxLev: -98
arfcn: 1021 rxLev: -98
arfcn: 981 rxLev: -98
arfcn: 622 rxLev: -98
arfcn: 640 rxLev: -98
$GPGGA,195128.000,4715.1383,N,00134.8574,W,1,05,2.5,103.2,M,48.6,M,,0000*46
arfcn: 672 rxLev: -98
arfcn: 669 rxLev: -98
$GPGSA,M,3,24,19,15,06,02,,,,,,,,3.0,2.5,1.8*3D
arfcn: 667 rxLev: -98
arfcn: 654 rxLev: -98
$GPRMC,195128.000,A,4715.1383,N,00134.8574,W,0.57,306.54,251217,,,A*78
arfcn: 642 rxLev: -98
arfcn: 643 rxLev: -98
arfcn: 645 rxLev: -98
arfcn: 661 rxLev: -98
Survey end at #CCLK: "17/12/25,20:51:29+04"
Survey duration: 81 seconds, 15 bases detected over 296 freqs scanned.
$GPGGA,195129.000,4715.1379,N,00134.8576,W,1,05,2.5,103.1,M,48.6,M,,0000*43
$GPGSA,M,3,24,19,15,06,02,,,,,,,,3.0,2.5,1.8*3D
$GPGSV,3,1,12,24,63,107,19,19,26,046,17,15,12,169,,06,10,082,25*7E
$GPGSV,3,2,12,02,07,112,16,12,85,319,16,49,35,171,,25,45,249,*7C
$GPGSV,3,3,12,32,36,304,,14,18,317,,10,10,259,,17,10,034,*7E
$GPRMC,195129.000,A,4715.1379,N,00134.8576,W,0.58,306.54,251217,,,A*71
$GPGGA,195130.000,4715.1376,N,00134.8578,W,1,05,2.5,103.1,M,48.6,M,,0000*4A
$GPGSA,M,3,24,19,15,06,02,,,,,,,,3.0,2.5,1.8*3D
$GPRMC,195130.000,A,4715.1376,N,00134.8578,W,0.53,306.54,251217,,,A*73
Survey start at #CCLK: "17/12/25,20:51:31+04"
$GPGGA,195131.000,4715.1375,N,00134.8582,W,1,05,2.5,103.0,M,48.6,M,,0000*4C
$GPGSA,M,3,24,19,15,06,02,,,,,,,,3.0,2.5,1.8*3D
$GPRMC,195131.000,A,4715.1375,N,00134.8582,W,0.61,306.54,251217,,,A*75
at#csurv
Network survey started ...
$GPGGA,195132.000,4715.1372,N,00134.8581,W,1,05,2.5,102.9,M,48.6,M,,0000*43
$GPGSA,M,3,24,19,15,06,02,,,,,,,,3.0,2.5,1.8*3D
$GPRMC,195132.000,A,4715.1372,N,00134.8581,W,0.72,306.54,251217,,,A*70
$GPGGA,195133.000,4715.1374,N,00134.8583,W,1,05,2.5,102.9,M,48.6,M,,0000*46
$GPGSA,M,3,24,19,15,06,02,,,,,,,,3.0,2.5,1.8*3D
$GPRMC,195133.000,A,4715.1374,N,00134.8583,W,0.57,306.54,251217,,,A*72
$GPGGA,195134.000,4715.1379,N,00134.8589,W,1,05,2.5,102.8,M,48.6,M,,0000*47
$GPGSA,M,3,24,19,15,06,02,,,,,,,,3.0,2.5,1.8*3D
$GPGSV,3,1,12,24,63,107,20,19,26,046,16,15,12,169,,06,10,082,25*75
$GPGSV,3,2,12,02,07,112,15,12,85,319,15,37,28,150,,25,45,249,*7A
$GPGSV,3,3,12,32,36,304,,14,18,317,,10,10,259,,17,10,034,*7E
$GPRMC,195134.000,A,4715.1379,N,00134.8589,W,1.18,308.68,251217,,,A*79
$GPGGA,195135.000,4715.1381,N,00134.8589,W,1,05,2.5,102.7,M,48.6,M,,0000*4E
$GPGSA,M,3,24,19,15,06,02,,,,,,,,3.0,2.5,1.8*3D
$GPRMC,195135.000,A,4715.1381,N,00134.8589,W,1.16,308.68,251217,,,A*71
$GPGGA,195136.000,4715.1376,N,00134.8584,W,1,04,3.2,102.7,M,48.6,M,,0000*4F
$GPGSA,M,3,24,19,15,06,,,,,,,,,3.7,3.2,1.8*3E
$GPRMC,195136.000,A,4715.1376,N,00134.8584,W,0.30,308.68,251217,,,A*72
$GPGGA,195137.000,4715.1375,N,00134.8586,W,1,05,2.5,102.7,M,48.6,M,,0000*48
$GPGSA,M,3,24,19,15,06,02,,,,,,,,3.0,2.5,1.8*3D
$GPRMC,195137.000,A,4715.1375,N,00134.8586,W,0.40,308.68,251217,,,A*75
$GPGGA,195138.000,4715.1368,N,00134.8579,W,1,05,2.5,102.8,M,48.6,M,,0000*44
$GPGSA,M,3,24,19,15,06,02,,,,,,,,3.0,2.5,1.8*3D
$GPRMC,195138.000,A,4715.1368,N,00134.8579,W,0.99,308.68,251217,,,A*72
$GPGGA,195139.000,4715.1363,N,00134.8569,W,1,05,2.5,102.8,M,48.6,M,,0000*4F
$GPGSA,M,3,24,19,15,06,02,,,,,,,,3.0,2.5,1.8*3D
$GPGSV,3,1,12,24,63,107,20,19,26,046,16,15,12,169,,06,10,082,25*75
$GPGSV,3,2,12,02,07,112,13,12,85,319,14,37,28,150,,25,45,249,*7D
$GPGSV,3,3,12,32,36,304,,14,18,317,,10,10,259,,17,10,034,*7E
$GPRMC,195139.000,A,4715.1363,N,00134.8569,W,1.31,273.64,251217,,,A*7B
$GPGGA,195140.000,4715.1358,N,00134.8560,W,1,05,2.5,102.8,M,48.6,M,,0000*40
$GPGSA,M,3,24,19,15,06,02,,,,,,,,3.0,2.5,1.8*3D
$GPRMC,195140.000,A,4715.1358,N,00134.8560,W,1.52,243.43,251217,,,A*77
$GPGGA,195141.000,4715.1353,N,00134.8554,W,1,05,2.5,102.7,M,48.6,M,,0000*42
$GPGSA,M,3,24,19,15,06,02,,,,,,,,3.0,2.5,1.8*3D
$GPRMC,195141.000,A,4715.1353,N,00134.8554,W,1.52,224.40,251217,,,A*78
$GPGGA,195142.000,4715.1346,N,00134.8548,W,1,05,2.5,102.5,M,48.6,M,,0000*4A
$GPGSA,M,3,24,19,15,06,02,,,,,,,,3.0,2.5,1.8*3D
$GPRMC,195142.000,A,4715.1346,N,00134.8548,W,1.71,209.90,251217,,,A*71
$GPGGA,195143.000,4715.1340,N,00134.8538,W,1,05,2.5,102.5,M,48.6,M,,0000*4A
$GPGSA,M,3,24,19,15,06,02,,,,,,,,3.0,2.5,1.8*3D
$GPRMC,195143.000,A,4715.1340,N,00134.8538,W,1.97,192.73,251217,,,A*75
arfcn: 121 bsic: 35 rxLev: -91 ber: 3.01 mcc: 208 mnc: 10 lac: 2901 cellId: 34402 cellStatus: CELL_FORBIDDEN numArfcn: 3 arfcn: 75 84 121 numChannels: 10 array: 77 78 85 86 87 113 117 118 120 124 pbcch: 0 nom: 2 rac: 61 spgc: 0 pat: 6 nco: 0 t3168: 1000 t3192: 500 drxmax: 2 ctrlAck: 0 bsCVmax: 9 alpha: 7 pcMeasCh: 1 
arfcn: 124 rxLev: -91
arfcn: 123 rxLev: -92
$GPGGA,195144.000,4715.1339,N,00134.8538,W,1,05,2.5,102.4,M,48.6,M,,0000*42
$GPGSA,M,3,24,19,15,06,02,,,,,,,,3.0,2.5,1.8*3D
$GPGSV,3,1,12,24,63,107,21,19,26,046,16,15,12,169,,06,10,082,25*74
$GPGSV,3,2,12,02,07,112,13,12,85,319,14,29,08,188,20,37,28,150,*74
$GPGSV,3,3,12,25,45,249,,32,36,304,,14,18,317,,10,10,259,*77
$GPRMC,195144.000,A,4715.1339,N,00134.8538,W,1.55,183.96,251217,,,A*79
$GPGGA,195145.000,4715.1339,N,00134.8539,W,1,05,2.5,102.5,M,48.6,M,,0000*43
$GPGSA,M,3,24,19,15,06,02,,,,,,,,3.0,2.5,1.8*3D
$GPRMC,195145.000,A,4715.1339,N,00134.8539,W,1.09,183.96,251217,,,A*70
$GPGGA,195146.000,4715.1338,N,00134.8535,W,1,05,2.5,102.5,M,48.6,M,,0000*4D
$GPGSA,M,3,24,19,15,06,02,,,,,,,,3.0,2.5,1.8*3D
$GPRMC,195146.000,A,4715.1338,N,00134.8535,W,1.31,169.30,251217,,,A*7D
$GPGGA,195147.000,4715.1333,N,00134.8524,W,1,05,2.5,102.6,M,48.6,M,,0000*44
$GPGSA,M,3,24,19,15,06,02,,,,,,,,3.0,2.5,1.8*3D
$GPRMC,195147.000,A,4715.1333,N,00134.8524,W,1.68,159.00,251217,,,A*7B
$GPGGA,195148.000,4715.1330,N,00134.8517,W,1,05,2.5,102.7,M,48.6,M,,0000*49
$GPGSA,M,3,24,19,15,06,02,,,,,,,,3.0,2.5,1.8*3D
$GPRMC,195148.000,A,4715.1330,N,00134.8517,W,1.81,151.67,251217,,,A*79
$GPGGA,195149.000,4715.1326,N,00134.8509,W,1,05,2.5,102.8,M,48.6,M,,0000*4F
$GPGSA,M,3,24,19,15,06,02,,,,,,,,3.0,2.5,1.8*3D
$GPGSV,3,1,12,24,63,107,20,19,26,046,15,15,12,169,,06,10,082,25*76
$GPGSV,3,2,12,02,07,112,09,12,85,319,14,29,08,188,20,37,28,150,*7F
$GPGSV,3,3,12,25,45,249,,32,36,304,,14,18,317,,10,10,259,*77
$GPRMC,195149.000,A,4715.1326,N,00134.8509,W,1.80,147.16,251217,,,A*70
$GPGGA,195150.000,4715.1321,N,00134.8499,W,1,05,2.5,102.8,M,48.6,M,,0000*48
$GPGSA,M,3,24,19,15,06,02,,,,,,,,3.0,2.5,1.8*3D
$GPRMC,195150.000,A,4715.1321,N,00134.8499,W,2.03,142.17,251217,,,A*7B
$GPGGA,195151.000,4715.1315,N,00134.8487,W,1,05,2.5,102.8,M,48.6,M,,0000*41
$GPGSA,M,3,24,19,15,06,02,,,,,,,,3.0,2.5,1.8*3D
$GPRMC,195151.000,A,4715.1315,N,00134.8487,W,2.39,137.52,251217,,,A*78
$GPGGA,195152.000,4715.1309,N,00134.8479,W,1,05,2.5,102.9,M,48.6,M,,0000*4F
$GPGSA,M,3,24,19,15,06,02,,,,,,,,3.0,2.5,1.8*3D
$GPRMC,195152.000,A,4715.1309,N,00134.8479,W,2.45,137.00,251217,,,A*7B
$GPGGA,195153.000,4715.1305,N,00134.8470,W,1,05,2.5,102.9,M,48.6,M,,0000*4B
$GPGSA,M,3,24,19,15,06,02,,,,,,,,3.0,2.5,1.8*3D
$GPRMC,195153.000,A,4715.1305,N,00134.8470,W,2.32,134.69,251217,,,A*73
$GPGGA,195154.000,4715.1303,N,00134.8464,W,1,04,3.2,103.0,M,48.6,M,,0000*40
$GPGSA,M,3,24,19,15,06,,,,,,,,,3.7,3.2,1.8*3E
arfcn: 8 bsic: 34 rxLev: -92 ber: 1.08 mcc: 208 mnc: 01 lac: 6403 cellId: 8084 cellStatus: CELL_FORBIDDEN numArfcn: 13 arfcn: 8 17 18 19 20 21 22 23 24 25 47 48 49 numChannels: 21 array: 1 2 5 9 10 11 12 14 15 512 513 514 515 516 518 604 605 607 608 609 610 pbcch: 0 nom: 2 rac: 1 spgc: 0 pat: 6 nco: 0 t3168: 1000 t3192: 500 drxmax: 2 ctrlAck: 0 bsCVmax: 9 alpha: 5 pcMeasCh: 1 
$GPGSV,3,1,12,24,63,107,21,19,26,046,15,15,12,169,,06,10,082,25*77
$GPGSV,3,2,12,02,07,112,07,12,85,319,14,29,08,188,21,37,28,150,*70
$GPGSV,3,3,12,25,45,249,,32,36,304,,14,18,317,,10,10,259,*77
$GPRMC,195154.000,A,4715.1303,N,00134.8464,W,2.06,132.63,251217,,,A*7C
$GPGGA,195155.000,4715.1298,N,00134.8459,W,1,04,3.2,103.1,M,48.6,M,,0000*4D
$GPGSA,M,3,24,19,15,06,,,,,,,,,3.7,3.2,1.8*3E
$GPRMC,195155.000,A,4715.1298,N,00134.8459,W,2.18,132.43,251217,,,A*7D
$GPGGA,195156.000,4715.1293,N,00134.8453,W,1,04,3.2,103.1,M,48.6,M,,0000*4F
$GPGSA,M,3,24,19,15,06,,,,,,,,,3.7,3.2,1.8*3E
$GPRMC,195156.000,A,4715.1293,N,00134.8453,W,2.36,133.32,251217,,,A*74
$GPGGA,195157.000,4715.1288,N,00134.8442,W,1,04,3.2,103.1,M,48.6,M,,0000*44
$GPGSA,M,3,24,19,15,06,,,,,,,,,3.7,3.2,1.8*3E
$GPRMC,195157.000,A,4715.1288,N,00134.8442,W,2.31,132.74,251217,,,A*7B
$GPGGA,195158.000,4715.1285,N,00134.8432,W,1,04,3.2,103.2,M,48.6,M,,0000*42
$GPGSA,M,3,24,19,15,06,,,,,,,,,3.7,3.2,1.8*3E
$GPRMC,195158.000,A,4715.1285,N,00134.8432,W,2.15,131.36,251217,,,A*7D
arfcn: 1018 bsic: 33 rxLev: -92 ber: 0.06 mcc: 208 mnc: 20 lac: 420 cellId: 20047 cellStatus: CELL_SUITABLE numArfcn: 3 arfcn: 977 987 1018 numChannels: 20 array: 787 879 884 975 977 979 980 981 982 984 985 987 1011 1012 1013 1014 1015 1016 1017 1018 pbcch: 0 nom: 2 rac: 6 spgc: 0 pat: 6 nco: 0 t3168: 1500 t3192: 500 drxmax: 0 ctrlAck: 0 bsCVmax: 8 alpha: 6 pcMeasCh: 1 
$GPGGA,195159.000,4715.1280,N,00134.8424,W,1,04,3.2,103.3,M,48.6,M,,0000*40
$GPGSA,M,3,24,19,15,06,,,,,,,,,3.7,3.2,1.8*3E
$GPGSV,3,1,12,24,63,107,20,19,26,046,14,15,12,169,,06,10,082,24*76
$GPGSV,3,2,12,02,07,112,04,12,85,319,14,29,08,188,20,37,28,150,*72
$GPGSV,3,3,12,25,45,249,,32,36,304,,14,18,317,,10,10,259,*77
$GPRMC,195159.000,A,4715.1280,N,00134.8424,W,2.10,131.83,251217,,,A*75
$GPGGA,195200.000,4715.1272,N,00134.8412,W,1,04,3.2,103.3,M,48.6,M,,0000*47
$GPGSA,M,3,24,19,15,06,,,,,,,,,3.7,3.2,1.8*3E
arfcn: 516 bsic: 2 rxLev: -93 ber: 0.00 mcc: 208 mnc: 01 lac: 6403 cellId: 28403 cellStatus: CELL_FORBIDDEN numArfcn: 16 arfcn: 519 520 521 522 523 524 525 526 596 597 598 599 600 601 602 603 numChannels: 14 array: 1 5 8 9 10 12 13 515 518 604 605 607 608 609 pbcch: 0 nom: 2 rac: 1 spgc: 0 pat: 6 nco: 0 t3168: 1000 t3192: 500 drxmax: 2 ctrlAck: 0 bsCVmax: 9 alpha: 5 pcMeasCh: 1 
$GPRMC,195200.000,A,4715.1272,N,00134.8412,W,2.64,133.53,251217,,,A*7E
arfcn: 977 bsic: 15 rxLev: -94 ber: 0.10 mcc: 208 mnc: 20 lac: 420 cellId: 21723 cellStatus: CELL_SUITABLE numArfcn: 2 arfcn: 977 1016 numChannels: 18 array: 975 978 979 980 981 982 983 985 987 1012 1013 1014 1015 1016 1017 1018 1019 884 pbcch: 0 nom: 2 rac: 6 spgc: 0 pat: 6 nco: 0 t3168: 1500 t3192: 500 drxmax: 0 ctrlAck: 0 bsCVmax: 8 alpha: 6 pcMeasCh: 1 
arfcn: 67 rxLev: -94
arfcn: 66 rxLev: -94
$GPGGA,195201.000,4715.1264,N,00134.8399,W,1,04,3.2,103.4,M,48.6,M,,0000*42
$GPGSA,M,3,24,19,15,06,,,,,,,,,3.7,3.2,1.8*3E
$GPRMC,195201.000,A,4715.1264,N,00134.8399,W,2.80,134.27,251217,,,A*72
$GPGGA,195202.000,4715.1258,N,00134.8390,W,1,04,3.2,103.4,M,48.6,M,,0000*47
$GPGSA,M,3,24,19,15,06,,,,,,,,,3.7,3.2,1.8*3E
$GPRMC,195202.000,A,4715.1258,N,00134.8390,W,2.95,134.51,251217,,,A*72
arfcn: 77 bsic: 45 rxLev: -94 ber: 1.04 mcc: 208 mnc: 10 lac: 49409 cellId: 55473 cellStatus: CELL_FORBIDDEN numArfcn: 2 arfcn: 77 117 numChannels: 12 array: 76 77 78 85 86 87 113 119 120 121 122 123 pbcch: 0 nom: 2 rac: 30 spgc: 0 pat: 6 nco: 0 t3168: 1000 t3192: 500 drxmax: 4 ctrlAck: 1 bsCVmax: 9 alpha: 10 pcMeasCh: 0 
arfcn: 1 rxLev: -95
arfcn: 63 rxLev: -95
arfcn: 68 rxLev: -95
arfcn: 75 rxLev: -96
arfcn: 120 rxLev: -96
arfcn: 122 rxLev: -97
$GPGGA,195203.000,4715.1254,N,00134.8384,W,1,04,3.2,103.4,M,48.6,M,,0000*4F
$GPGSA,M,3,24,19,15,06,,,,,,,,,3.7,3.2,1.8*3E
arfcn: 44 rxLev: -97
arfcn: 45 rxLev: -97
$GPRMC,195203.000,A,4715.1254,N,00134.8384,W,2.70,133.21,251217,,,A*71
arfcn: 35 rxLev: -97
arfcn: 73 rxLev: -97
arfcn: 34 rxLev: -98
arfcn: 39 rxLev: -98
arfcn: 40 rxLev: -98
arfcn: 41 rxLev: -98
arfcn: 43 rxLev: -98
arfcn: 30 rxLev: -98
arfcn: 31 rxLev: -98
$GPGGA,195204.000,4715.1250,N,00134.8378,W,1,04,3.2,103.4,M,48.6,M,,0000*4F
arfcn: 42 rxLev: -98
$GPGSA,M,3,24,19,15,06,,,,,,,,,3.7,3.2,1.8*3E
arfcn: 38 rxLev: -98
arfcn: 37 rxLev: -98
$GPGSV,3,1,12,24,63,107,20,19,26,046,13,15,12,169,,06,10,082,25*70
arfcn: 32 rxLev: -98
arfcn: 33 rxLev: -98
$GPGSV,3,2,12,02,07,112,05,12,85,319,14,29,08,188,20,36,26,138,*72
arfcn: 61 rxLev: -98
arfcn: 976 rxLev: -98
$GPGSV,3,3,12,25,45,249,,32,36,304,,14,18,317,,10,10,259,*77
arfcn: 609 rxLev: -98
arfcn: 119 rxLev: -99
$GPRMC,195204.000,A,4715.1250,N,00134.8378,W,2.57,132.43,251217,,,A*71
arfcn: 76 rxLev: -99
arfcn: 64 rxLev: -99
arfcn: 95 rxLev: -99
$GPGGA,195205.000,4715.1246,N,00134.8376,W,1,04,3.2,103.5,M,48.6,M,,0000*46
arfcn: 62 rxLev: -99
$GPGSA,M,3,24,19,15,06,,,,,,,,,3.7,3.2,1.8*3E
arfcn: 59 rxLev: -99
$GPRMC,195205.000,A,4715.1246,N,00134.8376,W,2.35,132.83,251217,,,A*71
arfcn: 36 rxLev: -99
arfcn: 28 rxLev: -99
arfcn: 27 rxLev: -99
arfcn: 10 rxLev: -99
arfcn: 29 rxLev: -99
arfcn: 94 rxLev: -99
arfcn: 92 rxLev: -99
arfcn: 93 rxLev: -99
$GPGGA,195206.000,4715.1246,N,00134.8374,W,1,04,3.2,103.6,M,48.6,M,,0000*44
arfcn: 78 rxLev: -99
$GPGSA,M,3,24,19,15,06,,,,,,,,,3.7,3.2,1.8*3E
arfcn: 74 rxLev: -99
arfcn: 97 rxLev: -99
$GPRMC,195206.000,A,4715.1246,N,00134.8374,W,1.97,131.71,251217,,,A*75
arfcn: 98 rxLev: -99
arfcn: 980 rxLev: -99
arfcn: 978 rxLev: -100
arfcn: 99 rxLev: -100
arfcn: 96 rxLev: -100
arfcn: 975 rxLev: -100
arfcn: 72 rxLev: -100
arfcn: 65 rxLev: -100
$GPGGA,195207.000,4715.1244,N,00134.8372,W,1,05,2.4,103.7,M,48.6,M,,0000*46
arfcn: 6 rxLev: -100
arfcn: 58 rxLev: -100
$GPGSA,M,3,24,19,15,06,02,,,,,,,,3.0,2.4,1.8*3C
arfcn: 60 rxLev: -100
$GPRMC,195207.000,A,4715.1244,N,00134.8372,W,1.80,131.20,251217,,,A*72
arfcn: 55 rxLev: -100
arfcn: 57 rxLev: -100
arfcn: 15 rxLev: -100
arfcn: 71 rxLev: -100
arfcn: 91 rxLev: -100
arfcn: 118 rxLev: -100
arfcn: 100 rxLev: -100
arfcn: 101 rxLev: -100
$GPGGA,195208.000,4715.1245,N,00134.8371,W,1,05,2.4,103.8,M,48.6,M,,0000*44
arfcn: 981 rxLev: -100
$GPGSA,M,3,24,19,15,06,02,,,,,,,,3.0,2.4,1.8*3C
$GPRMC,195208.000,A,4715.1245,N,00134.8371,W,1.57,129.33,251217,,,A*7E
$GPGGA,195209.000,4715.1244,N,00134.8370,W,1,05,2.4,103.8,M,48.6,M,,0000*45
$GPGSA,M,3,24,19,15,06,02,,,,,,,,3.0,2.4,1.8*3C
$GPGSV,3,1,12,24,63,107,20,19,26,046,12,15,12,169,,06,10,082,25*71
$GPGSV,3,2,12,02,07,112,13,12,85,319,14,29,08,188,20,36,26,138,*75
$GPGSV,3,3,12,25,45,249,,32,36,304,,14,18,317,,10,10,259,*77
$GPRMC,195209.000,A,4715.1244,N,00134.8370,W,1.47,127.96,251217,,,A*7F
$GPGGA,195210.000,4715.1247,N,00134.8373,W,1,05,2.4,103.8,M,48.6,M,,0000*4D
$GPGSA,M,3,24,19,15,06,02,,,,,,,,3.0,2.4,1.8*3C
$GPRMC,195210.000,A,4715.1247,N,00134.8373,W,1.09,127.96,251217,,,A*7D
$GPGGA,195211.000,4715.1248,N,00134.8371,W,1,05,2.4,103.9,M,48.6,M,,0000*40
$GPGSA,M,3,24,19,15,06,02,,,,,,,,3.0,2.4,1.8*3C
$GPRMC,195211.000,A,4715.1248,N,00134.8371,W,0.93,127.96,251217,,,A*73
$GPGGA,195212.000,4715.1249,N,00134.8374,W,1,05,2.4,103.9,M,48.6,M,,0000*47
$GPGSA,M,3,24,19,15,06,02,,,,,,,,3.0,2.4,1.8*3C
$GPRMC,195212.000,A,4715.1249,N,00134.8374,W,0.61,127.96,251217,,,A*79
$GPGGA,195213.000,4715.1255,N,00134.8379,W,1,05,2.4,103.9,M,48.6,M,,0000*46
$GPGSA,M,3,24,19,15,06,02,,,,,,,,3.0,2.4,1.8*3C
$GPRMC,195213.000,A,4715.1255,N,00134.8379,W,0.48,127.96,251217,,,A*73
arfcn: 985 bsic: 9 rxLev: -100 ber: 1.06 mcc: 208 mnc: 20 lac: 420 cellId: 22634 cellStatus: CELL_SUITABLE numArfcn: 3 arfcn: 985 988 1023 numChannels: 18 array: 787 879 884 975 977 980 982 983 984 985 987 1011 1013 1014 1015 1016 1017 1018 pbcch: 0 nom: 2 rac: 6 spgc: 0 pat: 6 nco: 0 t3168: 1500 t3192: 500 drxmax: 0 ctrlAck: 0 bsCVmax: 8 alpha: 6 pcMeasCh: 1 
arfcn: 982 rxLev: -101
arfcn: 729 rxLev: -101
arfcn: 849 rxLev: -101
arfcn: 70 rxLev: -101
$GPGGA,195214.000,4715.1257,N,00134.8384,W,1,05,2.4,103.9,M,48.6,M,,0000*41
arfcn: 9 rxLev: -101
arfcn: 7 rxLev: -101
$GPGSA,M,3,24,19,15,06,02,,,,,,,,3.0,2.4,1.8*3C
arfcn: 56 rxLev: -101
arfcn: 54 rxLev: -101
$GPGSV,3,1,12,24,63,107,20,19,26,046,12,15,12,169,,06,10,082,25*71
arfcn: 53 rxLev: -101
$GPGSV,3,2,12,02,07,112,12,12,85,319,14,29,08,188,21,36,26,138,*75
arfcn: 46 rxLev: -101
arfcn: 13 rxLev: -101
$GPGSV,3,3,12,25,45,249,,32,36,304,,14,18,317,,10,10,259,*77
arfcn: 69 rxLev: -101
arfcn: 90 rxLev: -101
$GPRMC,195214.000,A,4715.1257,N,00134.8384,W,0.35,127.96,251217,,,A*7E
arfcn: 102 rxLev: -101
arfcn: 103 rxLev: -101
arfcn: 104 rxLev: -101
arfcn: 983 rxLev: -101
$GPGGA,195215.000,4715.1263,N,00134.8391,W,1,05,2.4,103.9,M,48.6,M,,0000*43
arfcn: 979 rxLev: -101
$GPGSA,M,3,24,19,15,06,02,,,,,,,,3.0,2.4,1.8*3C
arfcn: 1006 rxLev: -101
arfcn: 1008 rxLev: -101
$GPRMC,195215.000,A,4715.1263,N,00134.8391,W,0.84,127.96,251217,,,A*76
arfcn: 1007 rxLev: -102
arfcn: 1004 rxLev: -102
arfcn: 1001 rxLev: -102
arfcn: 984 rxLev: -102
arfcn: 988 rxLev: -102
arfcn: 993 rxLev: -102
arfcn: 105 rxLev: -102
arfcn: 117 rxLev: -102
$GPGGA,195216.000,4715.1263,N,00134.8390,W,1,05,2.4,103.9,M,48.6,M,,0000*41
arfcn: 87 rxLev: -102
$GPGSA,M,3,24,19,15,06,02,,,,,,,,3.0,2.4,1.8*3C
arfcn: 79 rxLev: -102
arfcn: 14 rxLev: -102
$GPRMC,195216.000,A,4715.1263,N,00134.8390,W,0.40,127.96,251217,,,A*7C
arfcn: 4 rxLev: -102
arfcn: 18 rxLev: -102
arfcn: 52 rxLev: -102
arfcn: 51 rxLev: -102
arfcn: 19 rxLev: -102
arfcn: 16 rxLev: -102
arfcn: 5 rxLev: -102
arfcn: 2 rxLev: -102
$GPGGA,195217.000,4715.1268,N,00134.8397,W,1,04,3.2,103.9,M,48.6,M,,0000*4A
$GPGSA,M,3,24,19,15,06,,,,,,,,,3.7,3.2,1.8*3E
$GPRMC,195217.000,A,4715.1268,N,00134.8397,W,0.78,127.96,251217,,,A*7A
$GPGGA,195218.000,4715.1266,N,00134.8398,W,1,04,3.2,103.9,M,48.6,M,,0000*44
$GPGSA,M,3,24,19,15,06,,,,,,,,,3.7,3.2,1.8*3E
$GPRMC,195218.000,A,4715.1266,N,00134.8398,W,0.58,127.96,251217,,,A*76
arfcn: 82 bsic: 58 rxLev: -102 ber: 17.02 mcc: FFF mnc: FF lac: 65535 cellId: 0 cellStatus: CELL_OTHER numArfcn: 0 arfcn: numChannels: 0 array:
arfcn: 89 rxLev: -102
arfcn: 107 rxLev: -102
arfcn: 991 rxLev: -102
$GPGGA,195219.000,4715.1267,N,00134.8405,W,1,04,3.2,103.9,M,48.6,M,,0000*47
arfcn: 1000 rxLev: -102
arfcn: 995 rxLev: -102
$GPGSA,M,3,24,19,15,06,,,,,,,,,3.7,3.2,1.8*3E
arfcn: 996 rxLev: -102
arfcn: 997 rxLev: -102
$GPGSV,3,1,12,24,63,107,21,19,26,046,12,15,12,169,,06,10,082,25*70
arfcn: 1005 rxLev: -102
$GPGSV,3,2,12,02,07,112,05,12,85,319,13,29,08,188,21,36,26,138,*74
arfcn: 1002 rxLev: -102
$GPGSV,3,3,12,25,45,249,,32,36,304,,14,18,317,,10,10,259,*77
arfcn: 1003 rxLev: -102
arfcn: 1016 rxLev: -102
$GPRMC,195219.000,A,4715.1267,N,00134.8405,W,1.01,127.96,251217,,,A*78
arfcn: 607 rxLev: -103
arfcn: 994 rxLev: -103
$GPGGA,195220.000,4715.1267,N,00134.8404,W,1,04,3.2,103.9,M,48.6,M,,0000*4C
arfcn: 998 rxLev: -103
$GPGSA,M,3,24,19,15,06,,,,,,,,,3.7,3.2,1.8*3E
arfcn: 999 rxLev: -103
arfcn: 990 rxLev: -103
$GPRMC,195220.000,A,4715.1267,N,00134.8404,W,0.72,127.96,251217,,,A*76
arfcn: 108 rxLev: -103
arfcn: 116 rxLev: -103
arfcn: 88 rxLev: -103
arfcn: 3 rxLev: -103
arfcn: 26 rxLev: -103
arfcn: 49 rxLev: -103
arfcn: 48 rxLev: -103
arfcn: 47 rxLev: -103
arfcn: 17 rxLev: -103
$GPGGA,195221.000,4715.1268,N,00134.8406,W,1,04,3.2,103.9,M,48.6,M,,0000*40
arfcn: 12 rxLev: -103
$GPGSA,M,3,24,19,15,06,,,,,,,,,3.7,3.2,1.8*3E
arfcn: 80 rxLev: -103
arfcn: 115 rxLev: -103
$GPRMC,195221.000,A,4715.1268,N,00134.8406,W,0.73,127.96,251217,,,A*7B
arfcn: 106 rxLev: -103
arfcn: 992 rxLev: -103
arfcn: 1019 rxLev: -103
arfcn: 1023 rxLev: -104
arfcn: 1017 rxLev: -104
arfcn: 1010 rxLev: -104
arfcn: 605 rxLev: -104
arfcn: 987 rxLev: -104
arfcn: 1009 rxLev: -104
$GPGGA,195222.000,4715.1270,N,00134.8408,W,1,04,3.2,103.8,M,48.6,M,,0000*45
$GPGSA,M,3,24,19,15,06,,,,,,,,,3.7,3.2,1.8*3E
Survey end at #CCLK: "17/12/25,20:52:22+04"
Survey duration: 51 seconds, 8 bases detected over 150 freqs scanned.
$GPRMC,195222.000,A,4715.1270,N,00134.8408,W,0.87,127.96,251217,,,A*74
$GPGGA,195223.000,4715.1273,N,00134.8405,W,1,04,3.2,103.8,M,48.6,M,,0000*4A
$GPGSA,M,3,24,19,15,06,,,,,,,,,3.7,3.2,1.8*3E
$GPRMC,195223.000,A,4715.1273,N,00134.8405,W,1.18,113.71,251217,,,A*72
$GPGGA,195224.000,4715.1274,N,00134.8405,W,1,04,3.2,103.8,M,48.6,M,,0000*4A
$GPGSA,M,3,24,19,15,06,,,,,,,,,3.7,3.2,1.8*3E
Survey start at #CCLK: "17/12/25,20:52:24+04"
$GPGSV,3,1,12,24,63,107,21,19,26,046,12,15,12,169,,06,10,082,24*71
at#csurv
Network survey started ...
$GPGSV,3,2,12,02,07,112,04,12,85,319,14,29,08,188,22,36,26,138,*71
$GPGSV,3,3,12,25,45,249,,32,36,304,,14,18,317,,10,10,259,*77
$GPRMC,195224.000,A,4715.1274,N,00134.8405,W,0.86,113.71,251217,,,A*74
$GPGGA,195225.000,4715.1280,N,00134.8413,W,1,04,3.2,103.7,M,48.6,M,,0000*48
$GPGSA,M,3,24,19,15,06,,,,,,,,,3.7,3.2,1.8*3E
$GPRMC,195225.000,A,4715.1280,N,00134.8413,W,0.94,113.71,251217,,,A*7A
$GPGGA,195226.000,4715.1277,N,00134.8405,W,1,04,3.2,103.6,M,48.6,M,,0000*45
$GPGSA,M,3,24,19,15,06,,,,,,,,,3.7,3.2,1.8*3E
$GPRMC,195226.000,A,4715.1277,N,00134.8405,W,0.32,113.71,251217,,,A*7A
$GPGGA,195227.000,4715.1282,N,00134.8419,W,1,05,2.4,103.5,M,48.6,M,,0000*46
$GPGSA,M,3,24,19,15,06,02,,,,,,,,3.0,2.4,1.8*3C
$GPRMC,195227.000,A,4715.1282,N,00134.8419,W,0.44,113.71,251217,,,A*7D
$GPGGA,195228.000,4715.1278,N,00134.8412,W,1,05,2.4,103.5,M,48.6,M,,0000*47
$GPGSA,M,3,24,19,15,06,02,,,,,,,,3.0,2.4,1.8*3C
$GPRMC,195228.000,A,4715.1278,N,00134.8412,W,0.66,113.71,251217,,,A*7C
$GPGGA,195229.000,4715.1275,N,00134.8408,W,1,05,2.4,103.5,M,48.6,M,,0000*40
$GPGSA,M,3,24,19,15,06,02,,,,,,,,3.0,2.4,1.8*3C
$GPGSV,3,1,12,24,63,107,22,19,26,046,11,15,12,169,,06,10,082,21*74
$GPGSV,3,2,12,02,07,112,12,12,85,319,13,29,08,188,22,36,26,138,*71
$GPGSV,3,3,12,25,45,249,,32,36,304,,14,18,317,,10,10,259,*77
$GPRMC,195229.000,A,4715.1275,N,00134.8408,W,0.80,113.71,251217,,,A*73
$GPGGA,195230.000,4715.1274,N,00134.8410,W,1,05,2.4,103.5,M,48.6,M,,0000*40
$GPGSA,M,3,24,19,15,06,02,,,,,,,,3.0,2.4,1.8*3C
$GPRMC,195230.000,A,4715.1274,N,00134.8410,W,0.63,113.71,251217,,,A*7E
$GPGGA,195231.000,4715.1275,N,00134.8415,W,1,05,2.4,103.5,M,48.6,M,,0000*45
$GPGSA,M,3,24,19,15,06,02,,,,,,,,3.0,2.4,1.8*3C
$GPRMC,195231.000,A,4715.1275,N,00134.8415,W,0.47,113.71,251217,,,A*7D
$GPGGA,195232.000,4715.1275,N,00134.8413,W,1,05,2.4,103.6,M,48.6,M,,0000*43
$GPGSA,M,3,24,19,15,06,02,,,,,,,,3.0,2.4,1.8*3C
$GPRMC,195232.000,A,4715.1275,N,00134.8413,W,0.36,113.71,251217,,,A*7E
$GPGGA,195233.000,4715.1271,N,00134.8410,W,1,05,2.4,103.6,M,48.6,M,,0000*45
arfcn: 123 rxLev: -91
$GPGSA,M,3,24,19,15,06,02,,,,,,,,3.0,2.4,1.8*3C
arfcn: 124 rxLev: -91
arfcn: 977 bsic: 15 rxLev: -92 ber: 0.01 mcc: 208 mnc: 20 lac: 420 cellId: 21723 cellStatus: CELL_SUITABLE numArfcn: 2 arfcn: 977 1016 numChannels: 18 array: 975 978 979 980 981 982 983 985 987 1012 1013 1014 1015 1016 1017 1018 1019 884 pbcch: 0 nom: 2 rac: 6 spgc: 0 pat: 6 nco: 0 t3168: 1500 t3192: 500 drxmax: 0 ctrlAck: 0 bsCVmax: 8 alpha: 6 pcMeasCh: 1 
$GPRMC,195233.000,A,4715.1271,N,00134.8410,W,0.85,113.71,251217,,,A*70
$GPGGA,195234.000,4715.1270,N,00134.8416,W,1,05,2.4,103.6,M,48.6,M,,0000*45
$GPGSA,M,3,24,19,15,06,02,,,,,,,,3.0,2.4,1.8*3C
$GPGSV,3,1,12,24,63,107,21,19,26,046,12,15,12,169,,06,10,082,22*77
$GPGSV,3,2,12,02,07,112,11,12,85,319,13,29,08,188,22,49,35,171,*75
$GPGSV,3,3,12,25,45,249,,32,36,304,,14,18,317,,10,10,259,*77
$GPRMC,195234.000,A,4715.1270,N,00134.8416,W,1.15,113.71,251217,,,A*78
$GPGGA,195235.000,4715.1272,N,00134.8422,W,1,05,2.4,103.6,M,48.6,M,,0000*41
$GPGSA,M,3,24,19,15,06,02,,,,,,,,3.0,2.4,1.8*3C
$GPRMC,195235.000,A,4715.1272,N,00134.8422,W,0.79,113.71,251217,,,A*77
arfcn: 121 bsic: 35 rxLev: -92 ber: 4.09 mcc: 208 mnc: 10 lac: 2901 cellId: 34402 cellStatus: CELL_FORBIDDEN numArfcn: 3 arfcn: 75 84 121 numChannels: 10 array: 77 78 85 86 87 113 117 118 120 124 pbcch: 0 nom: 2 rac: 61 spgc: 0 pat: 6 nco: 0 t3168: 1000 t3192: 500 drxmax: 2 ctrlAck: 0 bsCVmax: 9 alpha: 7 pcMeasCh: 1 
arfcn: 67 rxLev: -92
arfcn: 77 rxLev: -93
arfcn: 8 rxLev: -94
arfcn: 66 rxLev: -94
$GPGGA,195236.000,4715.1275,N,00134.8425,W,1,05,2.4,103.7,M,48.6,M,,0000*43
$GPGSA,M,3,24,19,15,06,02,,,,,,,,3.0,2.4,1.8*3C
$GPRMC,195236.000,A,4715.1275,N,00134.8425,W,0.26,113.71,251217,,,A*7E
$GPGGA,195237.000,4715.1282,N,00134.8437,W,1,05,2.4,103.7,M,48.6,M,,0000*49
$GPGSA,M,3,24,19,15,06,02,,,,,,,,3.0,2.4,1.8*3C
$GPRMC,195237.000,A,4715.1282,N,00134.8437,W,0.34,113.71,251217,,,A*77
$GPGGA,195238.000,4715.1284,N,00134.8440,W,1,05,2.4,103.7,M,48.6,M,,0000*40
$GPGSA,M,3,24,19,15,06,02,,,,,,,,3.0,2.4,1.8*3C
$GPRMC,195238.000,A,4715.1284,N,00134.8440,W,0.28,113.71,251217,,,A*73
$GPGGA,195239.000,4715.1286,N,00134.8436,W,1,05,2.4,103.6,M,48.6,M,,0000*43
$GPGSA,M,3,24,19,15,06,02,,,,,,,,3.0,2.4,1.8*3C
$GPGSV,3,1,12,24,63,107,21,19,26,046,12,15,12,169,,06,10,082,22*77
$GPGSV,3,2,12,02,07,112,11,12,85,319,12,29,08,188,22,49,35,171,*74
$GPGSV,3,3,12,25,45,249,,32,36,304,,14,18,317,,10,10,259,*77
$GPRMC,195239.000,A,4715.1286,N,00134.8436,W,0.38,113.71,251217,,,A*70
$GPGGA,195240.000,4715.1291,N,00134.8440,W,1,05,2.4,103.6,M,48.6,M,,0000*4A
$GPGSA,M,3,24,19,15,06,02,,,,,,,,3.0,2.4,1.8*3C
$GPRMC,195240.000,A,4715.1291,N,00134.8440,W,0.75,113.71,251217,,,A*70
$GPGGA,195241.000,4715.1292,N,00134.8440,W,1,05,2.4,103.5,M,48.6,M,,0000*4B
$GPGSA,M,3,24,19,15,06,02,,,,,,,,3.0,2.4,1.8*3C
$GPRMC,195241.000,A,4715.1292,N,00134.8440,W,0.50,113.71,251217,,,A*75
arfcn: 1018 bsic: 33 rxLev: -95 ber: 0.03 mcc: 208 mnc: 20 lac: 420 cellId: 20047 cellStatus: CELL_SUITABLE numArfcn: 3 arfcn: 977 987 1018 numChannels: 20 array: 787 879 884 975 977 979 980 981 982 984 985 987 1011 1012 1013 1014 1015 1016 1017 1018 pbcch: 0 nom: 2 rac: 6 spgc: 0 pat: 6 nco: 0 t3168: 1500 t3192: 500 drxmax: 0 ctrlAck: 0 bsCVmax: 8 alpha: 6 pcMeasCh: 1 
$GPGGA,195242.000,4715.1292,N,00134.8434,W,1,04,4.5,103.4,M,48.6,M,,0000*4C
$GPGSA,M,3,24,15,06,02,,,,,,,,,5.0,4.5,2.3*3D
$GPRMC,195242.000,A,4715.1292,N,00134.8434,W,0.67,113.71,251217,,,A*71
$GPGGA,195243.000,4715.1288,N,00134.8424,W,1,04,4.5,103.4,M,48.6,M,,0000*47
$GPGSA,M,3,24,15,06,02,,,,,,,,,5.0,4.5,2.3*3D
$GPRMC,195243.000,A,4715.1288,N,00134.8424,W,0.89,113.71,251217,,,A*7A
$GPGGA,195244.000,4715.1290,N,00134.8420,W,1,04,4.5,103.4,M,48.6,M,,0000*4D
$GPGSA,M,3,24,15,06,02,,,,,,,,,5.0,4.5,2.3*3D
$GPGSV,3,1,12,24,63,107,21,15,12,169,,06,10,082,22,02,07,112,11*7D
$GPGSV,3,2,12,12,85,319,12,29,08,188,21,49,35,171,,25,45,249,*79
$GPGSV,3,3,12,32,36,304,,19,26,046,,14,18,317,,10,10,259,*70
$GPRMC,195244.000,A,4715.1290,N,00134.8420,W,0.98,113.71,251217,,,A*70
$GPGGA,195245.000,4715.1294,N,00134.8425,W,1,04,4.5,103.4,M,48.6,M,,0000*4D
$GPGSA,M,3,24,15,06,02,,,,,,,,,5.0,4.5,2.3*3D
arfcn: 516 bsic: 2 rxLev: -95 ber: 0.00 mcc: 208 mnc: 01 lac: 6403 cellId: 28403 cellStatus: CELL_FORBIDDEN numArfcn: 16 arfcn: 519 520 521 522 523 524 525 526 596 597 598 599 600 601 602 603 numChannels: 14 array: 1 5 8 9 10 12 13 515 518 604 605 607 608 609 pbcch: 0 nom: 2 rac: 1 spgc: 0 pat: 6 nco: 0 t3168: 1000 t3192: 500 drxmax: 2 ctrlAck: 0 bsCVmax: 9 alpha: 5 pcMeasCh: 1 
arfcn: 68 rxLev: -95
$GPRMC,195245.000,A,4715.1294,N,00134.8425,W,0.56,113.71,251217,,,A*72
arfcn: 120 rxLev: -96
arfcn: 73 rxLev: -96
arfcn: 75 rxLev: -97
arfcn: 122 rxLev: -97
arfcn: 33 rxLev: -97
arfcn: 32 rxLev: -97
arfcn: 63 rxLev: -97
arfcn: 31 rxLev: -97
$GPGGA,195246.000,4715.1293,N,00134.8425,W,1,04,4.5,103.4,M,48.6,M,,0000*49
arfcn: 64 rxLev: -97
$GPGSA,M,3,24,15,06,02,,,,,,,,,5.0,4.5,2.3*3D
arfcn: 76 rxLev: -98
arfcn: 119 rxLev: -98
$GPRMC,195246.000,A,4715.1293,N,00134.8425,W,0.41,113.71,251217,,,A*70
arfcn: 34 rxLev: -98
arfcn: 35 rxLev: -98
arfcn: 41 rxLev: -98
arfcn: 44 rxLev: -98
arfcn: 45 rxLev: -98
arfcn: 40 rxLev: -98
arfcn: 42 rxLev: -98
$GPGGA,195247.000,4715.1293,N,00134.8429,W,1,04,4.5,103.4,M,48.6,M,,0000*44
arfcn: 43 rxLev: -98
arfcn: 36 rxLev: -98
$GPGSA,M,3,24,15,06,02,,,,,,,,,5.0,4.5,2.3*3D
arfcn: 37 rxLev: -98
$GPRMC,195247.000,A,4715.1293,N,00134.8429,W,0.52,113.71,251217,,,A*7F
arfcn: 38 rxLev: -98
arfcn: 39 rxLev: -98
arfcn: 61 rxLev: -98
$GPGGA,195248.000,4715.1291,N,00134.8431,W,1,04,4.5,103.4,M,48.6,M,,0000*40
$GPGSA,M,3,24,15,06,02,,,,,,,,,5.0,4.5,2.3*3D
$GPRMC,195248.000,A,4715.1291,N,00134.8431,W,0.75,113.71,251217,,,A*7E
$GPGGA,195249.000,4715.1289,N,00134.8428,W,1,04,4.5,103.4,M,48.6,M,,0000*40
$GPGSA,M,3,24,15,06,02,,,,,,,,,5.0,4.5,2.3*3D
$GPGSV,3,1,12,24,63,107,21,15,12,169,,06,10,082,23,02,07,112,11*7C
$GPGSV,3,2,12,29,08,188,22,49,35,171,,12,85,319,,25,45,249,*79
$GPGSV,3,3,12,32,36,304,,19,26,046,,14,18,317,,10,10,259,*70
$GPRMC,195249.000,A,4715.1289,N,00134.8428,W,0.56,113.71,251217,,,A*7F
$GPGGA,195250.000,4715.1287,N,00134.8417,W,1,04,4.5,103.4,M,48.6,M,,0000*4A
$GPGSA,M,3,24,15,06,02,,,,,,,,,5.0,4.5,2.3*3D
$GPRMC,195250.000,A,4715.1287,N,00134.8417,W,0.79,113.71,251217,,,A*78
$GPGGA,195251.000,4715.1290,N,00134.8418,W,1,04,4.5,103.4,M,48.6,M,,0000*42
$GPGSA,M,3,24,15,06,02,,,,,,,,,5.0,4.5,2.3*3D
$GPRMC,195251.000,A,4715.1290,N,00134.8418,W,0.72,113.71,251217,,,A*7B
$GPGGA,195252.000,4715.1291,N,00134.8416,W,0,00,,103.4,M,48.6,M,,0000*64
$GPGSA,M,1,,,,,,,,,,,,,,,*12
$GPRMC,195252.000,V,4715.1291,N,00134.8416,W,,,251217,,,N*6F
$GPGGA,195253.000,4715.1291,N,00134.8413,W,0,00,,103.4,M,48.6,M,,0000*60
$GPGSA,M,1,,,,,,,,,,,,,,,*12
$GPRMC,195253.000,V,4715.1291,N,00134.8413,W,,,251217,,,N*6B
$GPGGA,195254.070,4715.1292,N,00134.8410,W,0,00,,103.5,M,48.6,M,,0000*61
$GPGSA,M,1,,,,,,,,,,,,,,,*12
$GPGSV,3,1,12,02,07,112,04,06,10,082,23,24,63,107,21,29,08,188,22*73
$GPGSV,3,2,12,49,35,171,,12,85,319,,25,45,249,,32,36,304,*78
$GPGSV,3,3,12,19,26,046,,14,18,317,,15,12,169,,10,10,259,*7A
$GPRMC,195254.070,V,4715.1292,N,00134.8410,W,,,251217,,,N*6B
$GPGGA,195255.070,4715.1292,N,00134.8407,W,0,00,,103.5,M,48.6,M,,0000*66
$GPGSA,M,1,,,,,,,,,,,,,,,*12
$GPRMC,195255.070,V,4715.1292,N,00134.8407,W,,,251217,,,N*6C
$GPGGA,195256.070,4715.1293,N,00134.8404,W,0,00,,103.5,M,48.6,M,,0000*67
$GPGSA,M,1,,,,,,,,,,,,,,,*12
$GPRMC,195256.070,V,4715.1293,N,00134.8404,W,,,251217,,,N*6D
$GPGGA,195257.070,4715.1293,N,00134.8401,W,0,00,,103.5,M,48.6,M,,0000*63
$GPGSA,M,1,,,,,,,,,,,,,,,*12
$GPRMC,195257.070,V,4715.1293,N,00134.8401,W,,,251217,,,N*69
$GPGGA,195258.070,4715.1294,N,00134.8399,W,0,00,,103.5,M,48.6,M,,0000*6D
$GPGSA,M,1,,,,,,,,,,,,,,,*12
$GPRMC,195258.070,V,4715.1294,N,00134.8399,W,,,251217,,,N*67
$GPGGA,195259.070,4715.1294,N,00134.8396,W,0,00,,103.5,M,48.6,M,,0000*63
$GPGSA,M,1,,,,,,,,,,,,,,,*12
$GPGSV,3,1,12,06,10,082,23,19,26,046,14,24,63,107,21,29,08,188,22*7B
$GPGSV,3,2,12,49,35,171,,12,85,319,,25,45,249,,32,36,304,*78
$GPGSV,3,3,12,14,18,317,,15,12,169,,10,10,259,,17,10,034,*74
$GPRMC,195259.070,V,4715.1294,N,00134.8396,W,,,251217,,,N*69
arfcn: 1 bsic: 33 rxLev: -98 ber: 0.00 mcc: 208 mnc: 01 lac: 6403 cellId: 8086 cellStatus: CELL_FORBIDDEN numArfcn: 13 arfcn: 1 17 18 19 20 21 22 23 24 25 47 48 49 numChannels: 8 array: 5 8 9 10 12 13 14 15 pbcch: 0 nom: 2 rac: 1 spgc: 0 pat: 6 nco: 0 t3168: 1000 t3192: 500 drxmax: 2 ctrlAck: 0 bsCVmax: 9 alpha: 5 pcMeasCh: 1 
arfcn: 976 rxLev: -98
arfcn: 74 rxLev: -98
$GPGGA,195300.070,4715.1295,N,00134.8393,W,0,00,,103.5,M,48.6,M,,0000*6A
arfcn: 72 rxLev: -98
$GPGSA,M,1,,,,,,,,,,,,,,,*12
arfcn: 94 rxLev: -99
arfcn: 95 rxLev: -99
$GPRMC,195300.070,V,4715.1295,N,00134.8393,W,,,251217,,,N*60
arfcn: 30 rxLev: -99
arfcn: 28 rxLev: -99
arfcn: 62 rxLev: -99
arfcn: 58 rxLev: -99
arfcn: 609 rxLev: -99
arfcn: 978 rxLev: -99
arfcn: 980 rxLev: -99
arfcn: 59 rxLev: -99
$GPGGA,195301.070,4715.1295,N,00134.8390,W,0,00,,103.5,M,48.6,M,,0000*68
arfcn: 60 rxLev: -99
$GPGSA,M,1,,,,,,,,,,,,,,,*12
arfcn: 29 rxLev: -99
arfcn: 27 rxLev: -99
$GPRMC,195301.070,V,4715.1295,N,00134.8390,W,,,251217,,,N*62
arfcn: 92 rxLev: -99
arfcn: 93 rxLev: -99
arfcn: 97 rxLev: -99
arfcn: 98 rxLev: -100
arfcn: 69 rxLev: -100
arfcn: 55 rxLev: -100
arfcn: 981 rxLev: -100
arfcn: 985 rxLev: -100
arfcn: 729 rxLev: -100
$GPGGA,195302.070,4715.1296,N,00134.8387,W,0,00,,103.5,M,48.6,M,,0000*6E
arfcn: 57 rxLev: -100
$GPGSA,M,1,,,,,,,,,,,,,,,*12
arfcn: 9 rxLev: -100
arfcn: 70 rxLev: -100
$GPRMC,195302.070,V,4715.1296,N,00134.8387,W,,,251217,,,N*64
arfcn: 65 rxLev: -100
arfcn: 96 rxLev: -100
arfcn: 99 rxLev: -101
arfcn: 975 rxLev: -101
arfcn: 118 rxLev: -101
arfcn: 71 rxLev: -101
arfcn: 78 rxLev: -101
arfcn: 84 rxLev: -101
$GPGGA,195303.071,4715.1293,N,00134.8416,W,1,04,3.2,104.0,M,48.6,M,,0000*4C
arfcn: 15 rxLev: -101
$GPGSA,M,3,24,19,15,06,,,,,,,,,3.7,3.2,1.8*3E
arfcn: 56 rxLev: -101
arfcn: 54 rxLev: -101
$GPRMC,195303.071,A,4715.1293,N,00134.8416,W,0.41,113.71,251217,,,A*76
arfcn: 849 rxLev: -101
arfcn: 983 rxLev: -101
arfcn: 982 rxLev: -101
arfcn: 979 rxLev: -101
arfcn: 1001 rxLev: -101
arfcn: 1005 rxLev: -101
arfcn: 1007 rxLev: -101
arfcn: 606 rxLev: -101
arfcn: 53 rxLev: -101
$GPGGA,195304.071,4715.1288,N,00134.8408,W,1,04,3.2,103.7,M,48.6,M,,0000*4E
arfcn: 46 rxLev: -101
$GPGSA,M,3,24,19,15,06,,,,,,,,,3.7,3.2,1.8*3E
arfcn: 4 rxLev: -101
arfcn: 82 rxLev: -101
