$GPRMC,142918.000,A,4806.4379,N,00140.2887,W,1.42,310.95,060118,,,A*7F
Survey start at #CCLK: "18/01/06,15:29:18+04"
at#csurv
Network survey started ...
Survey end at #CCLK: "18/01/06,15:29:18+04"
Survey duration: 0 seconds, 0 bases detected over 0 freqs scanned.
$GPGGA,142919.000,4806.4381,N,00140.2887,W,1,08,1.4,25.8,M,48.3,M,,0000*71
$GPGSA,M,3,13,05,28,20,30,15,07,21,,,,,2.5,1.4,2.1*33
$GPRMC,142919.000,A,4806.4381,N,00140.2887,W,1.70,307.17,060118,,,A*74
$GPGGA,142920.000,4806.4381,N,00140.2889,W,1,08,1.4,25.1,M,48.3,M,,0000*7C
$GPGSA,M,3,13,05,28,20,30,15,07,21,,,,,2.5,1.4,2.1*33
$GPRMC,142920.000,A,4806.4381,N,00140.2889,W,1.66,301.87,060118,,,A*78
$GPGGA,142921.000,4806.4381,N,00140.2888,W,1,08,1.4,25.1,M,48.3,M,,0000*7C
$GPGSA,M,3,13,05,28,20,30,15,07,21,,,,,2.5,1.4,2.1*33
Survey start at #CCLK: "18/01/06,15:29:21+04"
at#csurv
Network survey started ...
$GPGSV,3,1,12,13,68,304,29,05,53,191,40,28,46,103,26,20,46,290,31*71
$GPGSV,3,2,12,30,43,059,27,15,36,291,35,07,17,057,20,21,13,309,26*75
$GPGSV,3,3,12,04,04,220,12,08,05,035,13,16,00,000,11,33,33,198,*77
$GPRMC,142921.000,A,4806.4381,N,00140.2888,W,1.22,300.92,060118,,,A*7D
$GPGGA,142922.000,4806.4379,N,00140.2887,W,1,08,1.4,25.6,M,48.3,M,,0000*70
$GPGSA,M,3,13,05,28,20,30,15,07,21,,,,,2.5,1.4,2.1*33
$GPRMC,142922.000,A,4806.4379,N,00140.2887,W,0.87,300.92,060118,,,A*78
$GPGGA,142923.000,4806.4379,N,00140.2886,W,1,08,1.4,26.3,M,48.3,M,,0000*76
$GPGSA,M,3,13,05,28,20,30,15,07,21,,,,,2.5,1.4,2.1*33
$GPRMC,142923.000,A,4806.4379,N,00140.2886,W,0.87,300.92,060118,,,A*78
$GPGGA,142924.000,4806.4379,N,00140.2888,W,1,09,1.4,28.0,M,48.3,M,,0000*73
$GPGSA,M,3,13,05,28,20,30,15,07,21,08,,,,2.4,1.4,1.9*31
$GPRMC,142924.000,A,4806.4379,N,00140.2888,W,1.78,299.51,060118,,,A*7E
$GPGGA,142925.000,4806.4380,N,00140.2892,W,1,09,1.4,29.5,M,48.3,M,,0000*7B
$GPGSA,M,3,13,05,28,20,30,15,07,21,08,,,,2.4,1.4,1.9*31
$GPRMC,142925.000,A,4806.4380,N,00140.2892,W,1.45,298.98,060118,,,A*78
$GPGGA,142926.000,4806.4382,N,00140.2896,W,1,09,1.4,31.2,M,48.3,M,,0000*70
$GPGSA,M,3,13,05,28,20,30,15,07,21,08,,,,2.4,1.4,1.9*31
$GPGSV,3,1,12,13,68,304,28,05,53,191,38,28,46,103,28,20,46,290,31*71
$GPGSV,3,2,12,30,43,059,28,15,36,291,35,07,17,057,20,21,13,309,26*7A
$GPGSV,3,3,12,08,05,035,12,33,33,198,,04,04,220,,24,03,239,*7F
$GPRMC,142926.000,A,4806.4382,N,00140.2896,W,1.42,295.85,060118,,,A*7B
$GPGGA,142927.000,4806.4384,N,00140.2899,W,1,08,1.4,32.2,M,48.3,M,,0000*7A
$GPGSA,M,3,13,05,28,20,30,15,07,21,,,,,2.5,1.4,2.1*33
$GPRMC,142927.000,A,4806.4384,N,00140.2899,W,1.04,295.85,060118,,,A*71
arfcn: 1022 bsic: 11 rxLev: -58 ber: 50.00 mcc: 208 mnc: 20 lac: 418 cellId: 22382 cellStatus: CELL_SUITABLE numArfcn: 1 arfcn: 1022 numChannels: 24 array: 976 977 979 980 981 982 983 984 985 987 1014 1017 1019 1020 1021 787 789 790 792 793 795 796 878 882 pbcch: 0 nom: 2 rac: 6 spgc: 0 pat: 6 nco: 0 t3168: 1500 t3192: 500 drxmax: 0 ctrlAck: 0 bsCVmax: 8 alpha: 6 pcMeasCh: 1 
$GPGGA,142928.000,4806.4387,N,00140.2902,W,1,09,1.4,33.8,M,48.3,M,,0000*7F
$GPGSA,M,3,13,05,28,20,30,15,07,21,08,,,,2.4,1.4,1.9*31
$GPRMC,142928.000,A,4806.4387,N,00140.2902,W,1.18,296.58,060118,,,A*70
arfcn: 121 bsic: 42 rxLev: -59 ber: 0.00 mcc: 208 mnc: 10 lac: 49415 cellId: 13533 cellStatus: CELL_FORBIDDEN numArfcn: 2 arfcn: 83 121 numChannels: 16 array: 78 79 80 82 84 85 86 114 115 117 118 119 120 121 123 124 pbcch: 0 nom: 2 rac: 31 spgc: 0 pat: 6 nco: 0 t3168: 1000 t3192: 500 drxmax: 4 ctrlAck: 1 bsCVmax: 9 alpha: 10 pcMeasCh: 0 
$GPGGA,142929.000,4806.4390,N,00140.2906,W,1,09,1.4,35.8,M,48.3,M,,0000*7A
$GPGSA,M,3,13,05,28,20,30,15,07,21,08,,,,2.4,1.4,1.9*31
$GPRMC,142929.000,A,4806.4390,N,00140.2906,W,0.91,296.58,060118,,,A*73
$GPGGA,142930.000,4806.4392,N,00140.2908,W,1,08,1.4,36.3,M,48.3,M,,0000*77
$GPGSA,M,3,13,05,28,20,30,15,07,21,,,,,2.5,1.4,2.1*33
$GPRMC,142930.000,A,4806.4392,N,00140.2908,W,0.99,296.58,060118,,,A*7F
arfcn: 5 bsic: 49 rxLev: -65 ber: 0.00 mcc: 208 mnc: 01 lac: 10301 cellId: 18302 cellStatus: CELL_FORBIDDEN numArfcn: 13 arfcn: 5 17 18 19 20 21 22 23 24 25 47 48 49 numChannels: 23 array: 1 3 4 7 8 9 11 12 13 15 512 513 514 515 516 517 518 605 606 607 608 609 610 pbcch: 0 nom: 2 rac: 1 spgc: 0 pat: 6 nco: 0 t3168: 1000 t3192: 500 drxmax: 2 ctrlAck: 0 bsCVmax: 9 alpha: 10 pcMeasCh: 1 
$GPGGA,142931.000,4806.4395,N,00140.2910,W,1,08,1.4,37.1,M,48.3,M,,0000*7B
$GPGSA,M,3,13,05,28,20,30,15,07,21,,,,,2.5,1.4,2.1*33
$GPGSV,3,1,12,13,68,304,24,05,53,191,38,28,46,103,24,20,46,290,31*71
$GPGSV,3,2,12,30,43,059,29,15,36,291,35,07,17,057,19,21,13,309,22*75
$GPGSV,3,3,12,33,33,198,,08,05,035,,04,04,220,,24,03,239,*7C
$GPRMC,142931.000,A,4806.4395,N,00140.2910,W,0.65,296.58,060118,,,A*73
$GPGGA,142932.000,4806.4398,N,00140.2910,W,1,08,1.4,37.9,M,48.3,M,,0000*7D
$GPGSA,M,3,13,05,28,20,30,15,07,21,,,,,2.5,1.4,2.1*33
$GPRMC,142932.000,A,4806.4398,N,00140.2910,W,0.62,296.58,060118,,,A*7A
arfcn: 606 bsic: 1 rxLev: -67 ber: 0.00 mcc: 208 mnc: 01 lac: 10301 cellId: 27451 cellStatus: CELL_FORBIDDEN numArfcn: 16 arfcn: 519 520 521 522 523 524 525 526 596 597 598 599 600 601 602 603 numChannels: 18 array: 1 3 4 5 7 512 513 514 515 516 517 518 604 605 607 608 609 610 pbcch: 0 nom: 2 rac: 1 spgc: 0 pat: 6 nco: 0 t3168: 1000 t3192: 500 drxmax: 2 ctrlAck: 0 bsCVmax: 9 alpha: 10 pcMeasCh: 1 
$GPGGA,142933.000,4806.4401,N,00140.2910,W,1,08,1.4,39.1,M,48.3,M,,0000*7D
$GPGSA,M,3,13,05,28,20,30,15,07,21,,,,,2.5,1.4,2.1*33
$GPRMC,142933.000,A,4806.4401,N,00140.2910,W,0.53,296.58,060118,,,A*7E
$GPGGA,142934.000,4806.4404,N,00140.2911,W,1,08,1.4,40.5,M,48.3,M,,0000*74
$GPGSA,M,3,13,05,28,20,30,15,07,21,,,,,2.5,1.4,2.1*33
$GPRMC,142934.000,A,4806.4404,N,00140.2911,W,0.28,296.58,060118,,,A*71
$GPGGA,142935.000,4806.4407,N,00140.2911,W,1,08,1.4,42.0,M,48.3,M,,0000*71
$GPGSA,M,3,13,05,28,20,30,15,07,21,,,,,2.5,1.4,2.1*33
$GPRMC,142935.000,A,4806.4407,N,00140.2911,W,0.34,296.58,060118,,,A*7E
$GPGGA,142936.000,4806.4408,N,00140.2914,W,1,08,1.4,43.2,M,48.3,M,,0000*7B
$GPGSA,M,3,13,05,28,20,30,15,07,21,,,,,2.5,1.4,2.1*33
$GPGSV,3,1,12,13,68,304,25,05,53,191,40,28,46,103,27,20,46,290,33*7E
$GPGSV,3,2,12,30,43,059,30,15,36,291,39,07,17,057,20,21,13,309,22*7B
$GPGSV,3,3,12,33,33,198,,08,05,035,,04,04,220,,24,03,239,*7C
$GPRMC,142936.000,A,4806.4408,N,00140.2914,W,0.38,296.58,060118,,,A*7B
$GPGGA,142937.000,4806.4410,N,00140.2918,W,1,08,1.4,44.4,M,48.3,M,,0000*7E
$GPGSA,M,3,13,05,28,20,30,15,07,21,,,,,2.5,1.4,2.1*33
$GPRMC,142937.000,A,4806.4410,N,00140.2918,W,0.88,296.58,060118,,,A*74
$GPGGA,142938.000,4806.4413,N,00140.2922,W,1,08,1.4,44.4,M,48.3,M,,0000*7B
$GPGSA,M,3,13,05,28,20,30,15,07,21,,,,,2.5,1.4,2.1*33
$GPRMC,142938.000,A,4806.4413,N,00140.2922,W,0.93,296.58,060118,,,A*7B
$GPGGA,142939.000,4806.4414,N,00140.2926,W,1,08,1.4,41.9,M,48.3,M,,0000*71
$GPGSA,M,3,13,05,28,20,30,15,07,21,,,,,2.5,1.4,2.1*33
$GPRMC,142939.000,A,4806.4414,N,00140.2926,W,0.79,296.58,060118,,,A*7D
$GPGGA,142940.000,4806.4415,N,00140.2929,W,1,08,1.4,41.5,M,48.3,M,,0000*7D
$GPGSA,M,3,13,05,28,20,30,15,07,21,,,,,2.5,1.4,2.1*33
$GPRMC,142940.000,A,4806.4415,N,00140.2929,W,0.28,296.58,060118,,,A*79
$GPGGA,142941.000,4806.4417,N,00140.2931,W,1,08,1.4,41.3,M,48.3,M,,0000*71
$GPGSA,M,3,13,05,28,20,30,15,07,21,,,,,2.5,1.4,2.1*33
$GPGSV,3,1,12,13,68,304,29,05,53,191,40,28,46,103,20,20,46,290,40*71
$GPGSV,3,2,12,30,43,059,29,15,36,291,38,07,17,057,20,21,13,309,22*72
$GPGSV,3,3,12,49,34,171,,08,05,035,,04,04,220,,24,03,239,*71
$GPRMC,142941.000,A,4806.4417,N,00140.2931,W,0.24,296.58,060118,,,A*7F
arfcn: 976 bsic: 16 rxLev: -70 ber: 0.00 mcc: 208 mnc: 20 lac: 418 cellId: 22383 cellStatus: CELL_SUITABLE numArfcn: 2 arfcn: 976 978 numChannels: 30 array: 787 788 789 792 796 878 879 880 882 885 977 979 980 981 982 983 984 985 986 987 1011 1013 1014 1015 1017 1018 1019 1020 1021 1022 pbcch: 0 nom: 2 rac: 6 spgc: 0 pat: 6 nco: 0 t3168: 1500 t3192: 500 drxmax: 0 ctrlAck: 0 bsCVmax: 8 alpha: 6 pcMeasCh: 1 
$GPGGA,142942.000,4806.4419,N,00140.2933,W,1,08,1.4,41.3,M,48.3,M,,0000*7E
$GPGSA,M,3,13,05,28,20,30,15,07,21,,,,,2.5,1.4,2.1*33
$GPRMC,142942.000,A,4806.4419,N,00140.2933,W,0.09,296.58,060118,,,A*7F
$GPGGA,142943.000,4806.4419,N,00140.2933,W,1,08,1.4,40.9,M,48.3,M,,0000*74
$GPGSA,M,3,13,05,28,20,30,15,07,21,,,,,2.5,1.4,2.1*33
$GPRMC,142943.000,A,4806.4419,N,00140.2933,W,0.00,296.58,060118,,,A*77
arfcn: 118 bsic: 20 rxLev: -71 ber: 0.00 mcc: 208 mnc: 10 lac: 49415 cellId: 23533 cellStatus: CELL_FORBIDDEN numArfcn: 2 arfcn: 116 118 numChannels: 16 array: 76 77 78 79 82 83 84 85 86 114 117 118 119 121 123 124 pbcch: 0 nom: 2 rac: 31 spgc: 0 pat: 6 nco: 0 t3168: 1000 t3192: 500 drxmax: 4 ctrlAck: 1 bsCVmax: 9 alpha: 10 pcMeasCh: 0 
arfcn: 43 rxLev: -72
arfcn: 625 rxLev: -72
arfcn: 646 rxLev: -72
$GPGGA,142944.000,4806.4420,N,00140.2935,W,1,08,1.4,41.0,M,48.3,M,,0000*77
arfcn: 648 rxLev: -73
$GPGSA,M,3,13,05,28,20,30,15,07,21,,,,,2.5,1.4,2.1*33
arfcn: 640 rxLev: -73
$GPRMC,142944.000,A,4806.4420,N,00140.2935,W,0.07,296.58,060118,,,A*7B
arfcn: 622 rxLev: -73
arfcn: 623 rxLev: -73
arfcn: 620 rxLev: -73
arfcn: 44 rxLev: -73
arfcn: 35 rxLev: -73
arfcn: 45 rxLev: -73
arfcn: 42 rxLev: -73
arfcn: 92 rxLev: -73
$GPGGA,142945.000,4806.4422,N,00140.2937,W,1,08,1.4,41.4,M,48.3,M,,0000*72
arfcn: 626 rxLev: -73
arfcn: 628 rxLev: -73
$GPGSA,M,3,13,05,28,20,30,15,07,21,,,,,2.5,1.4,2.1*33
arfcn: 630 rxLev: -73
$GPRMC,142945.000,A,4806.4422,N,00140.2937,W,0.22,296.58,060118,,,A*7D
arfcn: 617 rxLev: -73
arfcn: 638 rxLev: -73
arfcn: 642 rxLev: -73
arfcn: 645 rxLev: -74
arfcn: 636 rxLev: -74
arfcn: 632 rxLev: -74
arfcn: 627 rxLev: -74
arfcn: 621 rxLev: -74
$GPGGA,142946.000,4806.4423,N,00140.2939,W,1,08,1.4,41.4,M,48.3,M,,0000*7E
arfcn: 624 rxLev: -74
$GPGSA,M,3,13,05,28,20,30,15,07,21,,,,,2.5,1.4,2.1*33
$GPGSV,3,1,12,13,68,304,25,05,53,191,37,28,46,103,27,20,46,290,36*7B
$GPGSV,3,2,12,30,43,059,26,15,36,291,36,07,17,057,16,21,13,309,29*7D
$GPGSV,3,3,12,49,34,171,,08,05,035,,04,04,220,,24,03,239,*71
$GPRMC,142946.000,A,4806.4423,N,00140.2939,W,0.06,296.58,060118,,,A*77
$GPGGA,142947.000,4806.4424,N,00140.2943,W,1,08,1.4,41.3,M,48.3,M,,0000*72
$GPGSA,M,3,13,05,28,20,30,15,07,21,,,,,2.5,1.4,2.1*33
$GPRMC,142947.000,A,4806.4424,N,00140.2943,W,0.17,296.58,060118,,,A*7C
$GPGGA,142948.000,4806.4424,N,00140.2943,W,1,08,1.4,41.3,M,48.3,M,,0000*7D
$GPGSA,M,3,13,05,28,20,30,15,07,21,,,,,2.5,1.4,2.1*33
$GPRMC,142948.000,A,4806.4424,N,00140.2943,W,0.01,296.58,060118,,,A*74
$GPGGA,142949.000,4806.4425,N,00140.2945,W,1,08,1.4,41.4,M,48.3,M,,0000*7C
$GPGSA,M,3,13,05,28,20,30,15,07,21,,,,,2.5,1.4,2.1*33
$GPRMC,142949.000,A,4806.4425,N,00140.2945,W,0.08,296.58,060118,,,A*7B
arfcn: 984 bsic: 45 rxLev: -74 ber: 0.00 mcc: 208 mnc: 20 lac: 418 cellId: 20651 cellStatus: CELL_SUITABLE numArfcn: 1 arfcn: 984 numChannels: 27 array: 787 789 790 792 793 795 796 878 880 882 885 975 976 977 979 981 985 987 1011 1012 1013 1014 1017 1019 1020 1021 1022 pbcch: 0 nom: 2 rac: 6 spgc: 0 pat: 6 nco: 0 t3168: 1500 t3192: 500 drxmax: 0 ctrlAck: 0 bsCVmax: 8 alpha: 6 pcMeasCh: 1 
arfcn: 93 rxLev: -74
arfcn: 94 rxLev: -74
arfcn: 91 rxLev: -74
arfcn: 102 rxLev: -74
arfcn: 41 rxLev: -74
arfcn: 37 rxLev: -74
$GPGGA,142950.000,4806.4425,N,00140.2945,W,1,08,1.4,41.5,M,48.3,M,,0000*75
arfcn: 682 rxLev: -74
$GPGSA,M,3,13,05,28,20,30,15,07,21,,,,,2.5,1.4,2.1*33
arfcn: 36 rxLev: -74
arfcn: 32 rxLev: -74
$GPRMC,142950.000,A,4806.4425,N,00140.2945,W,0.00,296.58,060118,,,A*7B
arfcn: 40 rxLev: -74
arfcn: 46 rxLev: -74
arfcn: 105 rxLev: -74
arfcn: 108 rxLev: -74
arfcn: 991 rxLev: -74
arfcn: 992 rxLev: -74
arfcn: 994 rxLev: -74
$GPGGA,142951.000,4806.4427,N,00140.2947,W,1,08,1.4,41.6,M,48.3,M,,0000*77
arfcn: 618 rxLev: -74
arfcn: 619 rxLev: -74
$GPGSA,M,3,13,05,28,20,30,15,07,21,,,,,2.5,1.4,2.1*33
arfcn: 629 rxLev: -74
$GPGSV,3,1,12,13,68,304,24,05,53,191,40,28,46,103,24,20,46,290,37*78
arfcn: 637 rxLev: -74
arfcn: 641 rxLev: -74
$GPGSV,3,2,12,30,43,059,28,15,36,291,42,07,17,057,21,21,13,309,26*7B
arfcn: 643 rxLev: -74
arfcn: 647 rxLev: -74
$GPGSV,3,3,12,49,34,171,,08,05,035,,04,04,220,,24,03,239,*71
arfcn: 650 rxLev: -74
$GPRMC,142951.000,A,4806.4427,N,00140.2947,W,0.07,296.58,060118,,,A*7D
arfcn: 657 rxLev: -74
arfcn: 658 rxLev: -74
arfcn: 659 rxLev: -74
$GPGGA,142952.000,4806.4428,N,00140.2950,W,1,08,1.4,41.9,M,48.3,M,,0000*72
arfcn: 656 rxLev: -75
arfcn: 654 rxLev: -75
$GPGSA,M,3,13,05,28,20,30,15,07,21,,,,,2.5,1.4,2.1*33
arfcn: 652 rxLev: -75
arfcn: 653 rxLev: -75
$GPRMC,142952.000,A,4806.4428,N,00140.2950,W,0.06,296.58,060118,,,A*76
arfcn: 649 rxLev: -75
arfcn: 644 rxLev: -75
arfcn: 634 rxLev: -75
arfcn: 631 rxLev: -75
arfcn: 993 rxLev: -75
arfcn: 104 rxLev: -75
arfcn: 106 rxLev: -75
$GPGGA,142953.000,4806.4428,N,00140.2950,W,1,08,1.4,41.9,M,48.3,M,,0000*73
arfcn: 107 rxLev: -75
$GPGSA,M,3,13,05,28,20,30,15,07,21,,,,,2.5,1.4,2.1*33
arfcn: 103 rxLev: -75
arfcn: 101 rxLev: -75
$GPRMC,142953.000,A,4806.4428,N,00140.2950,W,0.01,296.58,060118,,,A*70
arfcn: 38 rxLev: -75
arfcn: 39 rxLev: -75
arfcn: 31 rxLev: -75
arfcn: 697 rxLev: -75
arfcn: 706 rxLev: -75
arfcn: 34 rxLev: -75
arfcn: 122 rxLev: -75
arfcn: 95 rxLev: -75
$GPGGA,142954.000,4806.4428,N,00140.2950,W,1,07,1.5,41.9,M,48.3,M,,0000*7A
arfcn: 65 rxLev: -75
arfcn: 990 rxLev: -75
$GPGSA,M,3,13,05,28,20,30,15,07,,,,,,3.1,1.5,2.7*32
arfcn: 1023 rxLev: -75
$GPRMC,142954.000,A,4806.4428,N,00140.2950,W,0.00,296.58,060118,,,A*76
arfcn: 635 rxLev: -75
arfcn: 639 rxLev: -75
arfcn: 655 rxLev: -75
arfcn: 662 rxLev: -75
arfcn: 663 rxLev: -76
arfcn: 661 rxLev: -76
arfcn: 633 rxLev: -76
$GPGGA,142955.000,4806.4428,N,00140.2950,W,1,08,1.4,41.9,M,48.3,M,,0000*75
arfcn: 995 rxLev: -76
arfcn: 1001 rxLev: -76
$GPGSA,M,3,13,05,28,20,30,15,07,21,,,,,2.5,1.4,2.1*33
arfcn: 1002 rxLev: -76
arfcn: 1008 rxLev: -76
$GPRMC,142955.000,A,4806.4428,N,00140.2950,W,0.00,296.58,060118,,,A*77
arfcn: 64 rxLev: -76
arfcn: 100 rxLev: -76
arfcn: 33 rxLev: -76
arfcn: 30 rxLev: -76
arfcn: 27 rxLev: -76
arfcn: 699 rxLev: -76
arfcn: 704 rxLev: -76
arfcn: 705 rxLev: -76
$GPGGA,142956.000,4806.4428,N,00140.2952,W,1,07,1.5,41.2,M,48.3,M,,0000*71
arfcn: 698 rxLev: -76
$GPGSA,M,3,13,05,28,20,30,15,21,,,,,,2.8,1.5,2.4*3D
arfcn: 696 rxLev: -76
arfcn: 56 rxLev: -76
$GPGSV,3,1,12,13,68,304,24,05,53,191,37,28,46,103,27,20,46,290,32*7E
arfcn: 66 rxLev: -76
arfcn: 90 rxLev: -76
$GPGSV,3,2,12,30,43,059,29,15,36,291,47,21,13,309,29,07,17,057,15*77
arfcn: 1006 rxLev: -76
$GPGSV,3,3,12,49,34,171,,08,05,035,,04,04,220,,24,03,239,*71
arfcn: 1007 rxLev: -76
arfcn: 1003 rxLev: -76
$GPRMC,142956.000,A,4806.4428,N,00140.2952,W,0.22,296.58,060118,,,A*76
arfcn: 1000 rxLev: -76
arfcn: 999 rxLev: -76
$GPGGA,142957.000,4806.4428,N,00140.2952,W,1,08,1.4,41.1,M,48.3,M,,0000*7D
arfcn: 660 rxLev: -76
$GPGSA,M,3,13,05,28,20,30,15,07,21,,,,,2.5,1.4,2.1*33
arfcn: 664 rxLev: -76
arfcn: 665 rxLev: -76
$GPRMC,142957.000,A,4806.4428,N,00140.2952,W,0.00,296.58,060118,,,A*77
arfcn: 651 rxLev: -76
arfcn: 1004 rxLev: -77
arfcn: 1005 rxLev: -77
arfcn: 67 rxLev: -77
arfcn: 68 rxLev: -77
arfcn: 69 rxLev: -77
arfcn: 98 rxLev: -77
arfcn: 109 rxLev: -77
$GPGGA,142958.000,4806.4428,N,00140.2954,W,1,08,1.4,40.5,M,48.3,M,,0000*71
arfcn: 120 rxLev: -77
arfcn: 59 rxLev: -77
$GPGSA,M,3,13,05,28,20,30,15,07,21,,,,,2.5,1.4,2.1*33
arfcn: 55 rxLev: -77
arfcn: 28 rxLev: -77
$GPRMC,142958.000,A,4806.4428,N,00140.2954,W,0.12,296.58,060118,,,A*7D
arfcn: 685 rxLev: -77
arfcn: 687 rxLev: -77
arfcn: 669 rxLev: -77
arfcn: 671 rxLev: -77
arfcn: 701 rxLev: -77
arfcn: 702 rxLev: -77
arfcn: 703 rxLev: -77
$GPGGA,142959.000,4806.4428,N,00140.2955,W,1,08,1.4,40.2,M,48.3,M,,0000*76
arfcn: 666 rxLev: -77
$GPGSA,M,3,13,05,28,20,30,15,07,21,,,,,2.5,1.4,2.1*33
arfcn: 679 rxLev: -77
arfcn: 681 rxLev: -77
$GPRMC,142959.000,A,4806.4428,N,00140.2955,W,0.02,296.58,060118,,,A*7C
arfcn: 683 rxLev: -77
arfcn: 694 rxLev: -77
arfcn: 29 rxLev: -77
arfcn: 54 rxLev: -77
arfcn: 58 rxLev: -77
arfcn: 57 rxLev: -77
arfcn: 60 rxLev: -77
arfcn: 61 rxLev: -77
$GPGGA,143000.000,4806.4428,N,00140.2955,W,1,08,1.4,40.3,M,48.3,M,,0000*73
arfcn: 99 rxLev: -77
arfcn: 96 rxLev: -77
$GPGSA,M,3,13,05,28,20,30,15,07,21,,,,,2.5,1.4,2.1*33
arfcn: 97 rxLev: -77
$GPRMC,143000.000,A,4806.4428,N,00140.2955,W,0.00,296.58,060118,,,A*7A
arfcn: 998 rxLev: -77
arfcn: 996 rxLev: -77
arfcn: 62 rxLev: -78
arfcn: 695 rxLev: -78
arfcn: 691 rxLev: -78
arfcn: 667 rxLev: -78
arfcn: 700 rxLev: -78
arfcn: 668 rxLev: -78
$GPGGA,143001.000,4806.4428,N,00140.2958,W,1,08,1.4,40.9,M,48.3,M,,0000*75
arfcn: 692 rxLev: -78
$GPGSA,M,3,13,05,28,20,30,15,07,21,,,,,2.5,1.4,2.1*33
arfcn: 693 rxLev: -78
arfcn: 686 rxLev: -78
$GPGSV,3,1,12,13,68,304,26,05,53,191,39,28,46,103,22,20,46,290,41*73
arfcn: 689 rxLev: -78
arfcn: 63 rxLev: -78
$GPGSV,3,2,12,30,43,059,28,15,36,291,46,07,17,057,25,21,13,309,19*77
arfcn: 53 rxLev: -78
$GPGSV,3,3,12,49,34,171,,08,05,035,,04,04,220,,24,03,239,*71
arfcn: 997 rxLev: -78
arfcn: 70 rxLev: -79
$GPRMC,143001.000,A,4806.4428,N,00140.2958,W,0.09,296.58,060118,,,A*7F
arfcn: 684 rxLev: -79
arfcn: 670 rxLev: -79
arfcn: 672 rxLev: -79
$GPGGA,143002.000,4806.4428,N,00140.2958,W,1,08,1.4,40.9,M,48.3,M,,0000*76
arfcn: 675 rxLev: -79
arfcn: 677 rxLev: -79
$GPGSA,M,3,13,05,28,20,30,15,07,21,,,,,2.5,1.4,2.1*33
arfcn: 680 rxLev: -79
$GPRMC,143002.000,A,4806.4428,N,00140.2958,W,0.00,296.58,060118,,,A*75
arfcn: 673 rxLev: -79
arfcn: 678 rxLev: -80
arfcn: 676 rxLev: -80
arfcn: 674 rxLev: -80
arfcn: 688 rxLev: -80
arfcn: 690 rxLev: -80
arfcn: 71 rxLev: -80
arfcn: 110 rxLev: -80
$GPGGA,143003.000,4806.4428,N,00140.2958,W,1,08,1.4,40.9,M,48.3,M,,0000*77
arfcn: 1021 rxLev: -80
$GPGSA,M,3,13,05,28,20,30,15,07,21,,,,,2.5,1.4,2.1*33
arfcn: 47 rxLev: -80
$GPRMC,143003.000,A,4806.4428,N,00140.2958,W,0.00,296.58,060118,,,A*74
arfcn: 26 rxLev: -80
arfcn: 753 rxLev: -80
arfcn: 770 rxLev: -80
arfcn: 52 rxLev: -81
$GPGGA,143004.000,4806.4429,N,00140.2961,W,1,09,1.4,42.0,M,48.3,M,,0000*71
$GPGSA,M,3,13,05,28,20,30,15,07,21,08,,,,2.4,1.4,1.9*31
$GPRMC,143004.000,A,4806.4429,N,00140.2961,W,0.28,296.58,060118,,,A*72
$GPGGA,143005.000,4806.4429,N,00140.2961,W,1,09,1.4,42.0,M,48.3,M,,0000*70
$GPGSA,M,3,13,05,28,20,30,15,07,21,08,,,,2.4,1.4,1.9*31
$GPRMC,143005.000,A,4806.4429,N,00140.2961,W,0.02,296.58,060118,,,A*7B
$GPGGA,143006.000,4806.4430,N,00140.2964,W,1,09,1.4,42.9,M,48.3,M,,0000*77
$GPGSA,M,3,13,05,28,20,30,15,07,21,08,,,,2.4,1.4,1.9*31
$GPGSV,3,1,12,13,68,304,21,05,53,191,39,28,46,103,27,20,46,290,41*71
$GPGSV,3,2,12,30,43,059,24,15,36,291,45,07,17,057,22,21,13,309,20*75
$GPGSV,3,3,12,08,05,035,16,49,34,171,,04,04,220,,24,03,239,*76
$GPRMC,143006.000,A,4806.4430,N,00140.2964,W,0.14,296.58,060118,,,A*72
arfcn: 1011 bsic: 26 rxLev: -81 ber: 0.00 mcc: 208 mnc: 20 lac: 418 cellId: 17727 cellStatus: CELL_SUITABLE numArfcn: 1 arfcn: 1011 numChannels: 22 array: 790 880 882 976 978 979 980 981 982 984 985 987 1012 1013 1014 1015 1016 1017 1018 1019 1020 1021 pbcch: 0 nom: 2 rac: 6 spgc: 0 pat: 6 nco: 0 t3168: 1500 t3192: 500 drxmax: 0 ctrlAck: 0 bsCVmax: 8 alpha: 6 pcMeasCh: 1 
$GPGGA,143007.000,4806.4431,N,00140.2965,W,1,09,1.4,43.7,M,48.3,M,,0000*79
$GPGSA,M,3,13,05,28,20,30,15,07,21,08,,,,2.4,1.4,1.9*31
$GPRMC,143007.000,A,4806.4431,N,00140.2965,W,0.13,296.58,060118,,,A*74
$GPGGA,143008.000,4806.4431,N,00140.2965,W,1,09,1.4,43.7,M,48.3,M,,0000*76
$GPGSA,M,3,13,05,28,20,30,15,07,21,08,,,,2.4,1.4,1.9*31
$GPRMC,143008.000,A,4806.4431,N,00140.2965,W,0.00,296.58,060118,,,A*79
arfcn: 1 bsic: 53 rxLev: -81 ber: 0.00 mcc: 208 mnc: 01 lac: 10301 cellId: 18303 cellStatus: CELL_FORBIDDEN numArfcn: 13 arfcn: 1 17 18 19 20 21 22 23 24 25 47 48 49 numChannels: 25 array: 3 4 5 6 7 9 10 11 12 13 15 512 513 514 515 516 517 518 604 605 606 607 608 609 610 pbcch: 0 nom: 2 rac: 1 spgc: 0 pat: 6 nco: 0 t3168: 1000 t3192: 500 drxmax: 2 ctrlAck: 0 bsCVmax: 9 alpha: 10 pcMeasCh: 1 
arfcn: 771 rxLev: -81
arfcn: 775 rxLev: -81
arfcn: 763 rxLev: -82
arfcn: 764 rxLev: -82
arfcn: 4 rxLev: -82
arfcn: 89 rxLev: -82
$GPGGA,143009.000,4806.4431,N,00140.2965,W,1,08,1.4,43.7,M,48.3,M,,0000*76
arfcn: 762 rxLev: -82
$GPGSA,M,3,13,05,28,20,30,15,07,21,,,,,2.5,1.4,2.1*33
arfcn: 743 rxLev: -82
arfcn: 747 rxLev: -82
$GPRMC,143009.000,A,4806.4431,N,00140.2965,W,0.00,296.58,060118,,,A*78
arfcn: 776 rxLev: -82
arfcn: 777 rxLev: -82
arfcn: 779 rxLev: -82
arfcn: 780 rxLev: -82
arfcn: 769 rxLev: -82
arfcn: 717 rxLev: -82
arfcn: 727 rxLev: -82
$GPGGA,143010.000,4806.4431,N,00140.2965,W,1,08,1.4,43.7,M,48.3,M,,0000*7E
arfcn: 726 rxLev: -83
$GPGSA,M,3,13,05,28,20,30,15,07,21,,,,,2.5,1.4,2.1*33
arfcn: 728 rxLev: -83
arfcn: 715 rxLev: -83
$GPRMC,143010.000,A,4806.4431,N,00140.2965,W,0.00,296.58,060118,,,A*70
arfcn: 766 rxLev: -83
arfcn: 772 rxLev: -83
arfcn: 774 rxLev: -83
arfcn: 742 rxLev: -83
arfcn: 744 rxLev: -83
arfcn: 761 rxLev: -83
arfcn: 752 rxLev: -83
arfcn: 754 rxLev: -83
$GPGGA,143011.000,4806.4431,N,00140.2965,W,1,08,1.4,43.7,M,48.3,M,,0000*7F
arfcn: 756 rxLev: -83
$GPGSA,M,3,13,05,28,20,30,15,07,21,,,,,2.5,1.4,2.1*33
arfcn: 72 rxLev: -83
arfcn: 605 rxLev: -83
$GPGSV,3,1,12,13,68,304,24,05,53,191,34,28,46,103,28,20,46,290,37*77
arfcn: 6 rxLev: -83
arfcn: 757 rxLev: -83
$GPGSV,3,2,12,30,43,059,27,15,36,291,47,07,17,057,22,21,13,309,27*73
arfcn: 751 rxLev: -83
arfcn: 765 rxLev: -83
$GPGSV,3,3,12,08,05,035,04,37,27,150,,04,04,220,,24,03,239,*7D
arfcn: 778 rxLev: -83
$GPRMC,143011.000,A,4806.4431,N,00140.2965,W,0.00,296.58,060118,,,A*71
arfcn: 767 rxLev: -83
arfcn: 768 rxLev: -84
$GPGGA,143012.000,4806.4431,N,00140.2967,W,1,08,1.4,43.8,M,48.3,M,,0000*71
arfcn: 773 rxLev: -84
arfcn: 746 rxLev: -84
$GPGSA,M,3,13,05,28,20,30,15,07,21,,,,,2.5,1.4,2.1*33
arfcn: 736 rxLev: -84
$GPRMC,143012.000,A,4806.4431,N,00140.2967,W,0.12,296.58,060118,,,A*73
arfcn: 716 rxLev: -84
arfcn: 733 rxLev: -84
arfcn: 721 rxLev: -84
arfcn: 989 rxLev: -84
arfcn: 1009 rxLev: -84
$GPGGA,143013.000,4806.4430,N,00140.2970,W,1,08,1.4,43.7,M,48.3,M,,0000*78
$GPGSA,M,3,13,05,28,20,30,15,07,21,,,,,2.5,1.4,2.1*33
$GPRMC,143013.000,A,4806.4430,N,00140.2970,W,0.13,296.58,060118,,,A*74
$GPGGA,143014.000,4806.4430,N,00140.2971,W,1,08,1.4,43.9,M,48.3,M,,0000*70
$GPGSA,M,3,13,05,28,20,30,15,07,21,,,,,2.5,1.4,2.1*33
$GPRMC,143014.000,A,4806.4430,N,00140.2971,W,0.20,296.58,060118,,,A*72
$GPGGA,143015.000,4806.4431,N,00140.2971,W,1,07,1.5,44.0,M,48.3,M,,0000*70
$GPGSA,M,3,13,05,28,20,30,15,21,,,,,,2.8,1.5,2.4*3D
$GPRMC,143015.000,A,4806.4431,N,00140.2971,W,0.30,296.58,060118,,,A*73
$GPGGA,143016.000,4806.4432,N,00140.2971,W,1,08,1.4,44.3,M,48.3,M,,0000*7D
$GPGSA,M,3,13,05,28,20,30,15,07,21,,,,,2.5,1.4,2.1*33
arfcn: 518 bsic: 33 rxLev: -84 ber: 1.04 mcc: 208 mnc: 01 lac: 10301 cellId: 20561 cellStatus: CELL_FORBIDDEN numArfcn: 16 arfcn: 519 520 521 522 523 524 525 526 596 597 598 599 600 601 602 603 numChannels: 20 array: 1 4 5 7 9 12 13 512 513 514 515 516 517 518 604 605 606 608 609 610 pbcch: 0 nom: 2 rac: 1 spgc: 0 pat: 6 nco: 0 t3168: 1000 t3192: 500 drxmax: 2 ctrlAck: 0 bsCVmax: 9 alpha: 5 pcMeasCh: 1 
arfcn: 616 rxLev: -84
$GPGSV,3,1,12,13,69,305,20,05,52,191,35,28,47,103,27,20,46,289,38*7A
$GPGSV,3,2,12,30,42,059,27,15,37,292,47,07,16,057,16,21,13,308,25*75
$GPGSV,3,3,12,08,05,035,04,37,27,150,,04,04,219,,24,03,240,*79
$GPRMC,143016.000,A,4806.4432,N,00140.2971,W,0.20,296.58,060118,,,A*72
$GPGGA,143017.000,4806.4432,N,00140.2971,W,1,08,1.4,44.3,M,48.3,M,,0000*7C
$GPGSA,M,3,13,05,28,20,30,15,07,21,,,,,2.5,1.4,2.1*33
$GPRMC,143017.000,A,4806.4432,N,00140.2971,W,0.01,296.58,060118,,,A*70
arfcn: 123 bsic: 40 rxLev: -84 ber: 0.00 mcc: 208 mnc: 10 lac: 49415 cellId: 3533 cellStatus: CELL_FORBIDDEN numArfcn: 2 arfcn: 111 123 numChannels: 19 array: 76 77 78 82 84 85 86 114 115 117 118 119 120 121 122 123 124 612 710 pbcch: 0 nom: 2 rac: 31 spgc: 0 pat: 6 nco: 0 t3168: 1000 t3192: 500 drxmax: 4 ctrlAck: 1 bsCVmax: 9 alpha: 10 pcMeasCh: 0 
arfcn: 718 rxLev: -84
$GPGGA,143018.000,4806.4434,N,00140.2972,W,1,08,1.4,44.6,M,48.3,M,,0000*73
$GPGSA,M,3,13,05,28,20,30,15,07,21,,,,,2.5,1.4,2.1*33
arfcn: 734 rxLev: -84
arfcn: 741 rxLev: -84
$GPRMC,143018.000,A,4806.4434,N,00140.2972,W,0.34,296.58,060118,,,A*7C
arfcn: 758 rxLev: -84
arfcn: 759 rxLev: -84
arfcn: 755 rxLev: -84
arfcn: 781 rxLev: -84
arfcn: 811 rxLev: -84
arfcn: 812 rxLev: -85
arfcn: 835 rxLev: -85
arfcn: 782 rxLev: -85
arfcn: 750 rxLev: -85
$GPGGA,143019.000,4806.4435,N,00140.2977,W,1,08,1.4,44.0,M,48.3,M,,0000*70
arfcn: 737 rxLev: -85
$GPGSA,M,3,13,05,28,20,30,15,07,21,,,,,2.5,1.4,2.1*33
arfcn: 749 rxLev: -85
arfcn: 745 rxLev: -85
$GPRMC,143019.000,A,4806.4435,N,00140.2977,W,0.14,296.58,060118,,,A*7B
arfcn: 719 rxLev: -85
arfcn: 729 rxLev: -85
arfcn: 607 rxLev: -85
$GPGGA,143020.000,4806.4436,N,00140.2981,W,1,08,1.4,43.4,M,48.3,M,,0000*73
$GPGSA,M,3,13,05,28,20,30,15,07,21,,,,,2.5,1.4,2.1*33
$GPRMC,143020.000,A,4806.4436,N,00140.2981,W,0.02,296.58,060118,,,A*7C
$GPGGA,143021.000,4806.4437,N,00140.2985,W,1,08,1.4,42.9,M,48.3,M,,0000*7B
$GPGSA,M,3,13,05,28,20,30,15,07,21,,,,,2.5,1.4,2.1*33
$GPGSV,3,1,12,13,69,305,20,05,52,191,29,28,47,103,30,20,46,289,36*7F
arfcn: 517 bsic: 29 rxLev: -85 ber: 0.00 mcc: 208 mnc: 01 lac: 10301 cellId: 27452 cellStatus: CELL_FORBIDDEN numArfcn: 16 arfcn: 519 520 521 522 523 524 525 526 596 597 598 599 600 601 602 603 numChannels: 19 array: 1 3 5 7 9 12 512 513 514 515 516 518 604 605 606 607 608 609 610 pbcch: 0 nom: 2 rac: 1 spgc: 0 pat: 6 nco: 0 t3168: 1000 t3192: 500 drxmax: 2 ctrlAck: 0 bsCVmax: 9 alpha: 10 pcMeasCh: 1 
$GPGSV,3,2,12,30,42,059,18,15,37,292,47,07,16,057,18,21,13,308,22*70
$GPGSV,3,3,12,08,05,035,04,37,27,150,,04,04,219,,24,03,240,*79
$GPRMC,143021.000,A,4806.4437,N,00140.2985,W,0.13,296.58,060118,,,A*78
$GPGGA,143022.000,4806.4438,N,00140.2988,W,1,08,1.4,42.6,M,48.3,M,,0000*75
$GPGSA,M,3,13,05,28,20,30,15,07,21,,,,,2.5,1.4,2.1*33
$GPRMC,143022.000,A,4806.4438,N,00140.2988,W,0.17,296.58,060118,,,A*7D
$GPGGA,143023.000,4806.4438,N,00140.2988,W,1,09,1.4,42.6,M,48.3,M,,0000*75
$GPGSA,M,3,13,05,28,20,30,15,07,21,08,,,,2.4,1.4,1.9*31
$GPRMC,143023.000,A,4806.4438,N,00140.2988,W,0.00,296.58,060118,,,A*7A
arfcn: 85 bsic: 54 rxLev: -85 ber: 0.04 mcc: 208 mnc: 10 lac: 49415 cellId: 55716 cellStatus: CELL_FORBIDDEN numArfcn: 2 arfcn: 75 85 numChannels: 17 array: 77 78 79 80 82 83 84 85 86 114 117 118 119 120 121 123 124 pbcch: 0 nom: 2 rac: 31 spgc: 0 pat: 6 nco: 0 t3168: 1000 t3192: 500 drxmax: 4 ctrlAck: 1 bsCVmax: 9 alpha: 10 pcMeasCh: 0 
arfcn: 732 rxLev: -85
arfcn: 730 rxLev: -85
arfcn: 724 rxLev: -85
arfcn: 725 rxLev: -85
arfcn: 748 rxLev: -85
arfcn: 735 rxLev: -85
arfcn: 740 rxLev: -85
$GPGGA,143024.000,4806.4438,N,00140.2988,W,1,09,1.4,42.6,M,48.3,M,,0000*72
arfcn: 739 rxLev: -85
$GPGSA,M,3,13,05,28,20,30,15,07,21,08,,,,2.4,1.4,1.9*31
arfcn: 760 rxLev: -85
arfcn: 792 rxLev: -85
$GPRMC,143024.000,A,4806.4438,N,00140.2988,W,0.00,296.58,060118,,,A*7D
arfcn: 810 rxLev: -85
arfcn: 815 rxLev: -85
arfcn: 805 rxLev: -85
arfcn: 817 rxLev: -86
arfcn: 738 rxLev: -86
arfcn: 722 rxLev: -86
arfcn: 977 rxLev: -86
$GPGGA,143025.000,4806.4438,N,00140.2989,W,1,09,1.4,42.6,M,48.3,M,,0000*72
$GPGSA,M,3,13,05,28,20,30,15,07,21,08,,,,2.4,1.4,1.9*31
$GPRMC,143025.000,A,4806.4438,N,00140.2989,W,0.00,296.58,060118,,,A*7D
$GPGGA,143026.000,4806.4438,N,00140.2989,W,1,09,1.4,42.6,M,48.3,M,,0000*71
$GPGSA,M,3,13,05,28,20,30,15,07,21,08,,,,2.4,1.4,1.9*31
$GPGSV,3,1,12,13,69,305,26,05,52,191,39,28,47,103,24,20,46,289,35*7E
$GPGSV,3,2,12,30,42,059,28,15,37,292,38,07,16,057,24,21,13,308,23*75
$GPGSV,3,3,12,08,05,035,14,37,27,150,,04,04,219,,24,03,240,*78
$GPRMC,143026.000,A,4806.4438,N,00140.2989,W,0.00,296.58,060118,,,A*7E
$GPGGA,143027.000,4806.4441,N,00140.2991,W,1,09,1.4,42.6,M,48.3,M,,0000*77
$GPGSA,M,3,13,05,28,20,30,15,07,21,08,,,,2.4,1.4,1.9*31
$GPRMC,143027.000,A,4806.4441,N,00140.2991,W,0.33,296.58,060118,,,A*78
$GPGGA,143028.000,4806.4442,N,00140.2993,W,1,09,1.4,42.6,M,48.3,M,,0000*79
$GPGSA,M,3,13,05,28,20,30,15,07,21,08,,,,2.4,1.4,1.9*31
$GPRMC,143028.000,A,4806.4442,N,00140.2993,W,0.38,296.58,060118,,,A*7D
arfcn: 117 bsic: 50 rxLev: -86 ber: 0.00 mcc: 208 mnc: 10 lac: 49415 cellId: 55709 cellStatus: CELL_FORBIDDEN numArfcn: 2 arfcn: 111 117 numChannels: 22 array: 76 77 78 79 80 82 83 84 85 86 87 113 114 115 117 118 119 120 121 122 123 124 pbcch: 0 nom: 2 rac: 31 spgc: 0 pat: 6 nco: 0 t3168: 1000 t3192: 500 drxmax: 4 ctrlAck: 1 bsCVmax: 9 alpha: 10 pcMeasCh: 0 
$GPGGA,143029.000,4806.4444,N,00140.2997,W,1,09,1.4,42.1,M,48.3,M,,0000*7D
$GPGSA,M,3,13,05,28,20,30,15,07,21,08,,,,2.4,1.4,1.9*31
$GPRMC,143029.000,A,4806.4444,N,00140.2997,W,0.40,296.58,060118,,,A*71
$GPGGA,143030.000,4806.4445,N,00140.3003,W,1,09,1.4,41.0,M,48.3,M,,0000*73
$GPGSA,M,3,13,05,28,20,30,15,07,21,08,,,,2.4,1.4,1.9*31
$GPRMC,143030.000,A,4806.4445,N,00140.3003,W,0.26,296.58,060118,,,A*7D
arfcn: 3 bsic: 3 rxLev: -86 ber: 0.00 mcc: 208 mnc: 01 lac: 10301 cellId: 18301 cellStatus: CELL_FORBIDDEN numArfcn: 13 arfcn: 3 17 18 19 20 21 22 23 24 25 47 48 49 numChannels: 20 array: 1 4 5 6 7 8 11 12 13 15 512 514 515 516 517 604 605 606 607 609 pbcch: 0 nom: 2 rac: 1 spgc: 0 pat: 6 nco: 0 t3168: 1000 t3192: 500 drxmax: 2 ctrlAck: 0 bsCVmax: 9 alpha: 10 pcMeasCh: 1 
$GPGGA,143031.000,4806.4457,N,00140.3010,W,1,09,1.4,40.6,M,48.3,M,,0000*74
$GPGSA,M,3,13,05,28,20,30,15,07,21,08,,,,2.4,1.4,1.9*31
$GPGSV,3,1,12,13,69,305,34,05,52,191,35,28,47,102,24,20,46,289,35*70
$GPGSV,3,2,12,30,42,059,30,15,37,292,43,07,16,057,20,21,13,308,23*74
$GPGSV,3,3,12,08,05,034,13,37,27,150,,04,04,219,,24,03,240,*7E
$GPRMC,143031.000,A,4806.4457,N,00140.3010,W,0.20,296.58,060118,,,A*7B
$GPGGA,143032.000,4806.4478,N,00140.3018,W,1,09,1.4,40.7,M,48.3,M,,0000*73
$GPGSA,M,3,13,05,28,20,30,15,07,21,08,,,,2.4,1.4,1.9*31
$GPRMC,143032.000,A,4806.4478,N,00140.3018,W,0.42,296.58,060118,,,A*79
$GPGGA,143033.000,4806.4481,N,00140.3020,W,1,09,1.4,40.7,M,48.3,M,,0000*7F
$GPGSA,M,3,13,05,28,20,30,15,07,21,08,,,,2.4,1.4,1.9*31
$GPRMC,143033.000,A,4806.4481,N,00140.3020,W,0.42,296.58,060118,,,A*75
arfcn: 514 bsic: 20 rxLev: -86 ber: 0.01 mcc: 208 mnc: 01 lac: 10301 cellId: 56442 cellStatus: CELL_FORBIDDEN numArfcn: 16 arfcn: 519 520 521 522 523 524 525 526 596 597 598 599 600 601 602 603 numChannels: 20 array: 4 5 6 7 10 12 13 15 512 513 515 516 517 518 605 606 607 608 609 610 pbcch: 0 nom: 2 rac: 1 spgc: 0 pat: 6 nco: 0 t3168: 1000 t3192: 500 drxmax: 2 ctrlAck: 0 bsCVmax: 9 alpha: 5 pcMeasCh: 1 
$GPGGA,143034.000,4806.4489,N,00140.3026,W,1,09,1.4,40.6,M,48.3,M,,0000*77
$GPGSA,M,3,13,05,28,20,30,15,07,21,08,,,,2.4,1.4,1.9*31
$GPRMC,143034.000,A,4806.4489,N,00140.3026,W,0.12,296.58,060118,,,A*79
$GPGGA,143035.000,4806.4490,N,00140.3026,W,1,09,1.4,40.6,M,48.3,M,,0000*7E
$GPGSA,M,3,13,05,28,20,30,15,07,21,08,,,,2.4,1.4,1.9*31
$GPRMC,143035.000,A,4806.4490,N,00140.3026,W,0.01,296.58,060118,,,A*72
$GPGGA,143036.000,4806.4490,N,00140.3026,W,1,09,1.4,40.6,M,48.3,M,,0000*7D
$GPGSA,M,3,13,05,28,20,30,15,07,21,08,,,,2.4,1.4,1.9*31
$GPGSV,3,1,12,13,69,305,34,05,52,191,33,28,47,102,24,20,46,289,26*74
$GPGSV,3,2,12,30,42,059,31,15,37,292,37,07,16,057,21,21,13,308,18*7F
$GPGSV,3,3,12,08,05,034,13,37,27,150,,04,04,219,,24,03,240,*7E
$GPRMC,143036.000,A,4806.4490,N,00140.3026,W,0.00,296.58,060118,,,A*70
$GPGGA,143037.000,4806.4491,N,00140.3028,W,1,09,1.4,40.7,M,48.3,M,,0000*72
$GPGSA,M,3,13,05,28,20,30,15,07,21,08,,,,2.4,1.4,1.9*31
arfcn: 987 bsic: 40 rxLev: -86 ber: 0.00 mcc: 208 mnc: 20 lac: 418 cellId: 22381 cellStatus: CELL_SUITABLE numArfcn: 2 arfcn: 987 1018 numChannels: 25 array: 790 792 793 796 878 882 884 976 977 978 979 981 982 983 984 986 1011 1013 1014 1015 1016 1017 1019 1020 1022 pbcch: 0 nom: 2 rac: 6 spgc: 0 pat: 6 nco: 0 t3168: 1500 t3192: 500 drxmax: 0 ctrlAck: 0 bsCVmax: 8 alpha: 6 pcMeasCh: 1 
$GPRMC,143037.000,A,4806.4491,N,00140.3028,W,0.25,296.58,060118,,,A*79
$GPGGA,143038.000,4806.4491,N,00140.3028,W,1,09,1.4,40.7,M,48.3,M,,0000*7D
$GPGSA,M,3,13,05,28,20,30,15,07,21,08,,,,2.4,1.4,1.9*31
$GPRMC,143038.000,A,4806.4491,N,00140.3028,W,0.01,296.58,060118,,,A*70
arfcn: 7 bsic: 21 rxLev: -86 ber: 0.00 mcc: 208 mnc: 01 lac: 10301 cellId: 20550 cellStatus: CELL_FORBIDDEN numArfcn: 13 arfcn: 7 17 18 19 20 21 22 23 24 25 47 48 49 numChannels: 22 array: 1 3 4 5 9 11 12 13 15 512 513 514 515 516 517 518 604 605 606 608 609 610 pbcch: 0 nom: 2 rac: 1 spgc: 0 pat: 6 nco: 0 t3168: 1000 t3192: 500 drxmax: 2 ctrlAck: 0 bsCVmax: 9 alpha: 5 pcMeasCh: 1 
arfcn: 25 rxLev: -86
arfcn: 731 rxLev: -86
arfcn: 806 rxLev: -86
$GPGGA,143039.000,4806.4491,N,00140.3028,W,1,08,1.4,40.7,M,48.3,M,,0000*7D
arfcn: 813 rxLev: -87
arfcn: 814 rxLev: -87
$GPGSA,M,3,13,05,28,20,30,15,07,21,,,,,2.5,1.4,2.1*33
$GPRMC,143039.000,A,4806.4491,N,00140.3028,W,0.00,296.58,060118,,,A*70
arfcn: 836 rxLev: -87
arfcn: 837 rxLev: -87
arfcn: 838 rxLev: -87
arfcn: 723 rxLev: -87
$GPGGA,143040.000,4806.4492,N,00140.3028,W,1,08,1.4,40.6,M,48.3,M,,0000*71
$GPGSA,M,3,13,05,28,20,30,15,07,21,,,,,2.5,1.4,2.1*33
$GPRMC,143040.000,A,4806.4492,N,00140.3028,W,0.28,296.58,060118,,,A*77
$GPGGA,143041.000,4806.4492,N,00140.3028,W,1,08,1.4,40.5,M,48.3,M,,0000*73
$GPGSA,M,3,13,05,28,20,30,15,07,21,,,,,2.5,1.4,2.1*33
$GPGSV,3,1,12,13,69,305,33,05,52,191,36,28,47,102,25,20,46,289,30*70
$GPGSV,3,2,12,30,42,059,32,15,37,292,45,07,16,057,20,21,13,308,19*79
$GPGSV,3,3,12,08,05,034,04,36,26,138,38,04,04,219,,24,03,240,*7D
$GPRMC,143041.000,A,4806.4492,N,00140.3028,W,0.01,296.58,060118,,,A*7D
$GPGGA,143042.000,4806.4490,N,00140.3030,W,1,08,1.4,39.8,M,48.3,M,,0000*78
$GPGSA,M,3,13,05,28,20,30,15,07,21,,,,,2.5,1.4,2.1*33
$GPRMC,143042.000,A,4806.4490,N,00140.3030,W,0.03,296.58,060118,,,A*77
$GPGGA,143043.000,4806.4490,N,00140.3030,W,1,08,1.4,39.8,M,48.3,M,,0000*79
$GPGSA,M,3,13,05,28,20,30,15,07,21,,,,,2.5,1.4,2.1*33
$GPRMC,143043.000,A,4806.4490,N,00140.3030,W,0.00,296.58,060118,,,A*75
arfcn: 11 bsic: 22 rxLev: -87 ber: 0.00 mcc: 208 mnc: 01 lac: 10301 cellId: 6459 cellStatus: CELL_FORBIDDEN numArfcn: 13 arfcn: 11 17 18 19 20 21 22 23 24 25 47 48 49 numChannels: 18 array: 1 2 3 5 6 7 9 12 512 513 515 516 517 604 606 607 608 610 pbcch: 0 nom: 2 rac: 1 spgc: 0 pat: 6 nco: 0 t3168: 1000 t3192: 500 drxmax: 2 ctrlAck: 0 bsCVmax: 9 alpha: 5 pcMeasCh: 1 
$GPGGA,143044.000,4806.4486,N,00140.3031,W,1,08,1.4,38.9,M,48.3,M,,0000*78
$GPGSA,M,3,13,05,28,20,30,15,07,21,,,,,2.5,1.4,2.1*33
$GPRMC,143044.000,A,4806.4486,N,00140.3031,W,0.07,296.58,060118,,,A*73
$GPGGA,143045.000,4806.4484,N,00140.3033,W,1,08,1.4,38.8,M,48.3,M,,0000*78
arfcn: 79 bsic: 11 rxLev: -87 ber: 0.00 mcc: 208 mnc: 10 lac: 49415 cellId: 55717 cellStatus: CELL_FORBIDDEN numArfcn: 2 arfcn: 79 81 numChannels: 12 array: 78 79 82 85 86 87 115 117 118 120 121 122 pbcch: 0 nom: 2 rac: 31 spgc: 0 pat: 6 nco: 0 t3168: 1000 t3192: 500 drxmax: 4 ctrlAck: 1 bsCVmax: 9 alpha: 10 pcMeasCh: 0 
arfcn: 525 rxLev: -87
$GPGSA,M,3,13,05,28,20,30,15,07,21,,,,,2.5,1.4,2.1*33
$GPRMC,143045.000,A,4806.4484,N,00140.3033,W,0.17,296.58,060118,,,A*73
$GPGGA,143046.000,4806.4484,N,00140.3033,W,1,08,1.4,38.8,M,48.3,M,,0000*7B
$GPGSA,M,3,13,05,28,20,30,15,07,21,,,,,2.5,1.4,2.1*33
$GPGSV,3,1,12,13,69,305,35,05,52,191,38,28,47,102,24,20,46,289,37*7E
$GPGSV,3,2,12,30,42,059,31,15,37,292,46,07,16,057,21,21,13,308,29*7B
$GPGSV,3,3,12,08,05,034,04,36,26,138,38,04,04,219,,24,03,240,*7D
$GPRMC,143046.000,A,4806.4484,N,00140.3033,W,0.03,296.58,060118,,,A*75
arfcn: 86 bsic: 60 rxLev: -87 ber: 0.00 mcc: 208 mnc: 10 lac: 49415 cellId: 55691 cellStatus: CELL_FORBIDDEN numArfcn: 2 arfcn: 86 112 numChannels: 14 array: 76 77 78 79 82 83 85 86 115 117 119 120 121 123 pbcch: 0 nom: 2 rac: 31 spgc: 0 pat: 6 nco: 0 t3168: 1000 t3192: 500 drxmax: 4 ctrlAck: 1 bsCVmax: 9 alpha: 10 pcMeasCh: 0 
arfcn: 119 rxLev: -87
$GPGGA,143047.000,4806.4483,N,00140.3034,W,1,08,1.4,37.9,M,48.3,M,,0000*74
$GPGSA,M,3,13,05,28,20,30,15,07,21,,,,,2.5,1.4,2.1*33
$GPRMC,143047.000,A,4806.4483,N,00140.3034,W,0.24,296.58,060118,,,A*71
$GPGGA,143048.000,4806.4481,N,00140.3034,W,1,09,1.4,37.2,M,48.3,M,,0000*73
$GPGSA,M,3,13,05,28,20,30,15,07,21,08,,,,2.4,1.4,1.9*31
$GPRMC,143048.000,A,4806.4481,N,00140.3034,W,0.70,296.58,060118,,,A*7D
$GPGGA,143049.000,4806.4477,N,00140.3032,W,1,09,1.4,36.4,M,48.3,M,,0000*7A
$GPGSA,M,3,13,05,28,20,30,15,07,21,08,,,,2.4,1.4,1.9*31
$GPRMC,143049.000,A,4806.4477,N,00140.3032,W,0.72,296.58,060118,,,A*71
arfcn: 114 bsic: 7 rxLev: -87 ber: 0.00 mcc: 208 mnc: 10 lac: 49415 cellId: 20580 cellStatus: CELL_FORBIDDEN numArfcn: 3 arfcn: 89 112 114 numChannels: 18 array: 77 78 81 82 83 84 85 86 113 114 115 117 118 119 120 121 123 124 pbcch: 0 nom: 2 rac: 31 spgc: 0 pat: 6 nco: 0 t3168: 1000 t3192: 500 drxmax: 4 ctrlAck: 1 bsCVmax: 9 alpha: 10 pcMeasCh: 0 
arfcn: 720 rxLev: -87
arfcn: 793 rxLev: -87
arfcn: 794 rxLev: -87
$GPGGA,143050.000,4806.4474,N,00140.3032,W,1,09,1.4,36.0,M,48.3,M,,0000*75
arfcn: 809 rxLev: -87
$GPGSA,M,3,13,05,28,20,30,15,07,21,08,,,,2.4,1.4,1.9*31
arfcn: 808 rxLev: -87
arfcn: 803 rxLev: -88
$GPRMC,143050.000,A,4806.4474,N,00140.3032,W,0.06,296.58,060118,,,A*79
arfcn: 834 rxLev: -88
arfcn: 856 rxLev: -88
arfcn: 864 rxLev: -88
arfcn: 111 rxLev: -88
arfcn: 975 rxLev: -88
$GPGGA,143051.000,4806.4472,N,00140.3035,W,1,09,1.4,36.0,M,48.3,M,,0000*75
$GPGSA,M,3,13,05,28,20,30,15,07,21,08,,,,2.4,1.4,1.9*31
$GPGSV,3,1,12,13,69,305,30,05,52,191,45,28,47,102,25,20,46,289,31*76
$GPGSV,3,2,12,30,42,059,32,15,37,292,38,07,16,057,26,21,13,308,24*7B
$GPGSV,3,3,12,08,05,034,12,36,26,138,35,04,04,219,,24,03,240,*77
$GPRMC,143051.000,A,4806.4472,N,00140.3035,W,0.15,296.58,060118,,,A*7B
$GPGGA,143052.000,4806.4472,N,00140.3037,W,1,09,1.4,36.0,M,48.3,M,,0000*74
$GPGSA,M,3,13,05,28,20,30,15,07,21,08,,,,2.4,1.4,1.9*31
$GPRMC,143052.000,A,4806.4472,N,00140.3037,W,0.09,296.58,060118,,,A*77
$GPGGA,143053.000,4806.4471,N,00140.3039,W,1,09,1.4,36.0,M,48.3,M,,0000*78
$GPGSA,M,3,13,05,28,20,30,15,07,21,08,,,,2.4,1.4,1.9*31
$GPRMC,143053.000,A,4806.4471,N,00140.3039,W,0.19,296.58,060118,,,A*7A
$GPGGA,143054.000,4806.4471,N,00140.3041,W,1,09,1.4,36.8,M,48.3,M,,0000*78
$GPGSA,M,3,13,05,28,20,30,15,07,21,08,,,,2.4,1.4,1.9*31
arfcn: 981 bsic: 46 rxLev: -88 ber: 11.05 mcc: FFF mnc: FF lac: 65535 cellId: 0 cellStatus: CELL_OTHER numArfcn: 1 arfcn: 981 numChannels: 7 array: 787 790 791 793 796 882 884
$GPRMC,143054.000,A,4806.4471,N,00140.3041,W,0.23,296.58,060118,,,A*7B
arfcn: 862 rxLev: -88
arfcn: 857 rxLev: -88
arfcn: 860 rxLev: -88
arfcn: 833 rxLev: -88
arfcn: 816 rxLev: -88
arfcn: 828 rxLev: -88
arfcn: 830 rxLev: -88
arfcn: 829 rxLev: -89
$GPGGA,143055.000,4806.4471,N,00140.3044,W,1,09,1.4,36.9,M,48.3,M,,0000*7D
arfcn: 827 rxLev: -89
arfcn: 825 rxLev: -89
$GPGSA,M,3,13,05,28,20,30,15,07,21,08,,,,2.4,1.4,1.9*31
arfcn: 818 rxLev: -89
arfcn: 802 rxLev: -89
$GPRMC,143055.000,A,4806.4471,N,00140.3044,W,0.52,296.58,060118,,,A*79
arfcn: 807 rxLev: -89
arfcn: 858 rxLev: -89
arfcn: 865 rxLev: -89
arfcn: 870 rxLev: -89
$GPGGA,143056.000,4806.4469,N,00140.3043,W,1,09,1.4,36.8,M,48.3,M,,0000*71
$GPGSA,M,3,13,05,28,20,30,15,07,21,08,,,,2.4,1.4,1.9*31
$GPGSV,3,1,12,13,69,305,34,05,52,191,34,28,47,102,25,20,46,289,29*7D
$GPGSV,3,2,12,30,42,059,32,15,37,292,37,07,16,057,26,21,13,308,18*7B
$GPGSV,3,3,12,08,05,034,11,36,26,138,34,04,04,219,,24,03,240,*75
$GPRMC,143056.000,A,4806.4469,N,00140.3043,W,0.20,296.58,060118,,,A*71
$GPGGA,143057.000,4806.4465,N,00140.3042,W,1,09,1.4,36.4,M,48.3,M,,0000*71
$GPGSA,M,3,13,05,28,20,30,15,07,21,08,,,,2.4,1.4,1.9*31
$GPRMC,143057.000,A,4806.4465,N,00140.3042,W,0.21,296.58,060118,,,A*7C
$GPGGA,143058.000,4806.4455,N,00140.3039,W,1,09,1.4,36.4,M,48.3,M,,0000*71
$GPGSA,M,3,13,05,28,20,30,15,07,21,08,,,,2.4,1.4,1.9*31
$GPRMC,143058.000,A,4806.4455,N,00140.3039,W,0.56,296.58,060118,,,A*7C
$GPGGA,143059.000,4806.4456,N,00140.3040,W,1,09,1.4,36.4,M,48.3,M,,0000*7D
$GPGSA,M,3,13,05,28,20,30,15,07,21,08,,,,2.4,1.4,1.9*31
$GPRMC,143059.000,A,4806.4456,N,00140.3040,W,0.00,296.58,060118,,,A*73
$GPGGA,143100.000,4806.4454,N,00140.3041,W,1,09,1.4,36.2,M,48.3,M,,0000*75
$GPGSA,M,3,13,05,28,20,30,15,07,21,08,,,,2.4,1.4,1.9*31
$GPRMC,143100.000,A,4806.4454,N,00140.3041,W,0.36,296.58,060118,,,A*78
$GPGGA,143101.000,4806.4454,N,00140.3043,W,1,09,1.4,35.6,M,48.3,M,,0000*71
$GPGSA,M,3,13,05,28,20,30,15,07,21,08,,,,2.4,1.4,1.9*31
$GPGSV,3,1,12,13,69,305,35,05,52,191,31,28,47,102,26,20,46,289,38*7A
$GPGSV,3,2,12,30,42,059,31,15,37,292,41,07,16,057,22,21,13,308,28*7E
$GPGSV,3,3,12,08,05,034,13,36,26,138,37,04,04,219,,24,03,240,*74
$GPRMC,143101.000,A,4806.4454,N,00140.3043,W,0.29,296.58,060118,,,A*75
$GPGGA,143102.000,4806.4454,N,00140.3043,W,1,09,1.4,35.6,M,48.3,M,,0000*72
$GPGSA,M,3,13,05,28,20,30,15,07,21,08,,,,2.4,1.4,1.9*31
$GPRMC,143102.000,A,4806.4454,N,00140.3043,W,0.00,296.58,060118,,,A*7D
$GPGGA,143103.000,4806.4453,N,00140.3044,W,1,09,1.4,35.2,M,48.3,M,,0000*77
$GPGSA,M,3,13,05,28,20,30,15,07,21,08,,,,2.4,1.4,1.9*31
$GPRMC,143103.000,A,4806.4453,N,00140.3044,W,0.09,296.58,060118,,,A*75
$GPGGA,143104.000,4806.4452,N,00140.3046,W,1,09,1.4,35.0,M,48.3,M,,0000*71
$GPGSA,M,3,13,05,28,20,30,15,07,21,08,,,,2.4,1.4,1.9*31
$GPRMC,143104.000,A,4806.4452,N,00140.3046,W,0.07,296.58,060118,,,A*7F
$GPGGA,143105.000,4806.4451,N,00140.3047,W,1,09,1.4,35.5,M,48.3,M,,0000*77
$GPGSA,M,3,13,05,28,20,30,15,07,21,08,,,,2.4,1.4,1.9*31
$GPRMC,143105.000,A,4806.4451,N,00140.3047,W,0.11,296.58,060118,,,A*7B
$GPGGA,143106.000,4806.4449,N,00140.3048,W,1,09,1.4,35.8,M,48.3,M,,0000*7F
arfcn: 978 bsic: 19 rxLev: -89 ber: 0.03 mcc: 208 mnc: 20 lac: 418 cellId: 18480 cellStatus: CELL_SUITABLE numArfcn: 2 arfcn: 978 1023 numChannels: 24 array: 788 790 794 880 883 975 976 977 979 980 981 982 983 985 986 1011 1012 1014 1016 1017 1018 1019 1020 1021 pbcch: 0 nom: 2 rac: 6 spgc: 0 pat: 6 nco: 0 t3168: 1500 t3192: 500 drxmax: 4 ctrlAck: 1 bsCVmax: 8 alpha: 6 pcMeasCh: 1 
$GPGSA,M,3,13,05,28,20,30,15,07,21,08,,,,2.4,1.4,1.9*31
$GPGSV,3,1,12,13,69,305,28,05,52,191,38,28,47,102,26,20,46,289,28*7E
$GPGSV,3,2,12,30,42,059,34,15,37,292,36,07,16,057,24,21,13,308,28*7D
$GPGSV,3,3,12,08,05,034,13,36,26,138,44,04,04,219,,24,03,240,*70
$GPRMC,143106.000,A,4806.4449,N,00140.3048,W,0.14,296.58,060118,,,A*7B
$GPGGA,143107.000,4806.4447,N,00140.3050,W,1,09,1.4,35.7,M,48.3,M,,0000*76
$GPGSA,M,3,13,05,28,20,30,15,07,21,08,,,,2.4,1.4,1.9*31
$GPRMC,143107.000,A,4806.4447,N,00140.3050,W,0.50,296.58,060118,,,A*7D
$GPGGA,143108.000,4806.4445,N,00140.3051,W,1,09,1.4,35.8,M,48.3,M,,0000*75
$GPGSA,M,3,13,05,28,20,30,15,07,21,08,,,,2.4,1.4,1.9*31
$GPRMC,143108.000,A,4806.4445,N,00140.3051,W,0.27,296.58,060118,,,A*71
$GPGGA,143109.000,4806.4444,N,00140.3052,W,1,08,1.4,35.4,M,48.3,M,,0000*7B
$GPGSA,M,3,13,05,28,20,30,15,07,21,,,,,2.5,1.4,2.0*32
$GPRMC,143109.000,A,4806.4444,N,00140.3052,W,0.29,296.58,060118,,,A*7C
$GPGGA,143110.000,4806.4443,N,00140.3052,W,1,08,1.4,35.3,M,48.3,M,,0000*73
$GPGSA,M,3,13,05,28,20,30,15,07,21,,,,,2.5,1.4,2.0*32
$GPRMC,143110.000,A,4806.4443,N,00140.3052,W,0.12,296.58,060118,,,A*7B
$GPGGA,143111.000,4806.4443,N,00140.3052,W,1,08,1.4,35.3,M,48.3,M,,0000*72
$GPGSA,M,3,13,05,28,20,30,15,07,21,,,,,2.5,1.4,2.0*32
$GPGSV,3,1,12,13,69,305,30,05,52,191,40,28,47,102,25,20,46,289,38*7A
$GPGSV,3,2,12,30,42,059,24,15,37,292,36,07,16,057,21,21,13,308,29*78
$GPGSV,3,3,12,08,05,034,12,36,26,138,38,04,04,219,,24,03,240,*7A
$GPRMC,143111.000,A,4806.4443,N,00140.3052,W,0.00,296.58,060118,,,A*79
arfcn: 986 bsic: 13 rxLev: -89 ber: 1.08 mcc: 208 mnc: 20 lac: 418 cellId: 21504 cellStatus: CELL_SUITABLE numArfcn: 1 arfcn: 986 numChannels: 27 array: 788 789 790 792 879 882 884 885 975 976 978 979 980 982 983 985 987 1012 1013 1014 1015 1017 1018 1019 1020 1021 1022 pbcch: 0 nom: 2 rac: 6 spgc: 0 pat: 6 nco: 0 t3168: 1500 t3192: 500 drxmax: 0 ctrlAck: 0 bsCVmax: 8 alpha: 6 pcMeasCh: 1 
$GPGGA,143112.000,4806.4443,N,00140.3052,W,1,08,1.4,35.3,M,48.3,M,,0000*71
$GPGSA,M,3,13,05,28,20,30,15,07,21,,,,,2.5,1.4,2.0*32
$GPRMC,143112.000,A,4806.4443,N,00140.3052,W,0.00,296.58,060118,,,A*7A
$GPGGA,143113.000,4806.4443,N,00140.3052,W,1,08,1.4,35.3,M,48.3,M,,0000*70
$GPGSA,M,3,13,05,28,20,30,15,07,21,,,,,2.5,1.4,2.0*32
$GPRMC,143113.000,A,4806.4443,N,00140.3052,W,0.00,296.58,060118,,,A*7B
$GPGGA,143114.000,4806.4445,N,00140.3056,W,1,08,1.4,35.1,M,48.3,M,,0000*77
$GPGSA,M,3,13,05,28,20,30,15,07,21,,,,,2.5,1.4,2.0*32
$GPRMC,143114.000,A,4806.4445,N,00140.3056,W,0.65,296.58,060118,,,A*7D
$GPGGA,143115.000,4806.4441,N,00140.3055,W,1,08,1.4,34.7,M,48.3,M,,0000*76
arfcn: 13 bsic: 22 rxLev: -89 ber: 0.00 mcc: 208 mnc: 01 lac: 10300 cellId: 6477 cellStatus: CELL_FORBIDDEN numArfcn: 13 arfcn: 13 17 18 19 20 21 22 23 24 25 47 48 49 numChannels: 16 array: 1 4 5 6 7 8 10 12 15 513 514 516 517 605 608 610 pbcch: 0 nom: 2 rac: 1 spgc: 0 pat: 6 nco: 0 t3168: 1000 t3192: 500 drxmax: 2 ctrlAck: 0 bsCVmax: 9 alpha: 5 pcMeasCh: 1 
$GPGSA,M,3,13,05,28,20,30,15,07,21,,,,,2.5,1.4,2.0*32
$GPRMC,143115.000,A,4806.4441,N,00140.3055,W,0.57,296.58,060118,,,A*7A
$GPGGA,143116.000,4806.4439,N,00140.3056,W,1,07,1.5,34.6,M,48.3,M,,0000*76
$GPGSA,M,3,13,05,20,30,15,07,21,,,,,,2.5,1.5,2.0*39
$GPGSV,3,1,12,13,69,305,30,05,52,191,41,20,46,289,34,30,42,059,35*75
$GPGSV,3,2,12,15,37,292,35,07,16,057,21,21,13,308,23,08,05,034,13*76
$GPGSV,3,3,12,36,26,138,41,28,47,102,,04,04,219,,24,03,240,*77
$GPRMC,143116.000,A,4806.4439,N,00140.3056,W,0.47,296.58,060118,,,A*74
$GPGGA,143117.000,4806.4438,N,00140.3057,W,1,07,1.5,34.3,M,48.3,M,,0000*72
$GPGSA,M,3,13,05,20,30,15,07,21,,,,,,2.5,1.5,2.0*39
$GPRMC,143117.000,A,4806.4438,N,00140.3057,W,0.68,296.58,060118,,,A*78
$GPGGA,143118.000,4806.4438,N,00140.3061,W,1,07,1.5,34.2,M,48.3,M,,0000*79
arfcn: 1014 bsic: 31 rxLev: -89 ber: 0.00 mcc: 208 mnc: 20 lac: 418 cellId: 20649 cellStatus: CELL_SUITABLE numArfcn: 1 arfcn: 1014 numChannels: 25 array: 788 789 790 791 793 795 796 879 884 977 978 979 980 981 982 983 984 985 987 1012 1013 1017 1020 1021 1022 pbcch: 0 nom: 2 rac: 6 spgc: 0 pat: 6 nco: 0 t3168: 1500 t3192: 500 drxmax: 0 ctrlAck: 0 bsCVmax: 8 alpha: 6 pcMeasCh: 1 
$GPGSA,M,3,13,05,20,30,15,07,21,,,,,,2.5,1.5,2.0*39
$GPRMC,143118.000,A,4806.4438,N,00140.3061,W,0.64,296.58,060118,,,A*7E
$GPGGA,143119.000,4806.4438,N,00140.3064,W,1,08,1.4,34.0,M,48.3,M,,0000*71
$GPGSA,M,3,13,05,28,20,30,15,07,21,,,,,2.5,1.4,2.0*32
$GPRMC,143119.000,A,4806.4438,N,00140.3064,W,0.68,296.58,060118,,,A*76
$GPGGA,143120.000,4806.4441,N,00140.3069,W,1,08,1.4,33.8,M,48.3,M,,0000*77
$GPGSA,M,3,13,05,28,20,30,15,07,21,,,,,2.5,1.4,2.0*32
$GPRMC,143120.000,A,4806.4441,N,00140.3069,W,0.83,296.58,060118,,,A*7A
arfcn: 1017 bsic: 35 rxLev: -89 ber: 3.01 mcc: 208 mnc: 20 lac: 418 cellId: 17728 cellStatus: CELL_SUITABLE numArfcn: 1 arfcn: 1017 numChannels: 28 array: 787 788 790 792 793 794 795 796 878 879 880 882 883 975 976 977 978 979 981 984 987 1011 1012 1013 1016 1017 1019 1022 pbcch: 0 nom: 2 rac: 6 spgc: 0 pat: 6 nco: 0 t3168: 1500 t3192: 500 drxmax: 0 ctrlAck: 0 bsCVmax: 8 alpha: 6 pcMeasCh: 1 
$GPGGA,143121.000,4806.4443,N,00140.3072,W,1,08,1.4,33.6,M,48.3,M,,0000*70
$GPGSA,M,3,13,05,28,20,30,15,07,21,,,,,2.5,1.4,2.0*32
$GPGSV,3,1,12,13,69,305,30,05,52,191,42,28,47,102,23,20,46,289,33*75
$GPGSV,3,2,12,30,42,059,25,15,37,292,37,07,16,057,22,21,13,308,24*76
$GPGSV,3,3,12,08,05,034,05,36,26,138,41,04,04,219,,24,03,240,*72
$GPRMC,143121.000,A,4806.4443,N,00140.3072,W,0.47,296.58,060118,,,A*7B
$GPGGA,143122.000,4806.4443,N,00140.3076,W,1,08,1.4,33.4,M,48.3,M,,0000*75
$GPGSA,M,3,13,05,28,20,30,15,07,21,,,,,2.5,1.4,2.0*32
$GPRMC,143122.000,A,4806.4443,N,00140.3076,W,0.28,296.58,060118,,,A*75
arfcn: 609 bsic: 61 rxLev: -89 ber: 0.00 mcc: 208 mnc: 01 lac: 10301 cellId: 27449 cellStatus: CELL_FORBIDDEN numArfcn: 16 arfcn: 519 520 521 522 523 524 525 526 596 597 598 599 600 601 602 603 numChannels: 17 array: 1 3 5 7 12 512 513 514 515 516 517 518 604 605 606 607 608 pbcch: 0 nom: 2 rac: 1 spgc: 0 pat: 6 nco: 0 t3168: 1000 t3192: 500 drxmax: 2 ctrlAck: 0 bsCVmax: 9 alpha: 10 pcMeasCh: 1 
arfcn: 869 rxLev: -89
arfcn: 872 rxLev: -89
arfcn: 868 rxLev: -89
arfcn: 861 rxLev: -89
arfcn: 854 rxLev: -89
arfcn: 842 rxLev: -89
$GPGGA,143123.000,4806.4444,N,00140.3081,W,1,08,1.4,33.2,M,48.3,M,,0000*7D
arfcn: 848 rxLev: -89
$GPGSA,M,3,13,05,28,20,30,15,07,21,,,,,2.5,1.4,2.0*32
arfcn: 819 rxLev: -89
arfcn: 826 rxLev: -89
$GPRMC,143123.000,A,4806.4444,N,00140.3081,W,0.58,296.58,060118,,,A*7C
arfcn: 831 rxLev: -89
arfcn: 791 rxLev: -89
arfcn: 707 rxLev: -89
arfcn: 796 rxLev: -90
arfcn: 832 rxLev: -90
arfcn: 820 rxLev: -90
arfcn: 821 rxLev: -90
$GPGGA,143124.000,4806.4445,N,00140.3087,W,1,09,1.4,33.2,M,48.3,M,,0000*7C
arfcn: 823 rxLev: -90
$GPGSA,M,3,13,05,28,20,30,15,07,21,08,,,,2.4,1.4,1.9*31
arfcn: 801 rxLev: -90
arfcn: 840 rxLev: -90
$GPRMC,143124.000,A,4806.4445,N,00140.3087,W,0.53,296.58,060118,,,A*77
arfcn: 853 rxLev: -90
arfcn: 849 rxLev: -90
arfcn: 850 rxLev: -90
arfcn: 866 rxLev: -90
arfcn: 871 rxLev: -90
arfcn: 874 rxLev: -90
arfcn: 604 rxLev: -90
$GPGGA,143125.000,4806.4444,N,00140.3090,W,1,09,1.4,33.5,M,48.3,M,,0000*7D
$GPGSA,M,3,13,05,28,20,30,15,07,21,08,,,,2.4,1.4,1.9*31
$GPRMC,143125.000,A,4806.4444,N,00140.3090,W,0.34,296.58,060118,,,A*70
$GPGGA,143126.000,4806.4442,N,00140.3092,W,1,09,1.4,33.9,M,48.3,M,,0000*76
$GPGSA,M,3,13,05,28,20,30,15,07,21,08,,,,2.4,1.4,1.9*31
$GPGSV,3,1,12,13,69,305,30,05,52,191,40,28,47,102,30,20,46,289,37*71
$GPGSV,3,2,12,30,42,059,26,15,37,292,38,07,16,057,22,21,13,308,28*76
$GPGSV,3,3,12,08,05,034,11,36,26,138,39,04,04,219,,24,03,240,*78
$GPRMC,143126.000,A,4806.4442,N,00140.3092,W,0.12,296.58,060118,,,A*73
$GPGGA,143127.000,4806.4441,N,00140.3096,W,1,09,1.4,34.2,M,48.3,M,,0000*7C
$GPGSA,M,3,13,05,28,20,30,15,07,21,08,,,,2.4,1.4,1.9*31
$GPRMC,143127.000,A,4806.4441,N,00140.3096,W,0.41,296.58,060118,,,A*73
$GPGGA,143128.000,4806.4440,N,00140.3100,W,1,09,1.4,34.6,M,48.3,M,,0000*78
$GPGSA,M,3,13,05,28,20,30,15,07,21,08,,,,2.3,1.4,1.9*36
$GPRMC,143128.000,A,4806.4440,N,00140.3100,W,0.50,296.58,060118,,,A*73
arfcn: 515 bsic: 14 rxLev: -90 ber: 8.06 mcc: 208 mnc: 01 lac: 10301 cellId: 31999 cellStatus: CELL_FORBIDDEN numArfcn: 16 arfcn: 519 520 521 522 523 524 525 526 596 597 598 599 600 601 602 603 numChannels: 0 array:
arfcn: 51 rxLev: -90
$GPGGA,143129.000,4806.4439,N,00140.3104,W,1,09,1.4,35.0,M,48.3,M,,0000*74
arfcn: 877 rxLev: -90
$GPGSA,M,3,13,05,28,20,30,15,07,21,08,,,,2.3,1.4,1.9*36
arfcn: 855 rxLev: -90
arfcn: 859 rxLev: -90
$GPRMC,143129.000,A,4806.4439,N,00140.3104,W,0.65,296.58,060118,,,A*7E
arfcn: 845 rxLev: -90
arfcn: 846 rxLev: -90
arfcn: 841 rxLev: -90
arfcn: 824 rxLev: -90
arfcn: 822 rxLev: -90
arfcn: 798 rxLev: -90
arfcn: 797 rxLev: -91
arfcn: 795 rxLev: -91
$GPGGA,143130.000,4806.4437,N,00140.3108,W,1,09,1.4,35.4,M,48.3,M,,0000*7A
arfcn: 804 rxLev: -91
$GPGSA,M,3,13,05,28,20,30,15,07,21,08,,,,2.3,1.4,1.9*36
arfcn: 843 rxLev: -91
arfcn: 844 rxLev: -91
$GPRMC,143130.000,A,4806.4437,N,00140.3108,W,0.59,296.58,060118,,,A*7B
arfcn: 847 rxLev: -91
arfcn: 839 rxLev: -91
arfcn: 863 rxLev: -91
arfcn: 880 rxLev: -91
arfcn: 873 rxLev: -91
arfcn: 867 rxLev: -91
$GPGGA,143131.000,4806.4436,N,00140.3112,W,1,09,1.4,35.9,M,48.3,M,,0000*7C
$GPGSA,M,3,13,05,28,20,30,15,07,21,08,,,,2.3,1.4,1.9*36
$GPGSV,3,1,12,13,69,305,29,05,52,191,41,28,47,102,29,20,46,289,36*71
$GPGSV,3,2,12,30,42,059,26,15,37,292,38,07,16,057,22,21,13,308,36*79
$GPGSV,3,3,12,08,05,034,11,36,26,138,41,04,04,219,,24,03,240,*77
$GPRMC,143131.000,A,4806.4436,N,00140.3112,W,0.86,296.58,060118,,,A*72
$GPGGA,143132.000,4806.4435,N,00140.3115,W,1,09,1.4,36.4,M,48.3,M,,0000*75
$GPGSA,M,3,13,05,28,20,30,15,07,21,08,,,,2.3,1.4,1.9*36
$GPRMC,143132.000,A,4806.4435,N,00140.3115,W,0.69,296.58,060118,,,A*74
arfcn: 512 bsic: 58 rxLev: -91 ber: 4.01 mcc: FFF mnc: FF lac: 65535 cellId: 0 cellStatus: CELL_OTHER numArfcn: 0 arfcn: numChannels: 0 array:
arfcn: 983 rxLev: -91
$GPGGA,143133.000,4806.4433,N,00140.3119,W,1,09,1.4,37.0,M,48.3,M,,0000*7B
$GPGSA,M,3,13,05,28,20,30,15,07,21,08,,,,2.3,1.4,1.9*36
$GPRMC,143133.000,A,4806.4433,N,00140.3119,W,0.77,296.58,060118,,,A*70
$GPGGA,143134.000,4806.4433,N,00140.3124,W,1,09,1.4,37.2,M,48.3,M,,0000*70
$GPGSA,M,3,13,05,28,20,30,15,07,21,08,,,,2.3,1.4,1.9*36
$GPRMC,143134.000,A,4806.4433,N,00140.3124,W,0.21,296.58,060118,,,A*7A
$GPGGA,143135.000,4806.4433,N,00140.3129,W,1,09,1.4,37.3,M,48.3,M,,0000*7D
$GPGSA,M,3,13,05,28,20,30,15,07,21,08,,,,2.3,1.4,1.9*36
$GPRMC,143135.000,A,4806.4433,N,00140.3129,W,0.21,296.58,060118,,,A*76
$GPGGA,143136.000,4806.4434,N,00140.3135,W,1,09,1.4,37.2,M,48.3,M,,0000*75
$GPGSA,M,3,13,05,28,20,30,15,07,21,08,,,,2.3,1.4,1.9*36
$GPGSV,3,1,12,13,69,305,36,05,52,191,37,28,47,102,29,20,46,289,35*7D
$GPGSV,3,2,12,30,42,059,30,15,37,292,39,07,16,057,23,21,13,308,29*70
$GPGSV,3,3,12,08,05,034,11,36,26,138,43,04,04,219,,24,03,240,*75
$GPRMC,143136.000,A,4806.4434,N,00140.3135,W,0.37,296.58,060118,,,A*78
$GPGGA,143137.000,4806.4436,N,00140.3139,W,1,09,1.4,37.4,M,48.3,M,,0000*7C
$GPGSA,M,3,13,05,28,20,30,15,07,21,08,,,,2.3,1.4,1.9*36
$GPRMC,143137.000,A,4806.4436,N,00140.3139,W,0.44,296.58,060118,,,A*73
$GPGGA,143138.000,4806.4438,N,00140.3142,W,1,09,1.4,37.7,M,48.3,M,,0000*72
$GPGSA,M,3,13,05,28,20,30,15,07,21,08,,,,2.3,1.4,1.9*36
$GPRMC,143138.000,A,4806.4438,N,00140.3142,W,0.04,296.58,060118,,,A*7A
$GPGGA,143139.000,4806.4438,N,00140.3144,W,1,09,1.4,38.1,M,48.3,M,,0000*7C
$GPGSA,M,3,13,05,28,20,30,15,07,21,08,,,,2.3,1.4,1.9*36
$GPRMC,143139.000,A,4806.4438,N,00140.3144,W,0.46,296.58,060118,,,A*7B
$GPGGA,143140.000,4806.4439,N,00140.3146,W,1,09,1.4,38.6,M,48.3,M,,0000*76
$GPGSA,M,3,13,05,28,20,30,15,07,21,08,,,,2.3,1.4,1.9*36
$GPRMC,143140.000,A,4806.4439,N,00140.3146,W,0.18,296.58,060118,,,A*7D
$GPGGA,143141.000,4806.4441,N,00140.3148,W,1,09,1.4,39.0,M,48.3,M,,0000*71
$GPGSA,M,3,13,05,28,20,30,15,07,21,08,,,,2.3,1.4,1.9*36
$GPGSV,3,1,12,13,69,305,29,05,52,191,36,28,47,102,38,20,46,289,33*74
$GPGSV,3,2,12,30,42,059,34,15,37,292,39,07,16,057,25,21,13,308,24*7F
$GPGSV,3,3,12,08,05,034,16,36,26,138,35,04,04,219,,24,03,240,*73
$GPRMC,143141.000,A,4806.4441,N,00140.3148,W,0.48,296.58,060118,,,A*78
$GPGGA,143142.000,4806.4442,N,00140.3149,W,1,09,1.4,39.4,M,48.3,M,,0000*74
$GPGSA,M,3,13,05,28,20,30,15,07,21,08,,,,2.3,1.4,1.9*36
$GPRMC,143142.000,A,4806.4442,N,00140.3149,W,0.37,296.58,060118,,,A*71
$GPGGA,143143.000,4806.4447,N,00140.3152,W,1,09,1.4,39.8,M,48.3,M,,0000*76
$GPGSA,M,3,13,05,28,20,30,15,07,21,08,,,,2.3,1.4,1.9*36
$GPRMC,143143.000,A,4806.4447,N,00140.3152,W,0.59,296.58,060118,,,A*77
$GPGGA,143144.000,4806.4451,N,00140.3155,W,1,09,1.4,40.2,M,48.3,M,,0000*75
$GPGSA,M,3,13,05,28,20,30,15,07,21,08,,,,2.3,1.4,1.9*36
$GPRMC,143144.000,A,4806.4451,N,00140.3155,W,0.20,296.58,060118,,,A*7E
$GPGGA,143145.000,4806.4456,N,00140.3155,W,1,09,1.4,40.4,M,48.3,M,,0000*75
$GPGSA,M,3,13,05,28,20,30,15,07,21,08,,,,2.3,1.4,1.9*36
$GPRMC,143145.000,A,4806.4456,N,00140.3155,W,0.42,296.58,060118,,,A*7C
arfcn: 608 bsic: 3 rxLev: -91 ber: 12.11 mcc: 208 mnc: 01 lac: 10301 cellId: 20565 cellStatus: CELL_FORBIDDEN numArfcn: 16 arfcn: 519 520 521 522 523 524 525 526 596 597 598 599 600 601 602 603 numChannels: 18 array: 1 5 7 9 12 13 512 513 514 515 516 517 518 604 606 608 609 610
arfcn: 124 rxLev: -91
arfcn: 78 rxLev: -91
arfcn: 876 rxLev: -91
arfcn: 879 rxLev: -91
arfcn: 881 rxLev: -91
arfcn: 852 rxLev: -91
arfcn: 800 rxLev: -91
arfcn: 799 rxLev: -92
$GPGGA,143146.000,4806.4454,N,00140.3158,W,1,09,1.4,40.6,M,48.3,M,,0000*7B
arfcn: 985 rxLev: -92
$GPGSA,M,3,13,05,28,20,30,15,07,21,08,,,,2.3,1.4,1.9*36
$GPGSV,3,1,12,13,69,305,28,05,52,191,36,28,47,102,37,20,46,289,37*7E
$GPGSV,3,2,12,30,42,059,38,15,37,292,43,07,16,057,26,21,13,308,25*7C
$GPGSV,3,3,12,08,05,034,17,36,26,138,37,04,04,219,,24,03,240,*70
$GPRMC,143146.000,A,4806.4454,N,00140.3158,W,1.04,296.58,060118,,,A*73
$GPGGA,143147.000,4806.4450,N,00140.3161,W,1,09,1.4,40.2,M,48.3,M,,0000*70
$GPGSA,M,3,13,05,28,20,30,15,07,21,08,,,,2.3,1.4,1.9*36
$GPRMC,143147.000,A,4806.4450,N,00140.3161,W,1.35,209.93,060118,,,A*7F
$GPGGA,143148.000,4806.4454,N,00140.3167,W,1,09,1.4,40.4,M,48.3,M,,0000*7B
$GPGSA,M,3,13,05,28,20,30,15,07,21,08,,,,2.3,1.4,1.9*36
$GPRMC,143148.000,A,4806.4454,N,00140.3167,W,0.48,209.93,060118,,,A*79
arfcn: 513 bsic: 44 rxLev: -92 ber: 13.07 mcc: FFF mnc: FF lac: 65535 cellId: 0 cellStatus: CELL_OTHER numArfcn: 16 arfcn: 519 520 521 522 523 524 525 526 596 597 598 599 600 601 602 603 numChannels: 0 array:
arfcn: 73 rxLev: -92
arfcn: 12 rxLev: -92
$GPGGA,143149.000,4806.4454,N,00140.3168,W,1,09,1.4,40.4,M,48.3,M,,0000*75
$GPGSA,M,3,13,05,28,20,30,15,07,21,08,,,,2.3,1.4,1.9*36
arfcn: 878 rxLev: -92
$GPRMC,143149.000,A,4806.4454,N,00140.3168,W,0.41,209.93,060118,,,A*7E
arfcn: 875 rxLev: -92
arfcn: 516 rxLev: -93
arfcn: 851 rxLev: -94
$GPGGA,143150.000,4806.4451,N,00140.3174,W,1,09,1.4,40.4,M,48.3,M,,0000*75
$GPGSA,M,3,13,05,28,20,30,15,07,21,08,,,,2.3,1.4,1.9*36
$GPRMC,143150.000,A,4806.4451,N,00140.3174,W,1.43,209.01,060118,,,A*76
$GPGGA,143151.000,4806.4447,N,00140.3180,W,1,09,1.4,40.6,M,48.3,M,,0000*7A
$GPGSA,M,3,13,05,28,20,30,15,07,21,08,,,,2.3,1.4,1.9*36
$GPGSV,3,1,12,13,69,305,30,05,52,191,32,28,47,102,38,20,46,289,37*7C
$GPGSV,3,2,12,30,42,059,44,15,37,292,42,07,16,057,26,21,13,308,24*77
$GPGSV,3,3,12,08,05,034,18,36,26,138,29,04,04,219,,24,03,240,*70
$GPRMC,143151.000,A,4806.4447,N,00140.3180,W,1.81,212.66,060118,,,A*7E
arfcn: 1013 bsic: 14 rxLev: -94 ber: 0.00 mcc: 208 mnc: 20 lac: 418 cellId: 20047 cellStatus: CELL_SUITABLE numArfcn: 1 arfcn: 1013 numChannels: 22 array: 787 791 793 879 885 976 977 979 980 981 982 984 985 987 1011 1012 1014 1015 1017 1018 1019 1021 pbcch: 0 nom: 2 rac: 6 spgc: 0 pat: 6 nco: 0 t3168: 1500 t3192: 500 drxmax: 4 ctrlAck: 1 bsCVmax: 8 alpha: 6 pcMeasCh: 1 
arfcn: 10 rxLev: -94
$GPGGA,143152.000,4806.4444,N,00140.3186,W,1,09,1.4,40.6,M,48.3,M,,0000*7C
arfcn: 2 rxLev: -95
$GPGSA,M,3,13,05,28,20,30,15,07,21,08,,,,2.3,1.4,1.9*36
arfcn: 76 rxLev: -95
$GPRMC,143152.000,A,4806.4444,N,00140.3186,W,1.44,215.50,060118,,,A*73
$GPGGA,143153.000,4806.4440,N,00140.3190,W,1,09,1.4,40.6,M,48.3,M,,0000*7E
$GPGSA,M,3,13,05,28,20,30,15,07,21,08,,,,2.3,1.4,1.9*36
$GPRMC,143153.000,A,4806.4440,N,00140.3190,W,1.68,215.79,060118,,,A*74
$GPGGA,143154.000,4806.4436,N,00140.3195,W,1,09,1.4,40.5,M,48.3,M,,0000*7E
$GPGSA,M,3,13,05,28,20,30,15,07,21,08,,,,2.3,1.4,1.9*36
$GPRMC,143154.000,A,4806.4436,N,00140.3195,W,2.13,215.68,060118,,,A*78
$GPGGA,143155.000,4806.4430,N,00140.3204,W,1,09,1.4,40.3,M,48.3,M,,0000*74
$GPGSA,M,3,13,05,28,20,30,15,07,21,08,,,,2.3,1.4,1.9*36
$GPRMC,143155.000,A,4806.4430,N,00140.3204,W,2.95,219.74,060118,,,A*7B
$GPGGA,143156.000,4806.4427,N,00140.3212,W,1,09,1.4,40.4,M,48.3,M,,0000*71
$GPGSA,M,3,13,05,28,20,30,15,07,21,08,,,,2.3,1.4,1.9*36
$GPGSV,3,1,12,13,69,305,30,05,52,191,28,28,47,102,40,20,46,289,33*7C
$GPGSV,3,2,12,30,42,059,41,15,37,292,42,07,16,057,26,21,13,308,29*7F
$GPGSV,3,3,12,08,05,034,18,36,26,138,29,04,04,219,,24,03,240,*70
$GPRMC,143156.000,A,4806.4427,N,00140.3212,W,2.49,223.89,060118,,,A*73
$GPGGA,143157.000,4806.4425,N,00140.3221,W,1,09,1.4,40.4,M,48.3,M,,0000*72
$GPGSA,M,3,13,05,28,20,30,15,07,21,08,,,,2.3,1.4,1.9*36
$GPRMC,143157.000,A,4806.4425,N,00140.3221,W,2.23,232.21,060118,,,A*7E
$GPGGA,143158.000,4806.4425,N,00140.3229,W,1,09,1.4,40.6,M,48.3,M,,0000*77
$GPGSA,M,3,13,05,28,20,30,15,07,21,08,,,,2.3,1.4,1.9*36
$GPRMC,143158.000,A,4806.4425,N,00140.3229,W,1.98,237.23,060118,,,A*7D
$GPGGA,143159.000,4806.4427,N,00140.3233,W,1,09,1.4,40.7,M,48.3,M,,0000*7E
$GPGSA,M,3,13,05,28,20,30,15,07,21,08,,,,2.3,1.4,1.9*36
$GPRMC,143159.000,A,4806.4427,N,00140.3233,W,1.38,243.31,060118,,,A*7F
arfcn: 1019 bsic: 47 rxLev: -95 ber: 0.00 mcc: 208 mnc: 20 lac: 418 cellId: 17729 cellStatus: CELL_SUITABLE numArfcn: 1 arfcn: 1019 numChannels: 30 array: 787 788 790 791 793 794 795 796 878 879 880 882 885 975 976 979 980 981 982 983 984 985 987 1011 1013 1016 1017 1020 1021 1022 pbcch: 0 nom: 2 rac: 6 spgc: 0 pat: 6 nco: 0 t3168: 1500 t3192: 500 drxmax: 0 ctrlAck: 0 bsCVmax: 8 alpha: 6 pcMeasCh: 1 
arfcn: 610 rxLev: -95
$GPGGA,143200.000,4806.4434,N,00140.3235,W,1,09,1.4,40.6,M,48.3,M,,0000*74
$GPGSA,M,3,13,05,28,20,30,15,07,21,08,,,,2.3,1.4,1.9*36
$GPRMC,143200.000,A,4806.4434,N,00140.3235,W,1.41,256.20,060118,,,A*7E
$GPGGA,143201.000,4806.4440,N,00140.3236,W,1,09,1.4,40.6,M,48.3,M,,0000*75
$GPGSA,M,3,13,05,28,20,30,15,07,21,08,,,,2.3,1.4,1.9*36
$GPGSV,3,1,12,13,69,305,30,05,52,191,27,28,47,102,38,20,46,289,24*7A
$GPGSV,3,2,12,30,42,059,41,15,37,292,27,07,16,057,26,21,13,308,34*70
$GPGSV,3,3,12,08,05,034,18,36,26,138,32,04,04,219,,24,03,240,*7A
