$GPGSA,M,1,,,,,,,,,,,,,,,*12
$GPGSV,3,1,11,20,22,050,23,21,52,060,26,26,57,163,19,27,54,288,11*77
$GPGSV,3,2,11,33,33,198,,16,80,250,,18,37,111,,10,22,148,*70
$GPGSV,3,3,11,08,16,277,,07,10,327,,29,00,087,*40
$GPRMC,231912.400,V,,,,,,,050218,,,N*4D
Survey start at #CCLK: "18/02/06,00:19:13+04"
at#csurv
Network survey started ...
Survey end at #CCLK: "18/02/06,00:19:13+04"
Survey duration: 0 seconds, 0 bases detected over 0 freqs scanned.
$GPGGA,231913.400,,,,,0,00,,,M,0.0,M,,0000*59
$GPGSA,M,1,,,,,,,,,,,,,,,*12
$GPRMC,231913.400,V,,,,,,,050218,,,N*4C
$GPGGA,231914.400,,,,,0,00,,,M,0.0,M,,0000*5E
$GPGSA,M,1,,,,,,,,,,,,,,,*12
$GPRMC,231914.400,V,,,,,,,050218,,,N*4B
Survey start at #CCLK: "18/02/06,00:19:15+04"
at#csurv
Network survey started ...
$GPGGA,231915.400,,,,,0,04,8.1,,M,0.0,M,,0000*7C
$GPGSA,M,1,,,,,,,,,,,,,,,*12
$GPRMC,231915.400,V,,,,,,,050218,,,N*4A
$GPGGA,231916.400,,,,,0,04,8.0,,M,0.0,M,,0000*7E
$GPGSA,M,1,,,,,,,,,,,,,,,*12
$GPRMC,231916.400,V,,,,,,,050218,,,N*49
$GPGGA,231917.400,,,,,0,04,8.0,,M,0.0,M,,0000*7F
$GPGSA,M,1,,,,,,,,,,,,,,,*12
$GPGSV,3,1,11,26,57,163,19,21,52,060,26,20,22,050,23,10,22,148,15*79
$GPGSV,3,2,11,27,54,288,11,33,33,198,,16,80,250,,18,37,111,*7A
$GPGSV,3,3,11,08,16,277,,07,10,327,,29,00,087,*40
$GPRMC,231917.400,V,,,,,,,050218,,,N*48
$GPGGA,231918.400,,,,,0,04,8.0,,M,0.0,M,,0000*70
$GPGSA,M,1,,,,,,,,,,,,,,,*12
$GPRMC,231918.400,V,,,,,,,050218,,,N*47
$GPGGA,231919.400,,,,,0,04,8.0,,M,0.0,M,,0000*71
$GPGSA,M,1,,,,,,,,,,,,,,,*12
$GPRMC,231919.400,V,,,,,,,050218,,,N*46
$GPGGA,231920.400,,,,,0,04,8.0,,M,0.0,M,,0000*7B
$GPGSA,M,1,,,,,,,,,,,,,,,*12
$GPRMC,231920.400,V,,,,,,,050218,,,N*4C
arfcn: 981 bsic: 46 rxLev: -60 ber: 0.00 mcc: 208 mnc: 20 lac: 418 cellId: 21807 cellStatus: CELL_SUITABLE numArfcn: 1 arfcn: 981 numChannels: 16 array: 979 982 983 985 1012 1014 1017 1019 1020 787 790 791 793 796 882 884 pbcch: 0 nom: 2 rac: 6 spgc: 0 pat: 6 nco: 0 t3168: 1500 t3192: 500 drxmax: 0 ctrlAck: 0 bsCVmax: 8 alpha: 6 pcMeasCh: 1 
$GPGGA,231921.400,,,,,0,04,8.0,,M,0.0,M,,0000*7A
$GPGSA,M,1,,,,,,,,,,,,,,,*12
$GPRMC,231921.400,V,,,,,,,050218,,,N*4D
$GPGGA,231922.400,,,,,0,04,8.0,,M,0.0,M,,0000*79
$GPGSA,M,1,,,,,,,,,,,,,,,*12
$GPGSV,3,1,11,26,57,163,19,21,52,060,26,20,22,050,24,10,22,148,16*7D
$GPGSV,3,2,11,27,54,288,11,33,33,198,,16,80,250,,18,37,111,*7A
$GPGSV,3,3,11,08,16,277,,07,10,327,,29,00,087,*40
$GPRMC,231922.400,V,,,,,,,050218,,,N*4E
$GPGGA,231923.000,,,,,0,04,8.0,,M,0.0,M,,0000*7C
$GPGSA,M,1,,,,,,,,,,,,,,,*12
$GPRMC,231923.000,V,,,,,,,050218,,,N*4B
$GPGGA,231924.000,,,,,0,04,8.0,,M,0.0,M,,0000*7B
$GPGSA,M,1,,,,,,,,,,,,,,,*12
$GPRMC,231924.000,V,,,,,,,050218,,,N*4C
$GPGGA,231925.000,,,,,0,04,8.0,,M,0.0,M,,0000*7A
$GPGSA,M,1,,,,,,,,,,,,,,,*12
$GPRMC,231925.000,V,,,,,,,050218,,,N*4D
$GPGGA,231926.000,,,,,0,04,8.0,,M,0.0,M,,0000*79
$GPGSA,M,1,,,,,,,,,,,,,,,*12
$GPRMC,231926.000,V,,,,,,,050218,,,N*4E
$GPGGA,231927.000,,,,,0,04,8.0,,M,0.0,M,,0000*78
$GPGSA,M,1,,,,,,,,,,,,,,,*12
$GPGSV,3,1,11,26,57,163,19,21,52,060,26,20,22,050,24,10,22,148,16*7D
$GPGSV,3,2,11,27,54,288,11,33,33,198,,16,80,250,,18,37,111,*7A
$GPGSV,3,3,11,08,16,277,,07,10,327,,29,00,087,*40
$GPRMC,231927.000,V,,,,,,,050218,,,N*4F
$GPGGA,231928.000,,,,,0,04,8.0,,M,0.0,M,,0000*77
$GPGSA,M,1,,,,,,,,,,,,,,,*12
$GPRMC,231928.000,V,,,,,,,050218,,,N*40
$GPGGA,231929.000,,,,,0,04,8.0,,M,0.0,M,,0000*76
$GPGSA,M,1,,,,,,,,,,,,,,,*12
$GPRMC,231929.000,V,,,,,,,050218,,,N*41
$GPGGA,231930.000,,,,,0,04,8.0,,M,0.0,M,,0000*7E
$GPGSA,M,1,,,,,,,,,,,,,,,*12
$GPRMC,231930.000,V,,,,,,,050218,,,N*49
$GPGGA,231931.000,,,,,0,04,8.0,,M,0.0,M,,0000*7F
$GPGSA,M,1,,,,,,,,,,,,,,,*12
$GPRMC,231931.000,V,,,,,,,050218,,,N*48
arfcn: 985 bsic: 44 rxLev: -67 ber: 0.00 mcc: 208 mnc: 20 lac: 418 cellId: 21808 cellStatus: CELL_SUITABLE numArfcn: 1 arfcn: 985 numChannels: 17 array: 975 977 978 979 980 981 982 983 1011 1012 1014 1015 1017 1019 1020 1021 1022 pbcch: 0 nom: 2 rac: 6 spgc: 0 pat: 6 nco: 0 t3168: 1500 t3192: 500 drxmax: 0 ctrlAck: 0 bsCVmax: 8 alpha: 6 pcMeasCh: 1 
$GPGGA,231932.000,,,,,0,04,8.0,,M,0.0,M,,0000*7C
$GPGSA,M,1,,,,,,,,,,,,,,,*12
$GPGSV,3,1,11,26,57,163,20,21,52,060,26,20,22,050,24,10,22,148,16*77
$GPGSV,3,2,11,27,54,288,11,37,27,150,,16,80,250,,18,37,111,*7F
$GPGSV,3,3,11,08,16,277,,07,10,327,,29,00,087,*40
$GPRMC,231932.000,V,,,,,,,050218,,,N*4B
$GPGGA,231933.000,,,,,0,04,8.0,,M,0.0,M,,0000*7D
$GPGSA,M,1,,,,,,,,,,,,,,,*12
$GPRMC,231933.000,V,,,,,,,050218,,,N*4A
arfcn: 12 bsic: 0 rxLev: -69 ber: 0.00 mcc: 208 mnc: 01 lac: 10300 cellId: 6467 cellStatus: CELL_FORBIDDEN numArfcn: 13 arfcn: 12 17 18 19 20 21 22 23 24 25 47 48 49 numChannels: 15 array: 1 2 3 8 9 10 14 512 513 514 515 518 605 606 608 pbcch: 0 nom: 2 rac: 1 spgc: 0 pat: 6 nco: 0 t3168: 1000 t3192: 500 drxmax: 2 ctrlAck: 0 bsCVmax: 9 alpha: 5 pcMeasCh: 1 
$GPGGA,231934.000,,,,,0,04,8.0,,M,0.0,M,,0000*7A
$GPGSA,M,1,,,,,,,,,,,,,,,*12
$GPRMC,231934.000,V,,,,,,,050218,,,N*4D
$GPGGA,231935.000,,,,,0,04,8.0,,M,0.0,M,,0000*7B
$GPGSA,M,1,,,,,,,,,,,,,,,*12
$GPRMC,231935.000,V,,,,,,,050218,,,N*4C
arfcn: 85 bsic: 0 rxLev: -74 ber: 0.00 mcc: 208 mnc: 10 lac: 49415 cellId: 44814 cellStatus: CELL_FORBIDDEN numArfcn: 2 arfcn: 85 119 numChannels: 20 array: 76 77 78 79 80 82 83 85 86 114 115 116 117 118 119 120 121 122 123 124 pbcch: 0 nom: 2 rac: 31 spgc: 0 pat: 6 nco: 0 t3168: 1000 t3192: 500 drxmax: 4 ctrlAck: 1 bsCVmax: 9 alpha: 10 pcMeasCh: 0 
$GPGGA,231936.000,,,,,0,04,8.0,,M,0.0,M,,0000*78
$GPGSA,M,1,,,,,,,,,,,,,,,*12
$GPRMC,231936.000,V,,,,,,,050218,,,N*4F
$GPGGA,231937.000,,,,,0,04,8.0,,M,0.0,M,,0000*79
$GPGSA,M,1,,,,,,,,,,,,,,,*12
arfcn: 78 bsic: 2 rxLev: -75 ber: 0.00 mcc: 208 mnc: 10 lac: 49415 cellId: 45280 cellStatus: CELL_FORBIDDEN numArfcn: 2 arfcn: 78 116 numChannels: 20 array: 76 77 78 79 80 82 83 84 85 86 114 115 116 117 118 120 121 122 123 124 pbcch: 0 nom: 2 rac: 31 spgc: 0 pat: 6 nco: 0 t3168: 1000 t3192: 500 drxmax: 4 ctrlAck: 1 bsCVmax: 9 alpha: 10 pcMeasCh: 0 
$GPGSV,3,1,11,26,57,163,20,21,52,060,27,20,22,050,24,10,22,148,16*76
arfcn: 980 rxLev: -76
$GPGSV,3,2,11,16,80,250,06,27,54,288,11,37,27,150,,18,37,111,*79
$GPGSV,3,3,11,08,16,277,,07,10,327,,29,00,087,*40
$GPRMC,231937.000,V,,,,,,,050218,,,N*4E
$GPGGA,231938.000,,,,,0,05,2.6,,M,0.0,M,,0000*7B
$GPGSA,M,1,,,,,,,,,,,,,,,*12
$GPRMC,231938.000,V,,,,,,,050218,,,N*41
$GPGGA,231939.000,,,,,0,05,2.6,,M,0.0,M,,0000*7A
$GPGSA,M,1,,,,,,,,,,,,,,,*12
$GPRMC,231939.000,V,,,,,,,050218,,,N*40
arfcn: 10 bsic: 45 rxLev: -77 ber: 0.09 mcc: 208 mnc: 01 lac: 10301 cellId: 6461 cellStatus: CELL_FORBIDDEN numArfcn: 13 arfcn: 10 17 18 19 20 21 22 23 24 25 47 48 49 numChannels: 17 array: 1 3 4 5 6 8 12 14 512 513 514 516 517 604 605 606 608 pbcch: 0 nom: 2 rac: 1 spgc: 0 pat: 6 nco: 0 t3168: 1000 t3192: 500 drxmax: 2 ctrlAck: 0 bsCVmax: 9 alpha: 5 pcMeasCh: 1 
arfcn: 982 rxLev: -77
$GPGGA,231940.000,,,,,0,05,2.6,,M,0.0,M,,0000*74
$GPGSA,M,1,,,,,,,,,,,,,,,*12
$GPRMC,231940.000,V,,,,,,,050218,,,N*4E
$GPGGA,231941.000,,,,,0,05,2.6,,M,0.0,M,,0000*75
$GPGSA,M,1,,,,,,,,,,,,,,,*12
$GPRMC,231941.000,V,,,,,,,050218,,,N*4F
arfcn: 80 bsic: 47 rxLev: -78 ber: 0.00 mcc: 208 mnc: 10 lac: 49415 cellId: 23568 cellStatus: CELL_FORBIDDEN numArfcn: 2 arfcn: 80 89 numChannels: 19 array: 76 77 78 80 82 83 84 85 113 114 115 116 117 118 119 120 122 123 124 pbcch: 0 nom: 2 rac: 31 spgc: 0 pat: 6 nco: 0 t3168: 1000 t3192: 500 drxmax: 4 ctrlAck: 1 bsCVmax: 9 alpha: 10 pcMeasCh: 0 
$GPGGA,231942.000,4806.8648,N,00139.3783,W,1,05,2.6,67.5,M,48.3,M,,0000*77
$GPGSA,M,3,16,26,21,20,10,,,,,,,,3.5,2.6,2.4*39
$GPGSV,3,1,11,16,80,250,12,26,57,163,20,21,52,060,27,20,22,050,24*76
$GPGSV,3,2,11,10,22,148,17,37,27,150,,27,54,288,,18,37,111,*7D
$GPGSV,3,3,11,08,16,277,,07,10,327,,29,00,087,*40
$GPRMC,231942.000,A,4806.8648,N,00139.3783,W,1.41,108.98,050218,,,A*7D
$GPGGA,231943.000,4806.8653,N,00139.3814,W,1,05,2.6,66.3,M,48.3,M,,0000*7A
$GPGSA,M,3,16,26,21,20,10,,,,,,,,3.5,2.6,2.4*39
$GPRMC,231943.000,A,4806.8653,N,00139.3814,W,1.54,111.74,050218,,,A*79
$GPGGA,231944.000,4806.8654,N,00139.3836,W,1,05,2.6,65.8,M,48.3,M,,0000*72
arfcn: 605 bsic: 33 rxLev: -78 ber: 0.00 mcc: 208 mnc: 01 lac: 10300 cellId: 27588 cellStatus: CELL_FORBIDDEN numArfcn: 22 arfcn: 525 526 527 528 529 530 531 532 533 534 535 587 588 589 590 591 592 593 594 595 596 597 numChannels: 18 array: 1 3 5 8 12 15 512 513 514 515 516 517 518 604 605 606 607 609 pbcch: 0 nom: 2 rac: 1 spgc: 0 pat: 6 nco: 0 t3168: 1000 t3192: 500 drxmax: 2 ctrlAck: 0 bsCVmax: 9 alpha: 5 pcMeasCh: 1 
$GPGSA,M,3,16,26,21,20,10,,,,,,,,3.5,2.6,2.4*39
$GPRMC,231944.000,A,4806.8654,N,00139.3836,W,2.03,114.78,050218,,,A*71
$GPGGA,231945.000,4806.8660,N,00139.3861,W,1,05,2.6,65.1,M,48.3,M,,0000*7F
$GPGSA,M,3,16,26,21,20,10,,,,,,,,3.5,2.6,2.4*39
$GPRMC,231945.000,A,4806.8660,N,00139.3861,W,1.82,115.05,050218,,,A*74
$GPGGA,231946.000,4806.8663,N,00139.3878,W,1,05,2.6,64.6,M,48.3,M,,0000*71
$GPGSA,M,3,16,26,21,20,10,,,,,,,,3.5,2.6,2.4*39
arfcn: 8 bsic: 48 rxLev: -79 ber: 0.00 mcc: 208 mnc: 01 lac: 10300 cellId: 6473 cellStatus: CELL_FORBIDDEN numArfcn: 13 arfcn: 8 17 18 19 20 21 22 23 24 25 47 48 49 numChannels: 18 array: 1 2 3 4 5 10 12 13 14 15 512 513 514 515 516 517 605 610 pbcch: 0 nom: 2 rac: 1 spgc: 0 pat: 6 nco: 0 t3168: 1000 t3192: 500 drxmax: 2 ctrlAck: 0 bsCVmax: 9 alpha: 5 pcMeasCh: 1 
arfcn: 40 rxLev: -79
$GPRMC,231946.000,A,4806.8663,N,00139.3878,W,1.60,115.48,050218,,,A*79
arfcn: 41 rxLev: -79
arfcn: 1006 rxLev: -80
arfcn: 1007 rxLev: -80
arfcn: 1008 rxLev: -80
arfcn: 999 rxLev: -80
arfcn: 44 rxLev: -80
arfcn: 39 rxLev: -80
arfcn: 38 rxLev: -81
arfcn: 42 rxLev: -81
$GPGGA,231947.000,4806.8661,N,00139.3871,W,1,04,7.9,64.4,M,48.3,M,,0000*72
arfcn: 43 rxLev: -81
$GPGSA,M,3,26,21,20,10,,,,,,,,,9.5,7.9,5.1*3C
arfcn: 1005 rxLev: -81
arfcn: 1004 rxLev: -81
$GPGSV,3,1,11,26,57,163,21,21,52,060,27,20,22,050,24,10,22,148,17*76
arfcn: 1002 rxLev: -81
$GPGSV,3,2,11,16,80,250,07,37,27,150,,27,54,288,,18,37,111,*78
arfcn: 1003 rxLev: -81
arfcn: 1000 rxLev: -81
$GPGSV,3,3,11,08,16,277,,07,10,327,,29,00,087,*40
arfcn: 996 rxLev: -81
$GPRMC,231947.000,A,4806.8661,N,00139.3871,W,1.74,117.63,050218,,,A*7D
arfcn: 997 rxLev: -81
arfcn: 37 rxLev: -81
arfcn: 45 rxLev: -82
$GPGGA,231948.000,4806.8660,N,00139.3870,W,1,04,7.9,64.4,M,48.3,M,,0000*7D
arfcn: 994 rxLev: -82
$GPGSA,M,3,26,21,20,10,,,,,,,,,9.4,7.9,5.1*3D
arfcn: 995 rxLev: -82
arfcn: 1001 rxLev: -82
$GPRMC,231948.000,A,4806.8660,N,00139.3870,W,1.70,118.57,050218,,,A*7E
arfcn: 998 rxLev: -82
arfcn: 991 rxLev: -82
arfcn: 992 rxLev: -82
arfcn: 993 rxLev: -82
arfcn: 990 rxLev: -82
arfcn: 36 rxLev: -82
arfcn: 32 rxLev: -82
$GPGGA,231949.000,4806.8658,N,00139.3866,W,1,04,7.9,64.8,M,48.3,M,,0000*7C
arfcn: 33 rxLev: -82
arfcn: 28 rxLev: -82
$GPGSA,M,3,26,21,20,10,,,,,,,,,9.4,7.9,5.1*3D
arfcn: 31 rxLev: -82
arfcn: 30 rxLev: -83
$GPRMC,231949.000,A,4806.8658,N,00139.3866,W,1.60,119.18,050218,,,A*78
arfcn: 29 rxLev: -83
arfcn: 34 rxLev: -83
arfcn: 35 rxLev: -83
arfcn: 986 rxLev: -83
$GPGGA,231950.000,4806.8660,N,00139.3870,W,1,04,7.9,64.6,M,48.3,M,,0000*76
$GPGSA,M,3,26,21,20,10,,,,,,,,,9.4,7.9,5.1*3D
$GPRMC,231950.000,A,4806.8660,N,00139.3870,W,1.48,118.63,050218,,,A*7B
$GPGGA,231951.000,4806.8661,N,00139.3875,W,1,04,7.9,64.6,M,48.3,M,,0000*73
$GPGSA,M,3,26,21,20,10,,,,,,,,,9.4,7.9,5.1*3D
$GPRMC,231951.000,A,4806.8661,N,00139.3875,W,1.19,117.32,050218,,,A*71
arfcn: 515 bsic: 34 rxLev: -84 ber: 0.00 mcc: 208 mnc: 01 lac: 10300 cellId: 27586 cellStatus: CELL_FORBIDDEN numArfcn: 16 arfcn: 519 520 521 522 523 524 525 526 596 597 598 599 600 601 602 603 numChannels: 9 array: 1 8 12 512 513 516 605 606 607 pbcch: 0 nom: 2 rac: 1 spgc: 0 pat: 6 nco: 0 t3168: 1000 t3192: 500 drxmax: 2 ctrlAck: 0 bsCVmax: 9 alpha: 5 pcMeasCh: 1 
$GPGGA,231952.000,4806.8662,N,00139.3873,W,1,04,7.9,64.3,M,48.3,M,,0000*70
$GPGSA,M,3,26,21,20,10,,,,,,,,,9.4,7.9,5.1*3D
$GPGSV,3,1,11,26,57,163,20,21,52,060,27,20,22,050,24,10,22,148,17*77
$GPGSV,3,2,11,16,80,250,06,37,27,150,,27,54,288,,18,37,111,*79
$GPGSV,3,3,11,08,16,277,,07,10,327,,29,00,087,*40
$GPRMC,231952.000,A,4806.8662,N,00139.3873,W,1.25,115.90,050218,,,A*72
$GPGGA,231953.000,4806.8661,N,00139.3871,W,1,04,7.9,64.1,M,48.3,M,,0000*72
$GPGSA,M,3,26,21,20,10,,,,,,,,,9.4,7.9,5.1*3D
$GPRMC,231953.000,A,4806.8661,N,00139.3871,W,1.36,116.09,050218,,,A*73
$GPGGA,231954.000,4806.8656,N,00139.3860,W,1,04,7.9,64.4,M,48.3,M,,0000*74
$GPGSA,M,3,26,21,20,10,,,,,,,,,9.4,7.9,5.1*3D
$GPRMC,231954.000,A,4806.8656,N,00139.3860,W,1.82,117.84,050218,,,A*7B
$GPGGA,231955.000,4806.8653,N,00139.3858,W,1,04,7.9,64.2,M,48.3,M,,0000*7D
$GPGSA,M,3,26,21,20,10,,,,,,,,,9.4,7.9,5.1*3D
$GPRMC,231955.000,A,4806.8653,N,00139.3858,W,1.70,119.73,050218,,,A*7F
arfcn: 1020 bsic: 39 rxLev: -84 ber: 0.00 mcc: 208 mnc: 20 lac: 418 cellId: 38980 cellStatus: CELL_SUITABLE numArfcn: 1 arfcn: 1020 numChannels: 26 array: 787 788 790 791 793 795 796 879 884 885 978 979 981 982 983 985 986 987 1011 1012 1013 1014 1015 1017 1019 1022 pbcch: 0 nom: 2 rac: 6 spgc: 0 pat: 6 nco: 0 t3168: 1500 t3192: 500 drxmax: 0 ctrlAck: 0 bsCVmax: 8 alpha: 6 pcMeasCh: 1 
arfcn: 27 rxLev: -84
arfcn: 13 rxLev: -85
$GPGGA,231956.000,4806.8653,N,00139.3865,W,1,04,7.9,64.0,M,48.3,M,,0000*72
$GPGSA,M,3,26,21,20,10,,,,,,,,,9.4,7.9,5.1*3D
$GPRMC,231956.000,A,4806.8653,N,00139.3865,W,1.25,121.31,050218,,,A*7F
$GPGGA,231957.000,4806.8651,N,00139.3864,W,1,04,7.9,63.6,M,48.3,M,,0000*71
$GPGSA,M,3,26,21,20,10,,,,,,,,,9.4,7.9,5.1*3D
$GPGSV,3,1,11,26,57,163,19,21,52,060,27,20,22,050,25,10,22,148,17*7C
$GPGSV,3,2,11,16,80,250,07,37,27,150,,27,54,288,,18,37,111,*78
$GPGSV,3,3,11,08,16,277,,07,10,327,,29,00,087,*40
arfcn: 124 bsic: 2 rxLev: -85 ber: 1.09 mcc: 208 mnc: 10 lac: 49415 cellId: 43517 cellStatus: CELL_FORBIDDEN numArfcn: 2 arfcn: 112 124 numChannels: 14 array: 76 77 78 80 82 85 114 115 117 118 120 121 122 124 pbcch: 0 nom: 2 rac: 31 spgc: 0 pat: 6 nco: 0 t3168: 1000 t3192: 500 drxmax: 4 ctrlAck: 1 bsCVmax: 9 alpha: 10 pcMeasCh: 0 
arfcn: 46 rxLev: -85
$GPRMC,231957.000,A,4806.8651,N,00139.3864,W,1.22,122.99,050218,,,A*7B
arfcn: 984 rxLev: -85
arfcn: 11 rxLev: -86
$GPGGA,231958.000,4806.8649,N,00139.3872,W,1,04,7.9,63.4,M,48.3,M,,0000*72
$GPGSA,M,3,26,21,20,10,,,,,,,,,9.4,7.9,5.1*3D
$GPRMC,231958.000,A,4806.8649,N,00139.3872,W,1.15,122.99,050218,,,A*7E
$GPGGA,231959.000,4806.8647,N,00139.3875,W,1,04,7.9,62.8,M,48.3,M,,0000*77
$GPGSA,M,3,26,21,20,10,,,,,,,,,9.4,7.9,5.1*3D
$GPRMC,231959.000,A,4806.8647,N,00139.3875,W,1.00,122.99,050218,,,A*72
arfcn: 82 bsic: 63 rxLev: -86 ber: 0.08 mcc: 208 mnc: 10 lac: 49415 cellId: 53517 cellStatus: CELL_FORBIDDEN numArfcn: 2 arfcn: 82 84 numChannels: 17 array: 76 77 78 79 80 82 85 86 114 115 118 119 120 121 122 123 124 pbcch: 0 nom: 2 rac: 31 spgc: 0 pat: 6 nco: 0 t3168: 1000 t3192: 500 drxmax: 4 ctrlAck: 1 bsCVmax: 9 alpha: 10 pcMeasCh: 0 
$GPGGA,232000.000,4806.8647,N,00139.3881,W,1,05,2.6,62.2,M,48.3,M,,0000*7B
$GPGSA,M,3,16,26,21,20,10,,,,,,,,3.5,2.6,2.4*39
$GPRMC,232000.000,A,4806.8647,N,00139.3881,W,0.68,122.99,050218,,,A*70
$GPGGA,232001.000,4806.8647,N,00139.3867,W,1,05,2.6,61.7,M,48.3,M,,0000*74
arfcn: 604 bsic: 20 rxLev: -86 ber: 2.03 mcc: 208 mnc: 01 lac: 10300 cellId: 39915 cellStatus: CELL_FORBIDDEN numArfcn: 16 arfcn: 519 520 521 522 523 524 525 526 596 597 598 599 600 601 602 603 numChannels: 13 array: 5 6 10 15 16 512 514 516 517 518 608 609 610 pbcch: 0 nom: 2 rac: 1 spgc: 0 pat: 6 nco: 0 t3168: 1000 t3192: 500 drxmax: 2 ctrlAck: 0 bsCVmax: 9 alpha: 5 pcMeasCh: 1 
$GPGSA,M,3,16,26,21,20,10,,,,,,,,3.5,2.6,2.4*39
arfcn: 93 rxLev: -87
arfcn: 95 rxLev: -87
$GPRMC,232001.000,A,4806.8647,N,00139.3867,W,0.85,122.99,050218,,,A*7A
arfcn: 98 rxLev: -87
arfcn: 837 rxLev: -87
arfcn: 853 rxLev: -87
arfcn: 99 rxLev: -87
arfcn: 100 rxLev: -87
arfcn: 101 rxLev: -87
arfcn: 94 rxLev: -87
arfcn: 92 rxLev: -87
arfcn: 67 rxLev: -88
$GPGGA,232002.000,4806.8649,N,00139.3870,W,1,05,2.6,62.3,M,48.3,M,,0000*78
arfcn: 102 rxLev: -88
$GPGSA,M,3,16,26,21,20,10,,,,,,,,3.5,2.6,2.4*39
arfcn: 96 rxLev: -88
$GPGSV,3,1,11,16,80,250,09,26,57,163,18,21,52,060,26,20,22,050,25*77
$GPGSV,3,2,11,10,22,148,18,27,54,288,10,39,31,144,,18,37,111,*7F
$GPGSV,3,3,11,08,16,277,,07,10,327,,29,00,087,*40
$GPRMC,232002.000,A,4806.8649,N,00139.3870,W,0.29,122.99,050218,,,A*77
$GPGGA,232003.000,4806.8648,N,00139.3865,W,1,05,2.6,63.3,M,48.3,M,,0000*7D
$GPGSA,M,3,16,26,21,20,10,,,,,,,,3.5,2.6,2.4*39
$GPRMC,232003.000,A,4806.8648,N,00139.3865,W,0.40,122.99,050218,,,A*7C
$GPGGA,232004.000,4806.8645,N,00139.3863,W,1,05,2.6,64.0,M,48.3,M,,0000*75
$GPGSA,M,3,16,26,21,20,10,,,,,,,,3.5,2.6,2.4*39
arfcn: 120 bsic: 59 rxLev: -88 ber: 0.00 mcc: 208 mnc: 10 lac: 49415 cellId: 13571 cellStatus: CELL_FORBIDDEN numArfcn: 2 arfcn: 111 120 numChannels: 14 array: 76 77 79 80 83 84 85 114 115 116 117 120 122 124 pbcch: 0 nom: 2 rac: 31 spgc: 0 pat: 6 nco: 0 t3168: 1000 t3192: 500 drxmax: 4 ctrlAck: 1 bsCVmax: 9 alpha: 10 pcMeasCh: 0 
$GPRMC,232004.000,A,4806.8645,N,00139.3863,W,0.62,122.99,050218,,,A*70
$GPGGA,232005.000,4806.8643,N,00139.3864,W,1,05,2.6,64.8,M,48.3,M,,0000*7D
$GPGSA,M,3,16,26,21,20,10,,,,,,,,3.5,2.6,2.4*39
$GPRMC,232005.000,A,4806.8643,N,00139.3864,W,0.66,122.99,050218,,,A*74
$GPGGA,232006.000,4806.8641,N,00139.3872,W,1,05,2.6,65.0,M,48.3,M,,0000*72
$GPGSA,M,3,16,26,21,20,10,,,,,,,,3.5,2.6,2.4*39
arfcn: 1 bsic: 44 rxLev: -88 ber: 0.06 mcc: 208 mnc: 01 lac: 10300 cellId: 6468 cellStatus: CELL_FORBIDDEN numArfcn: 13 arfcn: 1 17 18 19 20 21 22 23 24 25 47 48 49 numChannels: 24 array: 2 4 5 6 7 8 9 10 11 12 15 512 513 514 515 516 517 518 605 606 607 608 609 610 pbcch: 0 nom: 2 rac: 1 spgc: 0 pat: 6 nco: 0 t3168: 1000 t3192: 500 drxmax: 2 ctrlAck: 0 bsCVmax: 9 alpha: 5 pcMeasCh: 1 
arfcn: 26 rxLev: -88
$GPRMC,232006.000,A,4806.8641,N,00139.3872,W,1.08,122.99,050218,,,A*7B
arfcn: 852 rxLev: -88
arfcn: 845 rxLev: -88
arfcn: 849 rxLev: -88
arfcn: 844 rxLev: -88
arfcn: 828 rxLev: -88
arfcn: 851 rxLev: -88
arfcn: 867 rxLev: -88
$GPGGA,232007.000,4806.8644,N,00139.3883,W,1,05,2.6,64.7,M,48.3,M,,0000*7E
arfcn: 875 rxLev: -88
$GPGSA,M,3,16,26,21,20,10,,,,,,,,3.5,2.6,2.4*39
arfcn: 97 rxLev: -88
arfcn: 103 rxLev: -88
$GPGSV,3,1,11,16,80,250,08,26,57,163,17,21,52,060,25,20,22,050,25*7A
arfcn: 104 rxLev: -88
arfcn: 107 rxLev: -88
$GPGSV,3,2,11,10,22,148,18,27,54,288,09,39,31,144,,18,37,111,*77
arfcn: 1009 rxLev: -88
$GPGSV,3,3,11,08,16,277,,07,10,327,,29,00,087,*40
$GPRMC,232007.000,A,4806.8644,N,00139.3883,W,0.92,122.99,050218,,,A*73
$GPGGA,232008.000,4806.8648,N,00139.3893,W,1,04,7.9,64.4,M,48.3,M,,0000*74
$GPGSA,M,3,26,21,20,10,,,,,,,,,9.4,7.9,5.1*3D
$GPRMC,232008.000,A,4806.8648,N,00139.3893,W,0.93,122.99,050218,,,A*70
$GPGGA,232009.000,4806.8646,N,00139.3896,W,1,04,7.9,64.1,M,48.3,M,,0000*7B
$GPGSA,M,3,26,21,20,10,,,,,,,,,9.4,7.9,5.1*3D
$GPRMC,232009.000,A,4806.8646,N,00139.3896,W,0.76,122.99,050218,,,A*71
arfcn: 512 bsic: 25 rxLev: -89 ber: 1.03 mcc: 208 mnc: 01 lac: 10300 cellId: 40155 cellStatus: CELL_FORBIDDEN numArfcn: 16 arfcn: 519 520 521 522 523 524 525 526 596 597 598 599 600 601 602 603 numChannels: 16 array: 2 3 5 8 10 11 12 15 16 517 518 604 605 606 609 610 pbcch: 0 nom: 2 rac: 1 spgc: 0 pat: 6 nco: 0 t3168: 1000 t3192: 500 drxmax: 2 ctrlAck: 0 bsCVmax: 9 alpha: 5 pcMeasCh: 1 
arfcn: 105 rxLev: -89
arfcn: 108 rxLev: -89
arfcn: 91 rxLev: -89
$GPGGA,232010.000,4806.8648,N,00139.3906,W,1,04,7.9,63.9,M,48.3,M,,0000*7A
$GPGSA,M,3,26,21,20,10,,,,,,,,,9.4,7.9,5.1*3D
$GPRMC,232010.000,A,4806.8648,N,00139.3906,W,0.71,122.99,050218,,,A*78
$GPGGA,232011.000,4806.8651,N,00139.3914,W,1,04,7.9,64.1,M,48.3,M,,0000*7F
$GPGSA,M,3,26,21,20,10,,,,,,,,,9.4,7.9,5.1*3D
$GPRMC,232011.000,A,4806.8651,N,00139.3914,W,0.92,122.99,050218,,,A*7F
$GPGGA,232012.000,4806.8656,N,00139.3923,W,1,04,7.9,64.4,M,48.3,M,,0000*7A
$GPGSA,M,3,26,21,20,10,,,,,,,,,9.3,7.9,5.1*3A
$GPGSV,3,1,11,26,57,163,16,21,52,060,24,20,22,050,25,10,22,148,19*7E
$GPGSV,3,2,11,16,80,250,05,27,54,288,07,39,31,144,,18,37,111,*71
$GPGSV,3,3,11,08,16,277,,07,10,327,,29,00,087,*40
$GPRMC,232012.000,A,4806.8656,N,00139.3923,W,1.31,97.93,050218,,,A*42
$GPGGA,232013.000,4806.8657,N,00139.3914,W,1,04,7.8,64.4,M,48.3,M,,0000*7F
arfcn: 3 bsic: 0 rxLev: -89 ber: 1.01 mcc: 208 mnc: 01 lac: 10300 cellId: 2686 cellStatus: CELL_FORBIDDEN numArfcn: 13 arfcn: 3 17 18 19 20 21 22 23 24 25 47 48 49 numChannels: 13 array: 1 5 6 7 10 12 14 512 515 517 604 606 608 pbcch: 0 nom: 2 rac: 1 spgc: 0 pat: 6 nco: 0 t3168: 1000 t3192: 500 drxmax: 2 ctrlAck: 0 bsCVmax: 9 alpha: 5 pcMeasCh: 1 
arfcn: 850 rxLev: -89
$GPGSA,M,3,26,21,20,10,,,,,,,,,9.3,7.8,5.1*3B
arfcn: 847 rxLev: -89
$GPRMC,232013.000,A,4806.8657,N,00139.3914,W,0.83,97.93,050218,,,A*4E
arfcn: 835 rxLev: -89
arfcn: 842 rxLev: -89
arfcn: 860 rxLev: -89
arfcn: 68 rxLev: -89
arfcn: 106 rxLev: -89
arfcn: 109 rxLev: -90
$GPGGA,232014.000,4806.8666,N,00139.3946,W,1,06,1.6,63.6,M,48.3,M,,0000*72
$GPGSA,M,3,16,26,27,21,20,10,,,,,,,2.9,1.6,2.4*32
$GPRMC,232014.000,A,4806.8666,N,00139.3946,W,1.06,97.93,050218,,,A*40
$GPGGA,232015.000,4806.8666,N,00139.3940,W,1,05,2.6,63.8,M,48.3,M,,0000*7B
$GPGSA,M,3,16,26,21,20,10,,,,,,,,3.5,2.6,2.4*39
$GPRMC,232015.000,A,4806.8666,N,00139.3940,W,0.85,97.93,050218,,,A*4D
$GPGGA,232016.000,4806.8670,N,00139.3941,W,1,05,2.6,63.7,M,48.3,M,,0000*71
$GPGSA,M,3,16,26,21,20,10,,,,,,,,3.5,2.6,2.4*39
$GPRMC,232016.000,A,4806.8670,N,00139.3941,W,0.98,97.93,050218,,,A*44
$GPGGA,232017.000,4806.8672,N,00139.3943,W,1,05,2.6,63.6,M,48.3,M,,0000*71
arfcn: 2 bsic: 54 rxLev: -90 ber: 0.00 mcc: 208 mnc: 01 lac: 10300 cellId: 42646 cellStatus: CELL_FORBIDDEN numArfcn: 13 arfcn: 2 17 18 19 20 21 22 23 24 25 47 48 49 numChannels: 22 array: 1 5 6 7 8 10 12 13 15 16 512 514 515 516 517 518 604 606 607 608 609 610 pbcch: 0 nom: 2 rac: 1 spgc: 0 pat: 6 nco: 0 t3168: 1000 t3192: 500 drxmax: 2 ctrlAck: 0 bsCVmax: 9 alpha: 5 pcMeasCh: 1 
arfcn: 9 rxLev: -90
$GPGSA,M,3,16,26,21,20,10,,,,,,,,3.5,2.6,2.4*39
$GPGSV,3,1,11,16,80,250,14,26,57,163,14,21,52,060,24,20,22,050,25*75
$GPGSV,3,2,11,10,22,148,19,27,54,288,04,39,31,144,,18,37,111,*7B
$GPGSV,3,3,11,08,16,277,,07,10,327,,29,00,087,*40
$GPRMC,232017.000,A,4806.8672,N,00139.3943,W,0.94,97.93,050218,,,A*49
$GPGGA,232018.000,4806.8675,N,00139.3946,W,1,05,2.6,63.6,M,48.3,M,,0000*7C
$GPGSA,M,3,16,26,21,20,10,,,,,,,,3.5,2.6,2.4*39
$GPRMC,232018.000,A,4806.8675,N,00139.3946,W,0.87,97.93,050218,,,A*46
$GPGGA,232019.000,4806.8678,N,00139.3943,W,1,04,3.6,63.6,M,48.3,M,,0000*75
$GPGSA,M,3,16,21,20,10,,,,,,,,,5.4,3.6,4.1*38
$GPRMC,232019.000,A,4806.8678,N,00139.3943,W,1.28,85.74,050218,,,A*41
arfcn: 1014 bsic: 31 rxLev: -90 ber: 0.00 mcc: 208 mnc: 20 lac: 418 cellId: 20649 cellStatus: CELL_SUITABLE numArfcn: 1 arfcn: 1014 numChannels: 25 array: 788 789 790 791 793 795 796 879 884 977 978 979 980 981 982 983 984 985 987 1012 1013 1017 1020 1021 1022 pbcch: 0 nom: 2 rac: 6 spgc: 0 pat: 6 nco: 0 t3168: 1500 t3192: 500 drxmax: 0 ctrlAck: 0 bsCVmax: 8 alpha: 6 pcMeasCh: 1 
$GPGGA,232020.000,4806.8678,N,00139.3940,W,1,04,3.6,63.5,M,48.3,M,,0000*7F
$GPGSA,M,3,16,21,20,10,,,,,,,,,5.4,3.6,4.1*38
$GPRMC,232020.000,A,4806.8678,N,00139.3940,W,1.08,85.74,050218,,,A*4A
$GPGGA,232021.000,4806.8681,N,00139.3941,W,1,04,3.6,63.5,M,48.3,M,,0000*79
$GPGSA,M,3,16,21,20,10,,,,,,,,,5.4,3.6,4.1*38
$GPRMC,232021.000,A,4806.8681,N,00139.3941,W,1.40,79.02,050218,,,A*42
$GPGGA,232022.000,4806.8683,N,00139.3939,W,1,04,3.6,63.1,M,48.3,M,,0000*73
$GPGSA,M,3,16,21,20,10,,,,,,,,,5.4,3.6,4.0*39
$GPGSV,3,1,11,16,80,250,13,21,52,060,23,20,22,050,26,10,22,148,20*7F
$GPGSV,3,2,11,26,57,163,04,27,54,288,04,39,31,144,,18,37,111,*79
$GPGSV,3,3,11,08,16,277,,07,10,327,,29,00,087,*40
$GPRMC,232022.000,A,4806.8683,N,00139.3939,W,1.62,75.82,050218,,,A*48
$GPGGA,232023.000,4806.8686,N,00139.3940,W,1,04,3.6,63.0,M,48.3,M,,0000*78
$GPGSA,M,3,16,21,20,10,,,,,,,,,5.4,3.6,4.0*39
arfcn: 978 bsic: 19 rxLev: -90 ber: 0.10 mcc: 208 mnc: 20 lac: 418 cellId: 18480 cellStatus: CELL_SUITABLE numArfcn: 2 arfcn: 978 1023 numChannels: 24 array: 788 790 794 880 883 975 976 977 979 980 981 982 983 985 986 1011 1012 1014 1016 1017 1018 1019 1020 1021 pbcch: 0 nom: 2 rac: 6 spgc: 0 pat: 6 nco: 0 t3168: 1500 t3192: 500 drxmax: 4 ctrlAck: 1 bsCVmax: 8 alpha: 6 pcMeasCh: 1 
arfcn: 854 rxLev: -90
arfcn: 855 rxLev: -90
$GPRMC,232023.000,A,4806.8686,N,00139.3940,W,1.74,73.80,050218,,,A*41
arfcn: 841 rxLev: -90
arfcn: 843 rxLev: -90
arfcn: 846 rxLev: -90
arfcn: 848 rxLev: -90
arfcn: 839 rxLev: -90
arfcn: 833 rxLev: -90
arfcn: 856 rxLev: -90
$GPGGA,232024.000,4806.8687,N,00139.3949,W,1,05,2.6,62.7,M,48.3,M,,0000*71
arfcn: 859 rxLev: -90
arfcn: 866 rxLev: -90
$GPGSA,M,3,16,26,21,20,10,,,,,,,,3.5,2.6,2.4*39
arfcn: 876 rxLev: -90
arfcn: 763 rxLev: -90
$GPRMC,232024.000,A,4806.8687,N,00139.3949,W,1.06,73.80,050218,,,A*4B
$GPGGA,232025.000,4806.8688,N,00139.3947,W,1,05,2.6,62.6,M,48.3,M,,0000*70
$GPGSA,M,3,16,26,21,20,10,,,,,,,,3.5,2.6,2.4*39
$GPRMC,232025.000,A,4806.8688,N,00139.3947,W,1.23,74.87,050218,,,A*4C
$GPGGA,232026.000,4806.8703,N,00139.4023,W,1,06,1.6,60.8,M,48.3,M,,0000*71
$GPGSA,M,3,16,26,27,21,20,10,,,,,,,2.9,1.6,2.4*32
$GPRMC,232026.000,A,4806.8703,N,00139.4023,W,0.86,74.87,050218,,,A*4F
arfcn: 14 bsic: 35 rxLev: -90 ber: 0.01 mcc: 208 mnc: 01 lac: 10300 cellId: 39250 cellStatus: CELL_FORBIDDEN numArfcn: 13 arfcn: 14 17 18 19 20 21 22 23 24 25 47 48 49 numChannels: 14 array: 1 3 4 6 8 10 12 14 512 513 514 517 604 608 pbcch: 0 nom: 2 rac: 1 spgc: 1 pat: 6 nco: 0 t3168: 1000 t3192: 500 drxmax: 4 ctrlAck: 1 bsCVmax: 9 alpha: 7 pcMeasCh: 0 
$GPGGA,232027.000,4806.8712,N,00139.4079,W,1,06,1.6,59.4,M,48.3,M,,0000*79
$GPGSA,M,3,16,26,27,21,20,10,,,,,,,2.9,1.6,2.4*32
$GPGSV,3,1,11,16,80,250,14,26,57,163,13,27,54,288,12,21,52,060,22*71
$GPGSV,3,2,11,20,22,050,26,10,22,148,20,39,31,144,,18,37,111,*70
$GPGSV,3,3,11,08,16,277,,07,10,327,,29,00,087,*40
$GPRMC,232027.000,A,4806.8712,N,00139.4079,W,0.50,74.87,050218,,,A*4A
$GPGGA,232028.000,4806.8716,N,00139.4124,W,1,06,1.6,58.1,M,48.3,M,,0000*7F
$GPGSA,M,3,16,26,27,21,20,10,,,,,,,2.9,1.6,2.4*32
$GPRMC,232028.000,A,4806.8716,N,00139.4124,W,0.55,74.87,050218,,,A*4D
arfcn: 4 bsic: 54 rxLev: -90 ber: 0.01 mcc: 208 mnc: 01 lac: 10300 cellId: 43768 cellStatus: CELL_FORBIDDEN numArfcn: 13 arfcn: 4 17 18 19 20 21 22 23 24 25 47 48 49 numChannels: 20 array: 1 3 5 6 7 8 12 13 14 513 514 515 517 518 601 605 606 608 609 610 pbcch: 0 nom: 2 rac: 1 spgc: 0 pat: 6 nco: 0 t3168: 1000 t3192: 500 drxmax: 2 ctrlAck: 0 bsCVmax: 9 alpha: 5 pcMeasCh: 1 
arfcn: 69 rxLev: -90
$GPGGA,232029.000,4806.8718,N,00139.4152,W,1,06,1.6,57.1,M,48.3,M,,0000*7E
arfcn: 79 rxLev: -91
$GPGSA,M,3,16,26,27,21,20,10,,,,,,,2.9,1.6,2.4*32
arfcn: 76 rxLev: -91
$GPRMC,232029.000,A,4806.8718,N,00139.4152,W,1.30,85.18,050218,,,A*49
$GPGGA,232030.000,4806.8719,N,00139.4171,W,1,06,1.6,56.2,M,48.3,M,,0000*74
$GPGSA,M,3,16,26,27,21,20,10,,,,,,,2.9,1.6,2.4*32
$GPRMC,232030.000,A,4806.8719,N,00139.4171,W,2.18,101.96,050218,,,A*73
$GPGGA,232031.000,4806.8720,N,00139.4181,W,1,06,1.6,55.5,M,48.3,M,,0000*74
$GPGSA,M,3,16,26,27,21,20,10,,,,,,,2.9,1.6,2.4*32
arfcn: 122 bsic: 3 rxLev: -91 ber: 0.00 mcc: 208 mnc: 10 lac: 49415 cellId: 33517 cellStatus: CELL_FORBIDDEN numArfcn: 3 arfcn: 77 88 122 numChannels: 17 array: 77 78 79 80 82 84 85 86 114 115 117 118 119 120 122 123 124 pbcch: 0 nom: 2 rac: 31 spgc: 0 pat: 6 nco: 0 t3168: 1000 t3192: 500 drxmax: 4 ctrlAck: 1 bsCVmax: 9 alpha: 10 pcMeasCh: 0 
arfcn: 57 rxLev: -91
arfcn: 63 rxLev: -91
$GPRMC,232031.000,A,4806.8720,N,00139.4181,W,2.90,107.60,050218,,,A*78
arfcn: 989 rxLev: -91
arfcn: 762 rxLev: -91
arfcn: 764 rxLev: -91
arfcn: 761 rxLev: -91
arfcn: 754 rxLev: -91
arfcn: 792 rxLev: -91
arfcn: 794 rxLev: -91
arfcn: 745 rxLev: -91
$GPGGA,232032.000,4806.8722,N,00139.4193,W,1,06,1.6,54.8,M,48.3,M,,0000*7A
arfcn: 874 rxLev: -91
$GPGSA,M,3,16,26,27,21,20,10,,,,,,,2.9,1.6,2.4*32
arfcn: 861 rxLev: -91
$GPGSV,3,1,11,16,80,250,13,26,57,163,12,27,54,288,13,21,52,060,22*76
arfcn: 862 rxLev: -91
arfcn: 857 rxLev: -91
$GPGSV,3,2,11,20,22,050,26,10,22,148,20,33,33,198,,18,37,111,*79
arfcn: 834 rxLev: -91
$GPGSV,3,3,11,08,16,277,,07,10,327,,29,00,087,*40
arfcn: 831 rxLev: -91
arfcn: 827 rxLev: -91
$GPRMC,232032.000,A,4806.8722,N,00139.4193,W,2.18,107.71,050218,,,A*7A
arfcn: 830 rxLev: -91
arfcn: 822 rxLev: -91
arfcn: 823 rxLev: -91
arfcn: 825 rxLev: -91
$GPGGA,232033.000,4806.8724,N,00139.4203,W,1,06,1.6,54.1,M,48.3,M,,0000*7E
arfcn: 829 rxLev: -91
$GPGSA,M,3,16,26,27,21,20,10,,,,,,,2.9,1.6,2.4*32
arfcn: 832 rxLev: -91
arfcn: 864 rxLev: -91
$GPRMC,232033.000,A,4806.8724,N,00139.4203,W,1.94,107.10,050218,,,A*77
arfcn: 869 rxLev: -91
arfcn: 744 rxLev: -91
arfcn: 804 rxLev: -91
arfcn: 818 rxLev: -91
arfcn: 755 rxLev: -91
arfcn: 756 rxLev: -91
arfcn: 753 rxLev: -92
arfcn: 771 rxLev: -92
$GPGGA,232034.000,4806.8726,N,00139.4208,W,1,06,1.6,53.6,M,48.3,M,,0000*70
arfcn: 772 rxLev: -92
$GPGSA,M,3,16,26,27,21,20,10,,,,,,,2.9,1.6,2.4*32
arfcn: 773 rxLev: -92
arfcn: 779 rxLev: -92
$GPRMC,232034.000,A,4806.8726,N,00139.4208,W,1.35,106.01,050218,,,A*73
arfcn: 815 rxLev: -92
arfcn: 813 rxLev: -92
arfcn: 814 rxLev: -92
arfcn: 795 rxLev: -92
arfcn: 797 rxLev: -92
arfcn: 747 rxLev: -92
arfcn: 737 rxLev: -92
$GPGGA,232035.000,4806.8725,N,00139.4206,W,1,06,1.6,53.2,M,48.3,M,,0000*78
arfcn: 718 rxLev: -92
$GPGSA,M,3,16,26,27,21,20,10,,,,,,,2.9,1.6,2.4*32
arfcn: 719 rxLev: -92
arfcn: 728 rxLev: -92
$GPRMC,232035.000,A,4806.8725,N,00139.4206,W,1.32,106.57,050218,,,A*7B
arfcn: 729 rxLev: -92
arfcn: 868 rxLev: -92
arfcn: 871 rxLev: -92
arfcn: 880 rxLev: -92
arfcn: 863 rxLev: -92
arfcn: 858 rxLev: -92
arfcn: 821 rxLev: -92
arfcn: 819 rxLev: -92
arfcn: 820 rxLev: -92
$GPGGA,232036.000,4806.8724,N,00139.4200,W,1,06,1.6,53.1,M,48.3,M,,0000*7F
arfcn: 840 rxLev: -92
$GPGSA,M,3,16,26,27,21,20,10,,,,,,,2.9,1.6,2.4*32
arfcn: 838 rxLev: -92
arfcn: 979 rxLev: -92
$GPRMC,232036.000,A,4806.8724,N,00139.4200,W,1.38,105.69,050218,,,A*7B
$GPGGA,232037.000,4806.8721,N,00139.4194,W,1,06,1.6,53.0,M,48.3,M,,0000*74
$GPGSA,M,3,16,26,27,21,20,10,,,,,,,2.9,1.6,2.4*32
$GPGSV,3,1,11,16,80,250,13,26,57,163,12,27,54,288,13,21,52,060,22*76
$GPGSV,3,2,11,20,22,050,26,10,22,148,20,33,33,198,,18,37,111,*79
$GPGSV,3,3,11,08,16,277,,07,10,327,,29,00,087,*40
$GPRMC,232037.000,A,4806.8721,N,00139.4194,W,1.62,107.43,050218,,,A*74
$GPGGA,232038.000,4806.8721,N,00139.4187,W,1,06,1.6,53.0,M,48.3,M,,0000*79
$GPGSA,M,3,16,26,27,21,20,10,,,,,,,2.9,1.6,2.4*32
$GPRMC,232038.000,A,4806.8721,N,00139.4187,W,1.67,106.19,050218,,,A*72
$GPGGA,232039.000,4806.8724,N,00139.4178,W,1,06,1.6,52.8,M,48.3,M,,0000*74
$GPGSA,M,3,16,26,27,21,20,10,,,,,,,2.9,1.6,2.4*32
$GPRMC,232039.000,A,4806.8724,N,00139.4178,W,2.23,99.84,050218,,,A*46
$GPGGA,232040.000,4806.8722,N,00139.4170,W,1,05,1.5,52.7,M,48.3,M,,0000*7B
$GPGSA,M,3,26,27,21,20,10,,,,,,,,2.5,1.5,2.1*3F
$GPRMC,232040.000,A,4806.8722,N,00139.4170,W,2.10,98.99,050218,,,A*4B
$GPGGA,232041.000,4806.8725,N,00139.4171,W,1,05,1.5,52.3,M,48.3,M,,0000*78
$GPGSA,M,3,26,27,21,20,10,,,,,,,,2.5,1.5,2.1*3F
$GPRMC,232041.000,A,4806.8725,N,00139.4171,W,2.28,97.20,050218,,,A*4A
arfcn: 514 bsic: 1 rxLev: -92 ber: 17.05 mcc: 208 mnc: 01 lac: 10300 cellId: 39259 cellStatus: CELL_FORBIDDEN numArfcn: 17 arfcn: 514 519 520 521 522 523 524 525 526 596 597 598 599 600 601 602 603 numChannels: 8 array: 512 513 514 517 604 605 606 608
arfcn: 61 rxLev: -92
arfcn: 56 rxLev: -92
$GPGGA,232042.000,4806.8726,N,00139.4161,W,1,04,7.7,52.4,M,48.3,M,,0000*7B
$GPGSA,M,3,26,21,20,10,,,,,,,,,9.2,7.7,5.0*34
$GPGSV,3,1,11,26,57,163,12,21,52,060,21,20,22,050,26,10,22,148,20*76
$GPGSV,3,2,11,16,80,250,07,27,54,288,07,33,33,198,,18,37,111,*7A
$GPGSV,3,3,11,08,16,277,,07,10,327,,29,00,087,*40
$GPRMC,232042.000,A,4806.8726,N,00139.4161,W,2.31,92.60,050218,,,A*42
$GPGGA,232043.000,4806.8726,N,00139.4148,W,1,04,7.7,52.4,M,48.3,M,,0000*71
$GPGSA,M,3,26,21,20,10,,,,,,,,,9.2,7.7,5.0*34
$GPRMC,232043.000,A,4806.8726,N,00139.4148,W,2.44,90.44,050218,,,A*4E
arfcn: 6 bsic: 2 rxLev: -92 ber: 2.10 mcc: 208 mnc: 01 lac: 10301 cellId: 6463 cellStatus: CELL_FORBIDDEN numArfcn: 13 arfcn: 6 17 18 19 20 21 22 23 24 25 47 48 49 numChannels: 16 array: 1 2 3 4 5 10 11 12 14 15 512 513 517 604 606 607 pbcch: 0 nom: 2 rac: 1 spgc: 0 pat: 6 nco: 0 t3168: 1000 t3192: 500 drxmax: 2 ctrlAck: 0 bsCVmax: 9 alpha: 5 pcMeasCh: 1 
arfcn: 66 rxLev: -92
arfcn: 90 rxLev: -92
arfcn: 86 rxLev: -92
arfcn: 64 rxLev: -92
$GPGGA,232044.000,4806.8723,N,00139.4137,W,1,04,7.7,52.5,M,48.3,M,,0000*7A
arfcn: 70 rxLev: -92
$GPGSA,M,3,26,21,20,10,,,,,,,,,9.2,7.7,5.0*34
$GPRMC,232044.000,A,4806.8723,N,00139.4137,W,2.46,91.68,050218,,,A*49
$GPGGA,232045.000,4806.8721,N,00139.4126,W,1,04,7.7,52.6,M,48.3,M,,0000*7A
$GPGSA,M,3,26,21,20,10,,,,,,,,,9.2,7.7,5.0*34
$GPRMC,232045.000,A,4806.8721,N,00139.4126,W,2.51,93.70,050218,,,A*47
arfcn: 117 bsic: 12 rxLev: -92 ber: 0.03 mcc: 208 mnc: 10 lac: 49415 cellId: 3568 cellStatus: CELL_FORBIDDEN numArfcn: 2 arfcn: 82 117 numChannels: 17 array: 76 77 78 79 80 83 84 85 87 113 114 116 117 120 122 123 124 pbcch: 0 nom: 2 rac: 31 spgc: 0 pat: 6 nco: 0 t3168: 1000 t3192: 500 drxmax: 4 ctrlAck: 1 bsCVmax: 9 alpha: 10 pcMeasCh: 0 
arfcn: 836 rxLev: -92
arfcn: 826 rxLev: -92
arfcn: 824 rxLev: -92
$GPGGA,232046.000,4806.8719,N,00139.4118,W,1,04,7.7,52.6,M,48.3,M,,0000*7F
arfcn: 865 rxLev: -92
$GPGSA,M,3,26,21,20,10,,,,,,,,,9.2,7.7,5.0*34
arfcn: 878 rxLev: -92
arfcn: 872 rxLev: -92
$GPRMC,232046.000,A,4806.8719,N,00139.4118,W,2.25,95.46,050218,,,A*42
arfcn: 873 rxLev: -92
arfcn: 870 rxLev: -92
arfcn: 726 rxLev: -92
arfcn: 727 rxLev: -92
arfcn: 720 rxLev: -92
arfcn: 748 rxLev: -92
arfcn: 743 rxLev: -92
arfcn: 796 rxLev: -92
$GPGGA,232047.000,4806.8716,N,00139.4111,W,1,04,7.7,52.6,M,48.3,M,,0000*78
arfcn: 799 rxLev: -92
$GPGSA,M,3,26,21,20,10,,,,,,,,,9.2,7.7,5.0*34
arfcn: 811 rxLev: -92
$GPGSV,3,1,11,26,57,163,09,21,52,060,20,20,22,050,26,10,22,148,20*7D
arfcn: 780 rxLev: -92
arfcn: 781 rxLev: -92
$GPGSV,3,2,11,07,10,327,06,16,80,250,05,27,54,288,06,33,33,198,*73
arfcn: 770 rxLev: -92
arfcn: 752 rxLev: -92
$GPGSV,3,3,11,18,37,111,,08,16,277,,29,00,087,*4C
arfcn: 757 rxLev: -92
$GPRMC,232047.000,A,4806.8716,N,00139.4111,W,2.22,98.38,050218,,,A*46
arfcn: 765 rxLev: -92
arfcn: 759 rxLev: -93
arfcn: 778 rxLev: -93
$GPGGA,232048.000,4806.8715,N,00139.4101,W,1,04,7.7,52.7,M,48.3,M,,0000*74
arfcn: 774 rxLev: -93
$GPGSA,M,3,26,21,20,10,,,,,,,,,9.2,7.7,5.0*34
arfcn: 777 rxLev: -93
arfcn: 812 rxLev: -93
$GPRMC,232048.000,A,4806.8715,N,00139.4101,W,2.10,99.04,050218,,,A*44
arfcn: 808 rxLev: -93
arfcn: 809 rxLev: -93
arfcn: 810 rxLev: -93
arfcn: 800 rxLev: -93
arfcn: 793 rxLev: -93
arfcn: 782 rxLev: -93
arfcn: 746 rxLev: -93
arfcn: 736 rxLev: -93
$GPGGA,232049.000,4806.8712,N,00139.4092,W,1,04,7.7,52.8,M,48.3,M,,0000*76
arfcn: 735 rxLev: -93
$GPGSA,M,3,26,21,20,10,,,,,,,,,9.2,7.7,5.0*34
arfcn: 730 rxLev: -93
$GPRMC,232049.000,A,4806.8712,N,00139.4092,W,2.29,101.19,050218,,,A*7F
arfcn: 879 rxLev: -93
arfcn: 123 rxLev: -93
arfcn: 62 rxLev: -93
arfcn: 47 rxLev: -93
arfcn: 606 rxLev: -93
arfcn: 60 rxLev: -93
arfcn: 58 rxLev: -93
arfcn: 110 rxLev: -93
$GPGGA,232050.000,4806.8711,N,00139.4083,W,1,04,7.7,52.9,M,48.3,M,,0000*7C
arfcn: 71 rxLev: -93
arfcn: 77 rxLev: -93
$GPGSA,M,3,26,21,20,10,,,,,,,,,9.2,7.7,5.0*34
arfcn: 72 rxLev: -93
$GPRMC,232050.000,A,4806.8711,N,00139.4083,W,2.21,100.51,050218,,,A*71
arfcn: 84 rxLev: -93
arfcn: 877 rxLev: -93
arfcn: 721 rxLev: -93
arfcn: 734 rxLev: -93
arfcn: 738 rxLev: -93
arfcn: 739 rxLev: -93
arfcn: 742 rxLev: -93
arfcn: 716 rxLev: -93
arfcn: 717 rxLev: -93
arfcn: 798 rxLev: -93
$GPGGA,232051.000,4806.8708,N,00139.4065,W,1,06,1.6,52.8,M,48.3,M,,0000*79
arfcn: 807 rxLev: -93
$GPGSA,M,3,16,26,27,21,20,10,,,,,,,2.9,1.6,2.5*33
arfcn: 803 rxLev: -93
$GPRMC,232051.000,A,4806.8708,N,00139.4065,W,3.00,100.03,050218,,,A*75
arfcn: 806 rxLev: -93
arfcn: 816 rxLev: -93
arfcn: 817 rxLev: -93
arfcn: 775 rxLev: -93
arfcn: 766 rxLev: -93
arfcn: 769 rxLev: -93
arfcn: 758 rxLev: -93
arfcn: 751 rxLev: -93
$GPGGA,232052.000,4806.8710,N,00139.4063,W,1,06,1.6,52.8,M,48.3,M,,0000*75
arfcn: 750 rxLev: -94
$GPGSA,M,3,16,26,27,21,20,10,,,,,,,2.9,1.6,2.5*33
arfcn: 760 rxLev: -94
arfcn: 768 rxLev: -94
$GPGSV,3,1,11,16,80,250,09,26,57,163,10,27,54,288,12,21,52,060,10*7F
arfcn: 767 rxLev: -94
arfcn: 776 rxLev: -94
$GPGSV,3,2,11,20,22,050,26,10,22,148,20,07,10,327,04,33,33,198,*71
arfcn: 805 rxLev: -94
$GPGSV,3,3,11,18,37,111,,08,16,277,,29,00,087,*4C
arfcn: 802 rxLev: -94
arfcn: 749 rxLev: -94
$GPRMC,232052.000,A,4806.8710,N,00139.4063,W,2.76,97.34,050218,,,A*42
arfcn: 741 rxLev: -94
arfcn: 722 rxLev: -94
arfcn: 725 rxLev: -94
arfcn: 731 rxLev: -94
$GPGGA,232053.000,4806.8714,N,00139.4070,W,1,06,1.6,52.7,M,48.3,M,,0000*7D
$GPGSA,M,3,16,26,27,21,20,10,,,,,,,2.9,1.6,2.5*33
$GPRMC,232053.000,A,4806.8714,N,00139.4070,W,2.43,92.09,050218,,,A*48
$GPGGA,232054.000,4806.8715,N,00139.4076,W,1,06,1.6,52.6,M,48.3,M,,0000*7C
$GPGSA,M,3,16,26,27,21,20,10,,,,,,,2.9,1.6,2.5*33
$GPRMC,232054.000,A,4806.8715,N,00139.4076,W,1.88,91.12,050218,,,A*45
arfcn: 114 bsic: 6 rxLev: -94 ber: 0.07 mcc: 208 mnc: 10 lac: 49415 cellId: 44202 cellStatus: CELL_FORBIDDEN numArfcn: 2 arfcn: 80 114 numChannels: 20 array: 76 77 78 79 80 84 85 86 113 114 115 116 117 118 119 120 121 122 123 124 pbcch: 0 nom: 2 rac: 31 spgc: 0 pat: 6 nco: 0 t3168: 1000 t3192: 500 drxmax: 4 ctrlAck: 1 bsCVmax: 9 alpha: 10 pcMeasCh: 0 
arfcn: 54 rxLev: -94
arfcn: 25 rxLev: -94
$GPGGA,232055.000,4806.8719,N,00139.4087,W,1,06,1.6,52.5,M,48.3,M,,0000*7C
$GPGSA,M,3,16,26,27,21,20,10,,,,,,,2.9,1.6,2.5*33
$GPRMC,232055.000,A,4806.8719,N,00139.4087,W,1.41,89.17,050218,,,A*4F
$GPGGA,232056.000,4806.8719,N,00139.4101,W,1,06,1.6,52.4,M,48.3,M,,0000*71
$GPGSA,M,3,16,26,27,21,20,10,,,,,,,2.9,1.6,2.5*33
$GPRMC,232056.000,A,4806.8719,N,00139.4101,W,0.62,89.17,050218,,,A*43
$GPGGA,232057.000,4806.8719,N,00139.4112,W,1,06,1.6,52.3,M,48.3,M,,0000*75
$GPGSA,M,3,16,26,27,21,20,10,,,,,,,2.9,1.6,2.5*33
$GPGSV,3,1,11,16,80,250,10,26,57,163,10,27,54,288,12,21,52,060,09*7F
$GPGSV,3,2,11,20,22,050,26,10,22,148,20,07,10,327,04,33,33,198,*71
$GPGSV,3,3,11,18,37,111,,08,16,277,,29,00,087,*4C
$GPRMC,232057.000,A,4806.8719,N,00139.4112,W,0.66,89.17,050218,,,A*44
$GPGGA,232058.000,4806.8718,N,00139.4121,W,1,06,1.6,52.3,M,48.3,M,,0000*7B
$GPGSA,M,3,16,26,27,21,20,10,,,,,,,2.9,1.6,2.5*33
$GPRMC,232058.000,A,4806.8718,N,00139.4121,W,0.77,89.17,050218,,,A*4A
$GPGGA,232059.000,4806.8718,N,00139.4135,W,1,06,1.6,52.2,M,48.3,M,,0000*7E
$GPGSA,M,3,16,26,27,21,20,10,,,,,,,2.9,1.6,2.5*33
$GPRMC,232059.000,A,4806.8718,N,00139.4135,W,0.65,89.17,050218,,,A*4D
$GPGGA,232100.000,4806.8716,N,00139.4146,W,1,06,1.6,52.1,M,48.3,M,,0000*7A
$GPGSA,M,3,16,26,27,21,20,10,,,,,,,2.9,1.6,2.5*33
$GPRMC,232100.000,A,4806.8716,N,00139.4146,W,0.97,89.17,050218,,,A*47
$GPGGA,232101.000,4806.8712,N,00139.4152,W,1,05,2.6,52.2,M,48.3,M,,0000*79
$GPGSA,M,3,16,26,21,20,10,,,,,,,,3.5,2.6,2.4*39
arfcn: 608 bsic: 46 rxLev: -94 ber: 5.05 mcc: 208 mnc: 01 lac: 10300 cellId: 36733 cellStatus: CELL_FORBIDDEN numArfcn: 16 arfcn: 519 520 521 522 523 524 525 526 596 597 598 599 600 601 602 603 numChannels: 15 array: 1 3 6 7 10 12 14 512 513 514 515 517 604 605 606 pbcch: 0 nom: 2 rac: 1 spgc: 0 pat: 6 nco: 0 t3168: 1000 t3192: 500 drxmax: 2 ctrlAck: 0 bsCVmax: 9 alpha: 5 pcMeasCh: 1 
arfcn: 55 rxLev: -95
arfcn: 53 rxLev: -95
$GPRMC,232101.000,A,4806.8712,N,00139.4152,W,1.25,101.81,050218,,,A*71
arfcn: 81 rxLev: -95
arfcn: 65 rxLev: -95
arfcn: 732 rxLev: -95
arfcn: 733 rxLev: -95
arfcn: 724 rxLev: -95
arfcn: 740 rxLev: -95
arfcn: 715 rxLev: -95
$GPGGA,232102.000,4806.8711,N,00139.4157,W,1,05,2.6,52.3,M,48.3,M,,0000*7D
arfcn: 801 rxLev: -95
arfcn: 791 rxLev: -95
$GPGSA,M,3,16,26,21,20,10,,,,,,,,3.5,2.6,2.4*39
arfcn: 881 rxLev: -95
$GPGSV,3,1,11,16,80,250,09,26,57,163,11,21,52,060,09,20,22,050,26*70
arfcn: 723 rxLev: -95
$GPGSV,3,2,11,10,22,148,20,07,10,327,04,27,54,288,06,37,27,150,*77
$GPGSV,3,3,11,18,37,111,,08,16,277,,29,00,087,*4C
$GPRMC,232102.000,A,4806.8711,N,00139.4157,W,1.13,101.81,050218,,,A*71
$GPGGA,232103.000,4806.8711,N,00139.4164,W,1,05,2.6,52.5,M,48.3,M,,0000*7A
$GPGSA,M,3,16,26,21,20,10,,,,,,,,3.5,2.6,2.4*39
$GPRMC,232103.000,A,4806.8711,N,00139.4164,W,1.11,101.81,050218,,,A*72
arfcn: 118 bsic: 3 rxLev: -95 ber: 0.03 mcc: 208 mnc: 10 lac: 49415 cellId: 45270 cellStatus: CELL_FORBIDDEN numArfcn: 2 arfcn: 86 118 numChannels: 22 array: 76 77 78 79 80 81 82 83 84 85 86 114 115 116 117 118 119 120 121 122 123 124 pbcch: 0 nom: 2 rac: 31 spgc: 0 pat: 6 nco: 0 t3168: 1000 t3192: 500 drxmax: 4 ctrlAck: 1 bsCVmax: 9 alpha: 10 pcMeasCh: 0 
arfcn: 976 rxLev: -95
arfcn: 7 rxLev: -95
arfcn: 59 rxLev: -96
$GPGGA,232104.000,4806.8710,N,00139.4162,W,1,04,7.7,52.5,M,48.3,M,,0000*7F
$GPGSA,M,3,26,21,20,10,,,,,,,,,9.1,7.7,5.0*37
arfcn: 115 rxLev: -96
arfcn: 977 rxLev: -96
$GPRMC,232104.000,A,4806.8710,N,00139.4162,W,0.68,101.81,050218,,,A*7D
$GPGGA,232105.000,4806.8710,N,00139.4153,W,1,04,7.7,52.5,M,48.3,M,,0000*7C
$GPGSA,M,3,26,21,20,10,,,,,,,,,9.1,7.7,5.0*37
$GPRMC,232105.000,A,4806.8710,N,00139.4153,W,0.08,101.81,050218,,,A*78
$GPGGA,232106.000,4806.8710,N,00139.4153,W,1,04,7.7,52.6,M,48.3,M,,0000*7C
$GPGSA,M,3,26,21,20,10,,,,,,,,,9.1,7.7,5.0*37
$GPRMC,232106.000,A,4806.8710,N,00139.4153,W,0.26,101.81,050218,,,A*77
arfcn: 5 bsic: 1 rxLev: -96 ber: 8.06 mcc: 208 mnc: 01 lac: 10300 cellId: 40079 cellStatus: CELL_FORBIDDEN numArfcn: 13 arfcn: 5 17 18 19 20 21 22 23 24 25 47 48 49 numChannels: 20 array: 1 2 3 4 5 8 9 10 11 13 14 15 16 512 513 518 604 606 608 610 pbcch: 0 nom: 2 rac: 1 spgc: 0 pat: 6 nco: 0 t3168: 1000 t3192: 500 drxmax: 2 ctrlAck: 0 bsCVmax: 9 alpha: 5 pcMeasCh: 1 
$GPGGA,232107.000,4806.8709,N,00139.4146,W,1,04,7.7,52.6,M,48.3,M,,0000*71
$GPGSA,M,3,26,21,20,10,,,,,,,,,9.1,7.7,5.0*37
$GPGSV,3,1,11,26,57,163,16,21,52,060,10,20,22,050,27,10,22,148,20*71
$GPGSV,3,2,11,16,80,250,09,27,54,288,07,37,27,150,,18,37,111,*71
$GPGSV,3,3,11,08,16,277,,07,10,327,,29,00,087,*40
$GPRMC,232107.000,A,4806.8709,N,00139.4146,W,0.26,101.81,050218,,,A*7A
$GPGGA,232108.000,4806.8710,N,00139.4143,W,1,04,7.7,52.6,M,48.3,M,,0000*73
$GPGSA,M,3,26,21,20,10,,,,,,,,,9.1,7.7,5.0*37
$GPRMC,232108.000,A,4806.8710,N,00139.4143,W,0.66,101.81,050218,,,A*7C
$GPGGA,232109.000,4806.8710,N,00139.4133,W,1,04,7.7,52.7,M,48.3,M,,0000*74
$GPGSA,M,3,26,21,20,10,,,,,,,,,9.1,7.7,5.0*37
$GPRMC,232109.000,A,4806.8710,N,00139.4133,W,0.93,101.81,050218,,,A*70
$GPGGA,232110.000,4806.8711,N,00139.4125,W,1,04,7.7,52.7,M,48.3,M,,0000*7A
$GPGSA,M,3,26,21,20,10,,,,,,,,,9.1,7.7,5.0*37
arfcn: 1017 bsic: 33 rxLev: -96 ber: 2.09 mcc: 208 mnc: 20 lac: 418 cellId: 20104 cellStatus: CELL_SUITABLE numArfcn: 3 arfcn: 986 987 1017 numChannels: 20 array: 788 790 885 975 976 978 979 980 981 982 986 987 1011 1012 1015 1017 1019 1020 1021 1022 pbcch: 0 nom: 2 rac: 7 spgc: 0 pat: 6 nco: 0 t3168: 1500 t3192: 500 drxmax: 4 ctrlAck: 1 bsCVmax: 8 alpha: 6 pcMeasCh: 1 
arfcn: 983 rxLev: -97
$GPRMC,232110.000,A,4806.8711,N,00139.4125,W,1.19,95.29,050218,,,A*43
$GPGGA,232111.000,4806.8714,N,00139.4121,W,1,04,7.7,52.8,M,48.3,M,,0000*75
$GPGSA,M,3,26,21,20,10,,,,,,,,,9.1,7.7,5.0*37
$GPRMC,232111.000,A,4806.8714,N,00139.4121,W,1.36,89.17,050218,,,A*4E
$GPGGA,232112.000,4806.8719,N,00139.4128,W,1,04,7.6,52.8,M,48.3,M,,0000*73
$GPGSA,M,3,26,21,20,10,,,,,,,,,9.1,7.6,5.0*36
$GPGSV,3,1,11,26,57,163,16,21,52,060,13,20,22,050,26,10,22,148,20*73
$GPGSV,3,2,11,16,80,250,07,27,54,288,08,37,27,150,,18,37,111,*70
$GPGSV,3,3,11,08,16,277,,07,10,327,,29,00,087,*40
$GPRMC,232112.000,A,4806.8719,N,00139.4128,W,1.39,83.95,050218,,,A*46
$GPGGA,232113.000,4806.8721,N,00139.4122,W,1,05,1.5,52.8,M,48.3,M,,0000*77
$GPGSA,M,3,26,27,21,20,10,,,,,,,,2.5,1.5,2.1*3F
$GPRMC,232113.000,A,4806.8721,N,00139.4122,W,1.78,76.79,050218,,,A*4B
$GPGGA,232114.000,4806.8722,N,00139.4122,W,1,05,1.5,52.8,M,48.3,M,,0000*73
$GPGSA,M,3,26,27,21,20,10,,,,,,,,2.6,1.5,2.1*3C
$GPRMC,232114.000,A,4806.8722,N,00139.4122,W,2.10,80.02,050218,,,A*47
$GPGGA,232115.000,4806.8724,N,00139.4125,W,1,05,1.5,52.9,M,48.3,M,,0000*72
$GPGSA,M,3,26,27,21,20,10,,,,,,,,2.6,1.5,2.1*3C
$GPRMC,232115.000,A,4806.8724,N,00139.4125,W,2.14,83.02,050218,,,A*40
$GPGGA,232116.000,4806.8725,N,00139.4125,W,1,05,1.5,53.2,M,48.3,M,,0000*7A
$GPGSA,M,3,26,27,21,20,10,,,,,,,,2.6,1.5,2.1*3C
$GPRMC,232116.000,A,4806.8725,N,00139.4125,W,2.43,84.93,050218,,,A*4F
$GPGGA,232117.000,4806.8726,N,00139.4122,W,1,05,1.5,53.3,M,48.3,M,,0000*7E
$GPGSA,M,3,26,27,21,20,10,,,,,,,,2.6,1.5,2.1*3C
$GPGSV,3,1,11,26,57,163,17,27,54,288,11,21,52,060,22,20,22,050,27*79
$GPGSV,3,2,11,10,22,148,19,16,80,250,04,37,27,150,,18,37,111,*79
$GPGSV,3,3,11,08,16,277,,07,10,327,,29,00,087,*40
$GPRMC,232117.000,A,4806.8726,N,00139.4122,W,2.85,89.03,050218,,,A*44
$GPGGA,232118.000,4806.8728,N,00139.4125,W,1,05,1.5,53.4,M,48.3,M,,0000*7F
$GPGSA,M,3,26,27,21,20,10,,,,,,,,2.6,1.5,2.1*3C
$GPRMC,232118.000,A,4806.8728,N,00139.4125,W,2.33,87.88,050218,,,A*42
$GPGGA,232119.000,4806.8729,N,00139.4120,W,1,05,1.5,53.7,M,48.3,M,,0000*79
$GPGSA,M,3,26,27,21,20,10,,,,,,,,2.6,1.5,2.1*3C
$GPRMC,232119.000,A,4806.8729,N,00139.4120,W,2.03,86.64,050218,,,A*47
$GPGGA,232120.000,4806.8733,N,00139.4119,W,1,06,1.6,53.8,M,48.3,M,,0000*7D
$GPGSA,M,3,16,26,27,21,20,10,,,,,,,2.9,1.6,2.5*33
$GPRMC,232120.000,A,4806.8733,N,00139.4119,W,1.66,82.33,050218,,,A*4A
$GPGGA,232121.000,4806.8735,N,00139.4113,W,1,06,1.6,53.9,M,48.3,M,,0000*71
$GPGSA,M,3,16,26,27,21,20,10,,,,,,,2.9,1.6,2.5*33
$GPRMC,232121.000,A,4806.8735,N,00139.4113,W,1.93,77.48,050218,,,A*4B
$GPGGA,232122.000,4806.8737,N,00139.4106,W,1,06,1.6,53.9,M,48.3,M,,0000*74
$GPGSA,M,3,16,26,27,21,20,10,,,,,,,2.9,1.6,2.5*33
$GPGSV,3,1,11,16,80,250,12,26,57,163,17,27,54,288,16,21,52,060,23*76
$GPGSV,3,2,11,20,22,050,26,10,22,148,19,37,27,150,,18,37,111,*76
$GPGSV,3,3,11,08,16,277,,07,10,327,,29,00,087,*40
$GPRMC,232122.000,A,4806.8737,N,00139.4106,W,1.62,73.59,050218,,,A*44
$GPGGA,232123.000,4806.8737,N,00139.4098,W,1,06,1.6,54.2,M,48.3,M,,0000*7F
$GPGSA,M,3,16,26,27,21,20,10,,,,,,,2.9,1.6,2.5*33
$GPRMC,232123.000,A,4806.8737,N,00139.4098,W,1.66,71.29,050218,,,A*42
$GPGGA,232124.000,4806.8738,N,00139.4093,W,1,06,1.6,54.4,M,48.3,M,,0000*7A
$GPGSA,M,3,16,26,27,21,20,10,,,,,,,2.9,1.6,2.5*33
$GPRMC,232124.000,A,4806.8738,N,00139.4093,W,1.64,69.15,050218,,,A*45
$GPGGA,232125.000,4806.8738,N,00139.4090,W,1,06,1.6,54.7,M,48.3,M,,0000*7B
$GPGSA,M,3,16,26,27,21,20,10,,,,,,,2.9,1.6,2.5*33
$GPRMC,232125.000,A,4806.8738,N,00139.4090,W,1.17,68.79,050218,,,A*48
$GPGGA,232126.000,4806.8739,N,00139.4094,W,1,06,1.6,54.2,M,48.3,M,,0000*78
$GPGSA,M,3,16,26,27,21,20,10,,,,,,,2.9,1.6,2.5*33
$GPRMC,232126.000,A,4806.8739,N,00139.4094,W,0.69,68.79,050218,,,A*46
$GPGGA,232127.000,4806.8738,N,00139.4095,W,1,06,1.6,54.0,M,48.3,M,,0000*7B
$GPGSA,M,3,16,26,27,21,20,10,,,,,,,2.9,1.6,2.5*33
$GPGSV,3,1,11,16,80,250,13,26,57,163,17,27,54,288,17,21,52,060,24*71
$GPGSV,3,2,11,20,22,050,26,10,22,148,19,37,27,150,,18,37,111,*76
$GPGSV,3,3,11,08,16,277,,07,10,327,,29,00,087,*40
$GPRMC,232127.000,A,4806.8738,N,00139.4095,W,0.66,68.79,050218,,,A*48
$GPGGA,232128.000,4806.8737,N,00139.4097,W,1,06,1.6,53.7,M,48.3,M,,0000*79
$GPGSA,M,3,16,26,27,21,20,10,,,,,,,2.9,1.6,2.5*33
$GPRMC,232128.000,A,4806.8737,N,00139.4097,W,0.53,68.79,050218,,,A*4C
arfcn: 987 bsic: 51 rxLev: -97 ber: 9.05 mcc: 208 mnc: 20 lac: 418 cellId: 18290 cellStatus: CELL_SUITABLE numArfcn: 1 arfcn: 987 numChannels: 24 array: 788 790 793 794 795 879 880 885 975 977 979 980 981 982 983 985 1012 1013 1015 1016 1017 1019 1020 1022
arfcn: 15 rxLev: -97
arfcn: 121 rxLev: -97
arfcn: 73 rxLev: -97
arfcn: 75 rxLev: -97
arfcn: 83 rxLev: -97
$GPGGA,232129.000,4806.8737,N,00139.4101,W,1,06,1.6,53.8,M,48.3,M,,0000*79
arfcn: 52 rxLev: -97
arfcn: 975 rxLev: -98
$GPGSA,M,3,16,26,27,21,20,10,,,,,,,2.9,1.6,2.5*33
arfcn: 1019 rxLev: -98
$GPRMC,232129.000,A,4806.8737,N,00139.4101,W,0.13,68.79,050218,,,A*47
arfcn: 516 rxLev: -98
arfcn: 609 rxLev: -98
arfcn: 1021 rxLev: -99
$GPGGA,232130.000,4806.8738,N,00139.4107,W,1,06,1.6,54.1,M,48.3,M,,0000*76
$GPGSA,M,3,16,26,27,21,20,10,,,,,,,2.9,1.6,2.5*33
$GPRMC,232130.000,A,4806.8738,N,00139.4107,W,0.61,68.79,050218,,,A*43
$GPGGA,232131.000,4806.8737,N,00139.4109,W,1,06,1.6,54.1,M,48.3,M,,0000*76
$GPGSA,M,3,16,26,27,21,20,10,,,,,,,2.9,1.6,2.5*33
$GPRMC,232131.000,A,4806.8737,N,00139.4109,W,0.37,68.79,050218,,,A*40
$GPGGA,232132.000,4806.8736,N,00139.4107,W,1,06,1.6,54.3,M,48.3,M,,0000*78
$GPGSA,M,3,16,26,27,21,20,10,,,,,,,2.9,1.6,2.5*33
$GPGSV,3,1,11,16,80,250,12,26,57,163,17,27,54,288,17,21,52,060,24*70
$GPGSV,3,2,11,20,22,050,27,10,22,148,19,39,31,144,,18,37,111,*7B
$GPGSV,3,3,11,08,16,277,,07,10,327,,29,00,087,*40
$GPRMC,232132.000,A,4806.8736,N,00139.4107,W,0.04,68.79,050218,,,A*4C
$GPGGA,232133.000,4806.8737,N,00139.4112,W,1,06,1.6,54.2,M,48.3,M,,0000*7D
$GPGSA,M,3,16,26,27,21,20,10,,,,,,,2.9,1.6,2.5*33
$GPRMC,232133.000,A,4806.8737,N,00139.4112,W,0.33,68.79,050218,,,A*4C
$GPGGA,232134.000,4806.8735,N,00139.4119,W,1,06,1.6,54.3,M,48.3,M,,0000*72
$GPGSA,M,3,16,26,27,21,20,10,,,,,,,2.9,1.6,2.5*33
$GPRMC,232134.000,A,4806.8735,N,00139.4119,W,0.83,68.79,050218,,,A*49
$GPGGA,232135.000,4806.8733,N,00139.4126,W,1,06,1.6,54.5,M,48.3,M,,0000*7F
$GPGSA,M,3,16,26,27,21,20,10,,,,,,,2.9,1.6,2.5*33
$GPRMC,232135.000,A,4806.8733,N,00139.4126,W,1.09,68.79,050218,,,A*41
$GPGGA,232136.000,4806.8730,N,00139.4136,W,1,06,1.6,54.9,M,48.3,M,,0000*72
$GPGSA,M,3,16,26,27,21,20,10,,,,,,,2.9,1.6,2.5*33
$GPRMC,232136.000,A,4806.8730,N,00139.4136,W,1.57,139.19,050218,,,A*78
$GPGGA,232137.000,4806.8728,N,00139.4147,W,1,06,1.6,55.2,M,48.3,M,,0000*76
$GPGSA,M,3,16,26,27,21,20,10,,,,,,,2.9,1.6,2.5*33
$GPGSV,3,1,11,16,80,250,12,26,57,163,18,27,54,288,16,21,52,060,25*7F
$GPGSV,3,2,11,20,22,050,27,10,22,148,19,29,00,087,16,39,31,144,*74
arfcn: 1013 bsic: 63 rxLev: -99 ber: 6.03 mcc: 208 mnc: 20 lac: 418 cellId: 38979 cellStatus: CELL_SUITABLE numArfcn: 2 arfcn: 988 1013 numChannels: 27 array: 787 788 790 794 879 880 881 882 885 975 976 977 978 979 981 983 984 985 986 1012 1014 1016 1017 1018 1019 1020 1022 pbcch: 0 nom: 2 rac: 6 spgc: 0 pat: 6 nco: 0 t3168: 1500 t3192: 500 drxmax: 0 ctrlAck: 0 bsCVmax: 8 alpha: 6 pcMeasCh: 1 
arfcn: 89 rxLev: -99
$GPGSV,3,3,11,18,37,111,,08,16,277,,07,10,327,*48
$GPRMC,232137.000,A,4806.8728,N,00139.4147,W,1.92,183.73,050218,,,A*72
$GPGGA,232138.000,4806.8727,N,00139.4155,W,1,06,1.6,55.2,M,48.3,M,,0000*75
$GPGSA,M,3,16,26,27,21,20,10,,,,,,,2.9,1.6,2.5*33
$GPRMC,232138.000,A,4806.8727,N,00139.4155,W,1.73,199.33,050218,,,A*71
$GPGGA,232139.000,4806.8728,N,00139.4164,W,1,06,1.6,55.0,M,48.3,M,,0000*7B
$GPGSA,M,3,16,26,27,21,20,10,,,,,,,2.9,1.6,2.5*33
$GPRMC,232139.000,A,4806.8728,N,00139.4164,W,1.26,205.33,050218,,,A*7B
arfcn: 1015 bsic: 59 rxLev: -99 ber: 9.08 mcc: FFF mnc: FF lac: 65535 cellId: 0 cellStatus: CELL_OTHER numArfcn: 1 arfcn: 1015 numChannels: 0 array:
arfcn: 617 rxLev: -99
arfcn: 610 rxLev: -100
arfcn: 626 rxLev: -100
arfcn: 659 rxLev: -100
arfcn: 660 rxLev: -100
arfcn: 663 rxLev: -100
$GPGGA,232140.000,4806.8727,N,00139.4168,W,1,06,1.6,54.9,M,48.3,M,,0000*7E
arfcn: 74 rxLev: -100
$GPGSA,M,3,16,26,27,21,20,10,,,,,,,2.9,1.6,2.5*33
arfcn: 119 rxLev: -100
arfcn: 111 rxLev: -100
$GPRMC,232140.000,A,4806.8727,N,00139.4168,W,0.64,205.33,050218,,,A*71
arfcn: 658 rxLev: -100
arfcn: 623 rxLev: -100
arfcn: 624 rxLev: -100
arfcn: 625 rxLev: -100
arfcn: 618 rxLev: -100
arfcn: 639 rxLev: -100
arfcn: 638 rxLev: -101
arfcn: 632 rxLev: -101
$GPGGA,232141.000,4806.8727,N,00139.4171,W,1,05,1.5,54.9,M,48.3,M,,0000*77
arfcn: 633 rxLev: -101
arfcn: 634 rxLev: -101
$GPGSA,M,3,26,27,21,20,10,,,,,,,,2.6,1.5,2.1*3C
arfcn: 635 rxLev: -101
arfcn: 619 rxLev: -101
$GPRMC,232141.000,A,4806.8727,N,00139.4171,W,0.35,205.33,050218,,,A*7C
arfcn: 620 rxLev: -101
arfcn: 621 rxLev: -101
arfcn: 627 rxLev: -101
arfcn: 628 rxLev: -101
arfcn: 629 rxLev: -101
arfcn: 662 rxLev: -101
arfcn: 517 rxLev: -101
arfcn: 705 rxLev: -101
$GPGGA,232142.000,4806.8725,N,00139.4173,W,1,05,1.5,55.0,M,48.3,M,,0000*7C
$GPGSA,M,3,26,27,21,20,10,,,,,,,,2.6,1.5,2.1*3C
arfcn: 682 rxLev: -101
arfcn: 702 rxLev: -101
$GPGSV,3,1,11,26,57,163,18,27,54,288,16,21,52,060,25,20,22,050,27*76
arfcn: 664 rxLev: -101
$GPGSV,3,2,11,10,22,148,19,39,31,144,,16,80,250,,18,37,111,*71
arfcn: 666 rxLev: -101
arfcn: 661 rxLev: -101
$GPGSV,3,3,11,08,16,277,,07,10,327,,29,00,087,*40
arfcn: 630 rxLev: -101
$GPRMC,232142.000,A,4806.8725,N,00139.4173,W,0.54,205.33,050218,,,A*78
arfcn: 631 rxLev: -101
arfcn: 641 rxLev: -101
arfcn: 643 rxLev: -101
arfcn: 644 rxLev: -101
$GPGGA,232143.000,4806.8725,N,00139.4177,W,1,05,1.5,55.1,M,48.3,M,,0000*78
arfcn: 642 rxLev: -102
$GPGSA,M,3,26,27,21,20,10,,,,,,,,2.6,1.5,2.1*3C
arfcn: 640 rxLev: -102
arfcn: 636 rxLev: -102
$GPRMC,232143.000,A,4806.8725,N,00139.4177,W,0.52,205.33,050218,,,A*7B
arfcn: 637 rxLev: -102
arfcn: 622 rxLev: -102
arfcn: 648 rxLev: -102
arfcn: 653 rxLev: -102
arfcn: 669 rxLev: -102
$GPGGA,232144.000,4806.8725,N,00139.4183,W,1,05,1.5,55.1,M,48.3,M,,0000*74
$GPGSA,M,3,26,27,21,20,10,,,,,,,,2.6,1.5,2.1*3C
$GPRMC,232144.000,A,4806.8725,N,00139.4183,W,0.21,205.33,050218,,,A*73
$GPGGA,232145.000,4806.8723,N,00139.4186,W,1,05,1.5,55.0,M,48.3,M,,0000*77
$GPGSA,M,3,26,27,21,20,10,,,,,,,,2.6,1.5,2.1*3C
$GPRMC,232145.000,A,4806.8723,N,00139.4186,W,0.78,205.33,050218,,,A*7D
$GPGGA,232146.000,4806.8722,N,00139.4195,W,1,05,1.5,54.9,M,48.3,M,,0000*7F
$GPGSA,M,3,26,27,21,20,10,,,,,,,,2.6,1.5,2.1*3C
$GPRMC,232146.000,A,4806.8722,N,00139.4195,W,0.62,205.33,050218,,,A*76
arfcn: 1016 bsic: 41 rxLev: -102 ber: 7.03 mcc: 208 mnc: 20 lac: 418 cellId: 23623 cellStatus: CELL_SUITABLE numArfcn: 1 arfcn: 1016 numChannels: 28 array: 787 788 791 792 793 794 795 879 880 883 884 975 977 978 979 981 982 983 986 987 1011 1012 1017 1018 1019 1020 1021 1022 pbcch: 0 nom: 2 rac: 6 spgc: 0 pat: 6 nco: 0 t3168: 1500 t3192: 500 drxmax: 4 ctrlAck: 1 bsCVmax: 8 alpha: 6 pcMeasCh: 1 
arfcn: 51 rxLev: -102
arfcn: 788 rxLev: -102
arfcn: 683 rxLev: -102
arfcn: 680 rxLev: -102
$GPGGA,232147.000,4806.8722,N,00139.4203,W,1,05,1.5,54.9,M,48.3,M,,0000*72
arfcn: 691 rxLev: -102
$GPGSA,M,3,26,27,21,20,10,,,,,,,,2.6,1.5,2.1*3C
arfcn: 693 rxLev: -102
arfcn: 0 rxLev: -102
$GPGSV,3,1,11,26,57,163,19,27,54,288,15,21,52,060,25,20,22,050,27*74
arfcn: 603 rxLev: -102
arfcn: 667 rxLev: -102
$GPGSV,3,2,11,10,22,148,19,39,31,144,,16,80,250,,18,37,111,*71
arfcn: 676 rxLev: -102
$GPGSV,3,3,11,08,16,277,,07,10,327,,29,00,087,*40
arfcn: 654 rxLev: -102
arfcn: 656 rxLev: -102
$GPRMC,232147.000,A,4806.8722,N,00139.4203,W,0.85,205.33,050218,,,A*72
arfcn: 657 rxLev: -102
arfcn: 650 rxLev: -103
arfcn: 651 rxLev: -103
$GPGGA,232148.000,4806.8721,N,00139.4208,W,1,05,1.5,54.8,M,48.3,M,,0000*74
arfcn: 647 rxLev: -103
$GPGSA,M,3,26,27,21,20,10,,,,,,,,2.6,1.5,2.1*3C
arfcn: 673 rxLev: -103
arfcn: 668 rxLev: -103
$GPRMC,232148.000,A,4806.8721,N,00139.4208,W,0.51,205.33,050218,,,A*7C
arfcn: 645 rxLev: -103
arfcn: 1011 rxLev: -103
arfcn: 23 rxLev: -103
arfcn: 116 rxLev: -103
arfcn: 678 rxLev: -103
arfcn: 684 rxLev: -103
arfcn: 685 rxLev: -103
arfcn: 703 rxLev: -103
$GPGGA,232149.000,4806.8721,N,00139.4211,W,1,05,1.5,54.7,M,48.3,M,,0000*72
arfcn: 704 rxLev: -103
$GPGSA,M,3,26,27,21,20,10,,,,,,,,2.6,1.5,2.1*3C
arfcn: 700 rxLev: -103
arfcn: 701 rxLev: -103
$GPRMC,232149.000,A,4806.8721,N,00139.4211,W,0.27,205.33,050218,,,A*74
arfcn: 698 rxLev: -103
arfcn: 695 rxLev: -103
arfcn: 696 rxLev: -103
arfcn: 697 rxLev: -103
arfcn: 706 rxLev: -103
arfcn: 679 rxLev: -103
arfcn: 681 rxLev: -103
arfcn: 692 rxLev: -103
$GPGGA,232150.000,4806.8720,N,00139.4214,W,1,05,1.5,54.7,M,48.3,M,,0000*7E
arfcn: 690 rxLev: -103
arfcn: 686 rxLev: -103
$GPGSA,M,3,26,27,21,20,10,,,,,,,,2.6,1.5,2.1*3C
arfcn: 687 rxLev: -103
arfcn: 688 rxLev: -103
$GPRMC,232150.000,A,4806.8720,N,00139.4214,W,0.62,205.33,050218,,,A*79
arfcn: 18 rxLev: -103
arfcn: 19 rxLev: -103
arfcn: 50 rxLev: -103
arfcn: 49 rxLev: -103
arfcn: 513 rxLev: -103
arfcn: 1022 rxLev: -103
$GPGGA,232151.000,4806.8718,N,00139.4217,W,1,05,1.5,54.6,M,48.3,M,,0000*76
arfcn: 665 rxLev: -103
arfcn: 670 rxLev: -103
$GPGSA,M,3,26,27,21,20,10,,,,,,,,2.6,1.5,2.1*3C
arfcn: 671 rxLev: -103
$GPRMC,232151.000,A,4806.8718,N,00139.4217,W,0.64,205.33,050218,,,A*76
arfcn: 677 rxLev: -103
arfcn: 646 rxLev: -103
arfcn: 649 rxLev: -103
arfcn: 652 rxLev: -103
arfcn: 655 rxLev: -103
arfcn: 674 rxLev: -104
arfcn: 675 rxLev: -104
arfcn: 672 rxLev: -104
arfcn: 1012 rxLev: -104
$GPGGA,232152.000,4806.8714,N,00139.4219,W,1,05,1.5,54.5,M,48.3,M,,0000*74
arfcn: 48 rxLev: -104
$GPGSA,M,3,26,27,21,20,10,,,,,,,,2.6,1.5,2.1*3C
arfcn: 16 rxLev: -104
arfcn: 689 rxLev: -104
$GPGSV,3,1,11,26,57,163,18,27,54,288,15,21,52,060,26,20,22,050,27*76
arfcn: 694 rxLev: -104
$GPGSV,3,2,11,10,22,148,19,39,31,144,,16,80,250,,18,37,111,*71
arfcn: 699 rxLev: -104
arfcn: 1023 rxLev: -104
$GPGSV,3,3,11,08,16,277,,07,10,327,,29,00,087,*40
arfcn: 1018 rxLev: -105
$GPRMC,232152.000,A,4806.8714,N,00139.4219,W,1.37,197.80,050218,,,A*70
arfcn: 607 rxLev: -105
arfcn: 549 rxLev: -105
arfcn: 523 rxLev: -105
$GPGGA,232153.000,4806.8712,N,00139.4222,W,1,05,1.5,54.5,M,48.3,M,,0000*7B
arfcn: 545 rxLev: -105
$GPGSA,M,3,26,27,21,20,10,,,,,,,,2.6,1.5,2.1*3C
arfcn: 518 rxLev: -106
arfcn: 988 rxLev: -106
$GPRMC,232153.000,A,4806.8712,N,00139.4222,W,0.88,197.80,050218,,,A*7A
arfcn: 113 rxLev: -106
arfcn: 17 rxLev: -106
arfcn: 24 rxLev: -106
arfcn: 546 rxLev: -106
arfcn: 547 rxLev: -106
arfcn: 1010 rxLev: -107
arfcn: 88 rxLev: -107
arfcn: 87 rxLev: -107
$GPGGA,232154.000,4806.8710,N,00139.4220,W,1,04,7.5,54.4,M,48.3,M,,0000*7A
arfcn: 786 rxLev: -107
$GPGSA,M,3,26,21,20,10,,,,,,,,,9.0,7.5,4.9*3C
arfcn: 112 rxLev: -107
arfcn: 21 rxLev: -107
$GPRMC,232154.000,A,4806.8710,N,00139.4220,W,0.73,197.80,050218,,,A*79
arfcn: 20 rxLev: -108
arfcn: 22 rxLev: -108
arfcn: 553 rxLev: -108
arfcn: 789 rxLev: -108
Network survey ended
Survey end at #CCLK: "18/02/06,00:21:55+04"
Survey duration: 159 seconds, 36 bases detected over 447 freqs scanned.
$GPGGA,232155.000,4806.8707,N,00139.4216,W,1,04,7.5,54.4,M,48.3,M,,0000*78
$GPGSA,M,3,26,21,20,10,,,,,,,,,8.9,7.5,4.9*34
$GPRMC,232155.000,A,4806.8707,N,00139.4216,W,1.01,197.80,050218,,,A*7F
$GPGGA,232156.000,4806.8702,N,00139.4210,W,1,04,7.5,54.3,M,48.3,M,,0000*7F
$GPGSA,M,3,26,21,20,10,,,,,,,,,8.9,7.5,4.9*34
$GPRMC,232156.000,A,4806.8702,N,00139.4210,W,1.32,191.06,050218,,,A*77
Survey start at #CCLK: "18/02/06,00:21:57+04"
at#csurv
Network survey started ...
$GPGGA,232157.000,4806.8699,N,00139.4202,W,1,05,2.6,54.4,M,48.3,M,,0000*7E
$GPGSA,M,3,16,26,21,20,10,,,,,,,,3.6,2.6,2.4*3A
$GPGSV,3,1,11,16,80,250,13,26,57,163,18,21,52,060,27,20,22,050,27*7F
$GPGSV,3,2,11,10,22,148,20,27,54,288,05,39,31,144,,18,37,111,*70
$GPGSV,3,3,11,08,16,277,,07,10,327,,29,00,087,*40
$GPRMC,232157.000,A,4806.8699,N,00139.4202,W,1.32,174.07,050218,,,A*7C
$GPGGA,232158.000,4806.8700,N,00139.4199,W,1,05,2.6,54.4,M,48.3,M,,0000*71
$GPGSA,M,3,16,26,21,20,10,,,,,,,,3.6,2.6,2.4*3A
$GPRMC,232158.000,A,4806.8700,N,00139.4199,W,1.13,174.07,050218,,,A*70
$GPGGA,232159.000,4806.8700,N,00139.4200,W,1,05,2.6,54.4,M,48.3,M,,0000*73
$GPGSA,M,3,16,26,21,20,10,,,,,,,,3.6,2.6,2.4*3A
$GPRMC,232159.000,A,4806.8700,N,00139.4200,W,0.75,174.07,050218,,,A*73
$GPGGA,232200.000,4806.8702,N,00139.4199,W,1,05,2.6,54.3,M,48.3,M,,0000*7A
$GPGSA,M,3,16,26,21,20,10,,,,,,,,3.6,2.6,2.4*3A
$GPRMC,232200.000,A,4806.8702,N,00139.4199,W,0.49,174.07,050218,,,A*72
$GPGGA,232201.000,4806.8701,N,00139.4194,W,1,05,2.6,54.2,M,48.3,M,,0000*74
$GPGSA,M,3,16,26,21,10,20,,,,,,,,3.6,2.6,2.4*3A
$GPRMC,232201.000,A,4806.8701,N,00139.4194,W,0.65,174.07,050218,,,A*73
arfcn: 981 bsic: 46 rxLev: -57 ber: 0.00 mcc: 208 mnc: 20 lac: 418 cellId: 21807 cellStatus: CELL_SUITABLE numArfcn: 1 arfcn: 981 numChannels: 16 array: 979 982 983 985 1012 1014 1017 1019 1020 787 790 791 793 796 882 884 pbcch: 0 nom: 2 rac: 6 spgc: 0 pat: 6 nco: 0 t3168: 1500 t3192: 500 drxmax: 0 ctrlAck: 0 bsCVmax: 8 alpha: 6 pcMeasCh: 1 
$GPGGA,232202.000,4806.8704,N,00139.4192,W,1,05,2.6,54.2,M,48.3,M,,0000*74
$GPGSA,M,3,16,26,21,10,20,,,,,,,,3.6,2.6,2.4*3A
$GPGSV,3,1,10,16,80,241,14,26,56,163,17,21,50,060,27,10,23,148,20*78
$GPGSV,3,2,10,20,22,049,26,27,55,289,04,33,33,198,,18,38,110,*72
$GPGSV,3,3,10,08,18,278,,07,11,326,*74
$GPRMC,232202.000,A,4806.8704,N,00139.4192,W,0.67,174.07,050218,,,A*71
$GPGGA,232203.000,4806.8703,N,00139.4184,W,1,05,2.6,54.2,M,48.3,M,,0000*75
